%  GPST Time  latitude(deg) longitude(deg)  height(m)   Q  ns   sdn(m)   sde(m)   sdu(m)  sdne(m)  sdeu(m)  sdun(m) age(s)  ratio
2261 221449   47.833956483    7.596176010   279.2558   6   4   2.0594   2.7717   3.8954   1.3694   1.9823   0.7395   0.00    0.0
2261 221450   47.833954595    7.596169973   277.7699   6   4   2.0594   2.7711   3.8949   1.3689   1.9816   0.7382   0.00    0.0
2261 221451   47.833947233    7.596159883   279.0103   6   4   2.0593   2.7705   3.8943   1.3684   1.9808   0.7369   0.00    0.0
2261 221452   47.833952409    7.596174703   279.9759   6   4   2.0592   2.7699   3.8938   1.3679   1.9801   0.7355   0.00    0.0
2261 221453   47.833949464    7.596173729   279.4458   6   4   2.0591   2.7693   3.8933   1.3675   1.9794   0.7342   0.00    0.0
2261 221454   47.833949797    7.596163792   278.3391   6   4   2.0590   2.7687   3.8927   1.3670   1.9786   0.7329   0.00    0.0
2261 221455   47.833950935    7.596170970   279.3719   6   4   2.0589   2.7681   3.8922   1.3665   1.9779   0.7315   0.00    0.0
2261 221456   47.833954265    7.596169762   279.1940   6   4   2.0588   2.7675   3.8917   1.3660   1.9772   0.7302   0.00    0.0
2261 221457   47.833957294    7.596172679   278.1147   6   4   2.0587   2.7668   3.8911   1.3655   1.9764   0.7289   0.00    0.0
2261 221458   47.833947870    7.596163947   279.3239   6   4   2.0586   2.7662   3.8906   1.3650   1.9757   0.7275   0.00    0.0
2261 221459   47.833943465    7.596164375   278.5289   6   4   2.0585   2.7656   3.8901   1.3646   1.9750   0.7262   0.00    0.0
2261 221460   47.833947388    7.596169159   278.7644   6   4   2.0584   2.7650   3.8895   1.3641   1.9742   0.7248   0.00    0.0
2261 221461   47.833949328    7.596168440   278.8215   6   4   2.0584   2.7644   3.8890   1.3636   1.9735   0.7235   0.00    0.0
2261 221462   47.833948679    7.596173284   279.1016   6   4   2.0583   2.7638   3.8885   1.3631   1.9728   0.7222   0.00    0.0
2261 221463   47.833954496    7.596190069   281.8710   6   4   2.0582   2.7632   3.8880   1.3626   1.9720   0.7208   0.00    0.0
2261 221464   47.833951106    7.596171913   277.9723   6   4   2.0581   2.7626   3.8874   1.3622   1.9713   0.7195   0.00    0.0
2261 221465   47.833952040    7.596171737   279.1042   6   4   2.0580   2.7620   3.8869   1.3617   1.9706   0.7181   0.00    0.0
2261 221466   47.833948301    7.596176053   279.2592   6   4   2.0579   2.7614   3.8864   1.3612   1.9698   0.7168   0.00    0.0
2261 221467   47.833946837    7.596160630   279.2222   6   4   2.0578   2.7608   3.8859   1.3607   1.9691   0.7154   0.00    0.0
2261 221468   47.833946457    7.596176466   279.4129   6   4   2.0577   2.7602   3.8853   1.3602   1.9684   0.7141   0.00    0.0
2261 221469   47.833951599    7.596183891   280.0571   6   4   2.0577   2.7596   3.8848   1.3598   1.9676   0.7127   0.00    0.0
2261 221470   47.833951661    7.596181642   278.9754   6   4   2.0576   2.7590   3.8843   1.3593   1.9669   0.7114   0.00    0.0
2261 221471   47.833953330    7.596168157   278.2673   6   4   2.0575   2.7584   3.8838   1.3588   1.9662   0.7100   0.00    0.0
2261 221472   47.833952434    7.596165115   278.6314   6   4   2.0574   2.7578   3.8832   1.3583   1.9655   0.7087   0.00    0.0
2261 221473   47.833950966    7.596173552   278.6125   6   4   2.0573   2.7572   3.8827   1.3578   1.9647   0.7073   0.00    0.0
2261 221474   47.833950248    7.596170968   277.4937   6   4   2.0572   2.7566   3.8822   1.3574   1.9640   0.7059   0.00    0.0
2261 221475   47.833952147    7.596173137   278.2888   6   4   2.0572   2.7560   3.8817   1.3569   1.9633   0.7046   0.00    0.0
2261 221476   47.833946896    7.596164788   278.8856   6   4   2.0571   2.7554   3.8811   1.3564   1.9625   0.7032   0.00    0.0
2261 221477   47.833948552    7.596173537   279.1156   6   4   2.0570   2.7548   3.8806   1.3559   1.9618   0.7019   0.00    0.0
2261 221478   47.833948828    7.596175560   279.1931   6   4   2.0569   2.7542   3.8801   1.3555   1.9611   0.7005   0.00    0.0
2261 221479   47.833953436    7.596178927   279.4253   6   4   2.0568   2.7536   3.8796   1.3550   1.9604   0.6991   0.00    0.0
2261 221480   47.833953770    7.596180266   280.6817   6   4   2.0567   2.7530   3.8791   1.3545   1.9596   0.6978   0.00    0.0
2261 221481   47.833950004    7.596174416   279.9417   6   4   2.0567   2.7525   3.8785   1.3540   1.9589   0.6964   0.00    0.0
2261 221482   47.833954634    7.596174219   279.2749   6   4   2.0566   2.7519   3.8780   1.3536   1.9582   0.6950   0.00    0.0
2261 221483   47.833949736    7.596175804   279.1628   6   4   2.0565   2.7513   3.8775   1.3531   1.9575   0.6936   0.00    0.0
2261 221484   47.833959416    7.596175592   278.2899   6   4   2.0564   2.7507   3.8770   1.3526   1.9568   0.6923   0.00    0.0
2261 221485   47.833953881    7.596168958   279.0901   6   4   2.0563   2.7501   3.8765   1.3522   1.9560   0.6909   0.00    0.0
2261 221486   47.833954383    7.596158723   277.3737   6   4   2.0563   2.7495   3.8759   1.3517   1.9553   0.6895   0.00    0.0
2261 221487   47.833952062    7.596171753   278.4219   6   4   2.0562   2.7489   3.8754   1.3512   1.9546   0.6881   0.00    0.0
2261 221488   47.833951922    7.596164306   278.5759   6   4   2.0561   2.7483   3.8749   1.3507   1.9539   0.6868   0.00    0.0
2261 221489   47.833951284    7.596166343   279.3914   6   4   2.0560   2.7477   3.8744   1.3503   1.9531   0.6854   0.00    0.0
2261 221490   47.833946376    7.596170001   279.2247   6   4   2.0559   2.7471   3.8739   1.3498   1.9524   0.6840   0.00    0.0
2261 221491   47.833949003    7.596166854   278.2378   6   4   2.0559   2.7465   3.8734   1.3493   1.9517   0.6826   0.00    0.0
2261 221492   47.833943952    7.596169497   279.9128   6   4   2.0558   2.7459   3.8729   1.3489   1.9510   0.6812   0.00    0.0
2261 221493   47.833946293    7.596187783   281.0559   6   4   2.0557   2.7453   3.8723   1.3484   1.9503   0.6798   0.00    0.0
2261 221494   47.833949903    7.596167172   278.9231   6   4   2.0556   2.7448   3.8718   1.3479   1.9495   0.6784   0.00    0.0
2261 221495   47.833952127    7.596163304   278.4208   6   4   2.0556   2.7442   3.8713   1.3475   1.9488   0.6770   0.00    0.0
2261 221496   47.833951814    7.596170467   279.5324   6   4   2.0555   2.7436   3.8708   1.3470   1.9481   0.6757   0.00    0.0
2261 221497   47.833945338    7.596174453   278.2670   6   4   2.0554   2.7430   3.8703   1.3465   1.9474   0.6743   0.00    0.0
2261 221498   47.833938655    7.596163760   277.5802   6   4   2.0553   2.7424   3.8698   1.3461   1.9467   0.6729   0.00    0.0
2261 221499   47.833949460    7.596170973   278.9769   6   4   2.0553   2.7418   3.8693   1.3456   1.9460   0.6715   0.00    0.0
2261 221500   47.833949388    7.596168595   279.4158   6   4   2.0552   2.7412   3.8688   1.3451   1.9452   0.6701   0.00    0.0
2261 221501   47.833945018    7.596158053   278.5088   6   4   2.0551   2.7406   3.8683   1.3447   1.9445   0.6687   0.00    0.0
2261 221502   47.833948453    7.596176871   279.1133   6   4   2.0550   2.7401   3.8677   1.3442   1.9438   0.6673   0.00    0.0
2261 221503   47.833941945    7.596170642   279.4088   6   4   2.0550   2.7395   3.8672   1.3437   1.9431   0.6658   0.00    0.0
2261 221504   47.833941885    7.596172113   278.4170   6   4   2.0549   2.7389   3.8667   1.3433   1.9424   0.6644   0.00    0.0
2261 221505   47.833948157    7.596167151   278.2905   6   4   2.0548   2.7383   3.8662   1.3428   1.9417   0.6630   0.00    0.0
2261 221506   47.833951823    7.596165434   279.2866   6   4   2.0547   2.7377   3.8657   1.3423   1.9409   0.6616   0.00    0.0
2261 221507   47.833954959    7.596176813   279.5358   6   4   2.0547   2.7371   3.8652   1.3419   1.9402   0.6602   0.00    0.0
2261 221508   47.833955328    7.596178957   278.8485   6   4   2.0546   2.7365   3.8647   1.3414   1.9395   0.6588   0.00    0.0
2261 221509   47.833942465    7.596176814   278.8096   6   4   2.0545   2.7360   3.8642   1.3409   1.9388   0.6574   0.00    0.0
2261 221510   47.833944855    7.596184600   278.9901   6   4   2.0544   2.7354   3.8637   1.3405   1.9381   0.6559   0.00    0.0
2261 221511   47.833950068    7.596180108   279.6449   6   4   2.0544   2.7348   3.8632   1.3400   1.9374   0.6545   0.00    0.0
2261 221512   47.833946057    7.596174197   280.0420   6   4   2.0543   2.7342   3.8627   1.3396   1.9367   0.6531   0.00    0.0
2261 221513   47.833947276    7.596182495   278.8288   6   4   2.0542   2.7336   3.8622   1.3391   1.9360   0.6517   0.00    0.0
2261 221514   47.833946245    7.596172267   278.7328   6   4   2.0542   2.7331   3.8617   1.3386   1.9352   0.6503   0.00    0.0
2261 221515   47.833950184    7.596181400   279.0727   6   4   2.0541   2.7325   3.8612   1.3382   1.9345   0.6488   0.00    0.0
2261 221516   47.833949605    7.596167359   278.8649   6   4   2.0540   2.7319   3.8607   1.3377   1.9338   0.6474   0.00    0.0
2261 221517   47.833948691    7.596172608   276.7856   6   4   2.0540   2.7313   3.8602   1.3373   1.9331   0.6460   0.00    0.0
2261 221518   47.833948253    7.596176943   279.7676   6   4   2.0539   2.7307   3.8597   1.3368   1.9324   0.6445   0.00    0.0
2261 221519   47.833956109    7.596172417   279.3748   6   4   2.0538   2.7302   3.8592   1.3363   1.9317   0.6431   0.00    0.0
2261 221520   47.833945069    7.596174647   279.7001   6   4   2.0538   2.7296   3.8587   1.3359   1.9310   0.6416   0.00    0.0
2261 221521   47.833946873    7.596179659   279.2300   6   4   2.0537   2.7290   3.8582   1.3354   1.9303   0.6402   0.00    0.0
2261 221522   47.833950300    7.596178852   279.5297   6   4   2.0536   2.7284   3.8577   1.3350   1.9296   0.6388   0.00    0.0
2261 221523   47.833949689    7.596187146   279.8312   6   4   2.0536   2.7278   3.8572   1.3345   1.9289   0.6373   0.00    0.0
2261 221524   47.833951443    7.596193601   278.9787   6   4   2.0535   2.7273   3.8567   1.3341   1.9282   0.6359   0.00    0.0
2261 221525   47.833954083    7.596179323   279.9737   6   4   2.0534   2.7267   3.8562   1.3336   1.9274   0.6344   0.00    0.0
2261 221526   47.833954404    7.596183063   279.2221   6   4   2.0534   2.7261   3.8557   1.3331   1.9267   0.6330   0.00    0.0
2261 221527   47.833947180    7.596169278   278.8826   6   4   2.0533   2.7255   3.8552   1.3327   1.9260   0.6315   0.00    0.0
2261 221528   47.833953209    7.596176383   279.1357   6   4   2.0532   2.7250   3.8547   1.3322   1.9253   0.6301   0.00    0.0
2261 221529   47.833954639    7.596178573   279.7214   6   4   2.0532   2.7244   3.8542   1.3318   1.9246   0.6286   0.00    0.0
2261 221530   47.833948333    7.596168338   279.0419   6   4   2.0531   2.7238   3.8537   1.3313   1.9239   0.6271   0.00    0.0
2261 221531   47.833957939    7.596183160   279.5352   6   4   2.0530   2.7232   3.8532   1.3309   1.9232   0.6257   0.00    0.0
2261 221532   47.833950339    7.596168120   278.5367   6   4   2.0530   2.7227   3.8527   1.3304   1.9225   0.6242   0.00    0.0
2261 221533   47.833946888    7.596179352   280.5992   6   4   2.0529   2.7221   3.8522   1.3300   1.9218   0.6227   0.00    0.0
2261 221534   47.833949500    7.596176528   281.0858   6   4   2.0529   2.7215   3.8517   1.3295   1.9211   0.6213   0.00    0.0
2261 221535   47.833952768    7.596185036   281.2972   6   4   2.0528   2.7209   3.8512   1.3291   1.9204   0.6198   0.00    0.0
2261 221536   47.833948529    7.596183123   280.1438   6   4   2.0527   2.7204   3.8508   1.3286   1.9197   0.6183   0.00    0.0
2261 221537   47.833956688    7.596175455   280.3367   6   4   2.0527   2.7198   3.8503   1.3282   1.9190   0.6169   0.00    0.0
2261 221538   47.833954291    7.596167325   279.8124   6   4   2.0526   2.7192   3.8498   1.3277   1.9183   0.6154   0.00    0.0
2261 221539   47.833957810    7.596183758   279.0558   6   4   2.0525   2.7186   3.8493   1.3273   1.9176   0.6139   0.00    0.0
2261 221540   47.833947634    7.596175268   277.9058   6   4   2.0525   2.7181   3.8488   1.3268   1.9169   0.6124   0.00    0.0
2261 221541   47.833950193    7.596176706   279.4725   6   4   2.0524   2.7175   3.8483   1.3264   1.9162   0.6109   0.00    0.0
2261 221542   47.833944983    7.596172620   279.3887   6   4   2.0524   2.7169   3.8478   1.3259   1.9155   0.6094   0.00    0.0
2261 221543   47.833949530    7.596172247   278.6838   6   4   2.0523   2.7164   3.8473   1.3255   1.9148   0.6080   0.00    0.0
2261 221544   47.833949573    7.596160471   278.8843   6   4   2.0522   2.7158   3.8468   1.3250   1.9141   0.6065   0.00    0.0
2261 221545   47.833951457    7.596171640   280.0854   6   4   2.0522   2.7152   3.8463   1.3246   1.9134   0.6050   0.00    0.0
2261 221546   47.833950497    7.596167744   279.9272   6   4   2.0521   2.7147   3.8459   1.3241   1.9127   0.6035   0.00    0.0
2261 221547   47.833954746    7.596170866   278.6993   6   4   2.0521   2.7141   3.8454   1.3237   1.9120   0.6020   0.00    0.0
2261 221548   47.833957093    7.596176240   279.2278   6   4   2.0520   2.7135   3.8449   1.3232   1.9113   0.6005   0.00    0.0
2261 221549   47.833950235    7.596176256   279.6842   6   4   2.0520   2.7130   3.8444   1.3228   1.9106   0.5990   0.00    0.0
2261 221550   47.833954423    7.596179872   279.2419   6   4   2.0519   2.7124   3.8439   1.3223   1.9099   0.5975   0.00    0.0
2261 221551   47.833948419    7.596180542   279.3438   6   4   2.0518   2.7118   3.8434   1.3219   1.9092   0.5959   0.00    0.0
2261 221552   47.833946158    7.596165400   279.1321   6   4   2.0518   2.7113   3.8429   1.3214   1.9085   0.5944   0.00    0.0
2261 221553   47.833950457    7.596163456   279.6262   6   4   2.0517   2.7107   3.8425   1.3210   1.9078   0.5929   0.00    0.0
2261 221554   47.833949609    7.596168988   279.7730   6   4   2.0517   2.7101   3.8420   1.3205   1.9071   0.5914   0.00    0.0
2261 221555   47.833947246    7.596158626   278.7634   6   4   2.0516   2.7096   3.8415   1.3201   1.9064   0.5899   0.00    0.0
2261 221556   47.833953212    7.596171027   279.2844   6   4   2.0516   2.7090   3.8410   1.3196   1.9057   0.5883   0.00    0.0
2261 221557   47.833949308    7.596156849   278.1460   6   4   2.0515   2.7084   3.8405   1.3192   1.9050   0.5868   0.00    0.0
2261 221558   47.833947077    7.596184329   279.9793   6   4   2.0515   2.7079   3.8401   1.3188   1.9043   0.5853   0.00    0.0
2261 221559   47.833947523    7.596176961   278.7891   6   4   2.0514   2.7073   3.8396   1.3183   1.9036   0.5838   0.00    0.0
2261 221560   47.833953274    7.596173686   280.0174   6   4   2.0514   2.7067   3.8391   1.3179   1.9030   0.5822   0.00    0.0
2261 221561   47.833948015    7.596180840   280.2907   6   4   2.0513   2.7062   3.8386   1.3174   1.9023   0.5807   0.00    0.0
2261 221562   47.833946011    7.596159134   278.7340   6   4   2.0512   2.7056   3.8381   1.3170   1.9016   0.5791   0.00    0.0
2261 221563   47.833946284    7.596168309   278.9478   6   4   2.0512   2.7050   3.8377   1.3165   1.9009   0.5776   0.00    0.0
2261 221564   47.833943797    7.596161018   279.7840   6   4   2.0511   2.7045   3.8372   1.3161   1.9002   0.5761   0.00    0.0
2261 221565   47.833945485    7.596161527   279.1095   6   4   2.0511   2.7039   3.8367   1.3157   1.8995   0.5745   0.00    0.0
2261 221566   47.833942518    7.596171144   279.5203   6   4   2.0510   2.7034   3.8362   1.3152   1.8988   0.5730   0.00    0.0
2261 221567   47.833950356    7.596178812   279.6710   6   4   2.0510   2.7028   3.8357   1.3148   1.8981   0.5714   0.00    0.0
2261 221568   47.833946710    7.596171256   279.8468   6   4   2.0509   2.7022   3.8353   1.3143   1.8974   0.5698   0.00    0.0
2261 221569   47.833944443    7.596169512   279.0113   6   4   2.0509   2.7017   3.8348   1.3139   1.8967   0.5683   0.00    0.0
2261 221570   47.833944503    7.596157546   278.6016   6   4   2.0508   2.7011   3.8343   1.3135   1.8960   0.5667   0.00    0.0
2261 221571   47.833945648    7.596165604   279.6986   6   4   2.0508   2.7006   3.8338   1.3130   1.8953   0.5652   0.00    0.0
2261 221572   47.833944122    7.596162072   280.0043   6   4   2.0507   2.7000   3.8334   1.3126   1.8947   0.5636   0.00    0.0
2261 221573   47.833950231    7.596161364   279.3621   6   4   2.0507   2.6994   3.8329   1.3122   1.8940   0.5620   0.00    0.0
2261 221574   47.833947171    7.596157806   278.8665   6   4   2.0506   2.6989   3.8324   1.3117   1.8933   0.5604   0.00    0.0
2261 221575   47.833941709    7.596157591   279.5613   6   4   2.0506   2.6983   3.8319   1.3113   1.8926   0.5589   0.00    0.0
2261 221576   47.833942502    7.596165599   280.1992   6   4   2.0505   2.6978   3.8315   1.3108   1.8919   0.5573   0.00    0.0
2261 221577   47.833946731    7.596166392   279.6621   6   4   2.0505   2.6972   3.8310   1.3104   1.8912   0.5557   0.00    0.0
2261 221578   47.833931799    7.596157254   278.4561   6   4   2.0505   2.6967   3.8305   1.3100   1.8905   0.5541   0.00    0.0
2261 221579   47.833940774    7.596160916   280.5318   6   4   2.0504   2.6961   3.8301   1.3095   1.8898   0.5525   0.00    0.0
2261 221580   47.833936293    7.596159001   280.2483   6   4   2.0504   2.6956   3.8296   1.3091   1.8892   0.5509   0.00    0.0
2261 221581   47.833945448    7.596163936   279.1954   6   4   2.0503   2.6950   3.8291   1.3087   1.8885   0.5493   0.00    0.0
2261 221582   47.833943819    7.596173701   279.4856   6   4   2.0503   2.6944   3.8286   1.3082   1.8878   0.5477   0.00    0.0
2261 221583   47.833944711    7.596163935   277.6164   6   4   2.0502   2.6939   3.8282   1.3078   1.8871   0.5461   0.00    0.0
2261 221584   47.833946156    7.596172522   279.7495   6   4   2.0502   2.6933   3.8277   1.3074   1.8864   0.5445   0.00    0.0
2261 221585   47.833943385    7.596160910   279.6968   6   4   2.0501   2.6928   3.8272   1.3069   1.8857   0.5429   0.00    0.0
2261 221586   47.833940935    7.596172821   280.9729   6   4   2.0501   2.6922   3.8268   1.3065   1.8851   0.5413   0.00    0.0
2261 221587   47.833948175    7.596171742   279.1805   6   4   2.0500   2.6917   3.8263   1.3061   1.8844   0.5396   0.00    0.0
2261 221588   47.833941725    7.596164022   279.7858   6   4   2.0500   2.6911   3.8258   1.3056   1.8837   0.5380   0.00    0.0
2261 221589   47.833949793    7.596179177   280.2411   6   4   2.0500   2.6906   3.8254   1.3052   1.8830   0.5364   0.00    0.0
2261 221590   47.833937862    7.596161483   278.5153   6   4   2.0499   2.6900   3.8249   1.3048   1.8823   0.5347   0.00    0.0
2261 221591   47.833936568    7.596162316   278.6529   6   4   2.0499   2.6895   3.8244   1.3043   1.8816   0.5331   0.00    0.0
2261 221592   47.833950856    7.596183362   278.6070   6   4   2.0498   2.6889   3.8240   1.3039   1.8810   0.5315   0.00    0.0
2261 221593   47.833943487    7.596164409   278.9334   6   4   2.0498   2.6884   3.8235   1.3035   1.8803   0.5298   0.00    0.0
2261 221594   47.833937743    7.596165808   279.6986   6   4   2.0497   2.6878   3.8230   1.3030   1.8796   0.5282   0.00    0.0
2261 221595   47.833940668    7.596171779   278.7708   6   4   2.0497   2.6873   3.8226   1.3026   1.8789   0.5265   0.00    0.0
2261 221596   47.833943620    7.596164243   279.4561   6   4   2.0497   2.6867   3.8221   1.3022   1.8782   0.5249   0.00    0.0
2261 221597   47.833948056    7.596172949   278.9238   6   4   2.0496   2.6862   3.8217   1.3018   1.8776   0.5232   0.00    0.0
2261 221598   47.833947726    7.596165062   278.6540   6   4   2.0496   2.6856   3.8212   1.3013   1.8769   0.5216   0.00    0.0
2261 221599   47.833946897    7.596176225   278.6514   6   4   2.0495   2.6851   3.8207   1.3009   1.8762   0.5199   0.00    0.0
2261 221600   47.833942458    7.596164875   278.4579   6   4   2.0495   2.6845   3.8203   1.3005   1.8755   0.5182   0.00    0.0
2261 221601   47.833943582    7.596175223   280.1314   6   4   2.0495   2.6840   3.8198   1.3000   1.8748   0.5165   0.00    0.0
2261 221602   47.833946350    7.596166467   279.8585   6   4   2.0494   2.6834   3.8193   1.2996   1.8742   0.5149   0.00    0.0
2261 221603   47.833949948    7.596172368   280.5842   6   4   2.0494   2.6829   3.8189   1.2992   1.8735   0.5132   0.00    0.0
2261 221604   47.833943842    7.596166940   278.6875   6   4   2.0493   2.6823   3.8184   1.2988   1.8728   0.5115   0.00    0.0
2261 221605   47.833944169    7.596166847   279.8097   6   4   2.0493   2.6818   3.8180   1.2983   1.8721   0.5098   0.00    0.0
2261 221606   47.833940553    7.596176800   279.9094   6   4   2.0493   2.6812   3.8175   1.2979   1.8715   0.5081   0.00    0.0
2261 221607   47.833946695    7.596168101   280.3357   6   4   2.0492   2.6807   3.8170   1.2975   1.8708   0.5064   0.00    0.0
2261 221608   47.833952035    7.596173612   279.6741   6   4   2.0492   2.6801   3.8166   1.2971   1.8701   0.5047   0.00    0.0
2261 221609   47.833939030    7.596174703   280.2547   6   4   2.0492   2.6796   3.8161   1.2966   1.8694   0.5030   0.00    0.0
2261 221610   47.833939987    7.596152749   279.2251   6   4   2.0491   2.6791   3.8157   1.2962   1.8687   0.5013   0.00    0.0
2261 221611   47.833945296    7.596169580   278.6202   6   4   2.0491   2.6785   3.8152   1.2958   1.8681   0.4996   0.00    0.0
2261 221612   47.833941115    7.596162284   279.0479   6   4   2.0491   2.6780   3.8148   1.2954   1.8674   0.4978   0.00    0.0
2261 221613   47.833944279    7.596172183   279.2685   6   4   2.0490   2.6774   3.8143   1.2949   1.8667   0.4961   0.00    0.0
2261 221614   47.833950261    7.596169631   277.6219   6   4   2.0490   2.6769   3.8139   1.2945   1.8661   0.4944   0.00    0.0
2261 221615   47.833942012    7.596173416   280.3146   6   4   2.0490   2.6763   3.8134   1.2941   1.8654   0.4927   0.00    0.0
2261 221616   47.833945187    7.596174658   278.5949   6   4   2.0489   2.6758   3.8129   1.2937   1.8647   0.4909   0.00    0.0
2261 221617   47.833945328    7.596174892   278.3503   6   4   2.0489   2.6753   3.8125   1.2932   1.8640   0.4892   0.00    0.0
2261 221618   47.833945827    7.596167552   277.6616   6   4   2.0488   2.6747   3.8120   1.2928   1.8634   0.4874   0.00    0.0
2261 221619   47.833941764    7.596159929   277.2639   6   4   2.0488   2.6742   3.8116   1.2924   1.8627   0.4857   0.00    0.0
2261 221620   47.833943445    7.596161521   279.1780   6   4   2.0488   2.6736   3.8111   1.2920   1.8620   0.4839   0.00    0.0
2261 221621   47.833952706    7.596174629   279.7222   6   4   2.0488   2.6731   3.8107   1.2916   1.8613   0.4821   0.00    0.0
2261 221622   47.833947349    7.596167361   278.1230   6   4   2.0487   2.6726   3.8102   1.2911   1.8607   0.4804   0.00    0.0
2261 221623   47.833948964    7.596169222   279.0453   6   4   2.0487   2.6720   3.8098   1.2907   1.8600   0.4786   0.00    0.0
2261 221624   47.833942282    7.596160386   278.5441   6   4   2.0487   2.6715   3.8093   1.2903   1.8593   0.4768   0.00    0.0
2261 221625   47.833948508    7.596176662   278.7156   6   4   2.0486   2.6709   3.8089   1.2899   1.8587   0.4750   0.00    0.0
2261 221626   47.833949370    7.596170005   279.1375   6   4   2.0486   2.6704   3.8084   1.2895   1.8580   0.4732   0.00    0.0
2261 221627   47.833939986    7.596165037   278.7607   6   4   2.0486   2.6699   3.8080   1.2891   1.8573   0.4714   0.00    0.0
2261 221628   47.833942146    7.596161907   278.8855   6   4   2.0485   2.6693   3.8075   1.2886   1.8567   0.4696   0.00    0.0
2261 221629   47.833938260    7.596172636   278.8984   6   4   2.0485   2.6688   3.8071   1.2882   1.8560   0.4678   0.00    0.0
2261 221630   47.833949545    7.596173888   280.2724   6   4   2.0485   2.6682   3.8066   1.2878   1.8553   0.4660   0.00    0.0
2261 221631   47.833939344    7.596167602   279.4180   6   4   2.0484   2.6677   3.8062   1.2874   1.8547   0.4642   0.00    0.0
2261 221632   47.833944499    7.596183999   279.9244   6   4   2.0484   2.6672   3.8057   1.2870   1.8540   0.4624   0.00    0.0
2261 221633   47.833944658    7.596175863   280.0967   6   4   2.0484   2.6666   3.8053   1.2865   1.8533   0.4605   0.00    0.0
2261 221634   47.833943332    7.596153562   278.3234   6   4   2.0484   2.6661   3.8048   1.2861   1.8527   0.4587   0.00    0.0
2261 221635   47.833944853    7.596176710   280.4079   6   4   2.0483   2.6656   3.8044   1.2857   1.8520   0.4568   0.00    0.0
2261 221636   47.833940585    7.596172784   280.1668   6   4   2.0483   2.6650   3.8040   1.2853   1.8513   0.4550   0.00    0.0
2261 221637   47.833947938    7.596186673   278.8730   6   4   2.0483   2.6645   3.8035   1.2849   1.8507   0.4531   0.00    0.0
2261 221638   47.833950596    7.596175504   278.5370   6   4   2.0483   2.6640   3.8031   1.2845   1.8500   0.4513   0.00    0.0
2261 221639   47.833945380    7.596164825   279.7158   6   4   2.0482   2.6634   3.8026   1.2841   1.8493   0.4494   0.00    0.0
2261 221640   47.833951717    7.596174529   279.1038   6   5   2.0479   2.6613   3.7953   1.2823   1.8430   0.4379   0.00    0.0
2261 221760   47.833956344    7.596169641   282.9007   6   6   1.7922   1.8801   8.0308   0.3384  -2.2665  -2.0229   0.00    0.0
2261 221761   47.833952943    7.596174188   284.2397   6   6   1.8015   1.9362   8.4731   0.4452  -1.9710  -1.9013   0.00    0.0
2261 221762   47.833950244    7.596184192   289.0121   6   6   1.8017   1.9359   8.4747   0.4454  -1.9709  -1.9034   0.00    0.0
2261 221763   47.833949578    7.596203880   285.0912   6   6   1.8020   1.9356   8.4763   0.4456  -1.9707  -1.9055   0.00    0.0
2261 221764   47.833949480    7.596175711   280.6330   6   6   1.8023   1.9353   8.4779   0.4458  -1.9705  -1.9075   0.00    0.0
2261 221765   47.833954780    7.596180602   289.2739   6   6   1.8025   1.9350   8.4795   0.4460  -1.9703  -1.9096   0.00    0.0
2261 221766   47.833951346    7.596178671   277.4769   6   6   1.8028   1.9347   8.4811   0.4462  -1.9702  -1.9116   0.00    0.0
2261 221767   47.833951122    7.596176225   278.8795   6   6   1.8030   1.9344   8.4827   0.4464  -1.9700  -1.9137   0.00    0.0
2261 221768   47.833955065    7.596182408   281.0308   6   6   1.8033   1.9341   8.4844   0.4466  -1.9698  -1.9157   0.00    0.0
2261 221769   47.833947875    7.596196857   284.9856   6   6   1.8036   1.9338   8.4860   0.4468  -1.9696  -1.9178   0.00    0.0
2261 221770   47.833952808    7.596191340   281.0304   6   6   1.8038   1.9335   8.4876   0.4470  -1.9695  -1.9199   0.00    0.0
2261 221771   47.833949564    7.596175175   280.8801   6   6   1.8041   1.9332   8.4892   0.4472  -1.9693  -1.9219   0.00    0.0
2261 221772   47.833946952    7.596190972   282.2234   6   6   1.8044   1.9329   8.4908   0.4474  -1.9691  -1.9240   0.00    0.0
2261 221773   47.833946134    7.596181055   279.7563   6   6   1.8046   1.9326   8.4925   0.4476  -1.9689  -1.9260   0.00    0.0
2261 221774   47.833947664    7.596170592   276.4897   6   6   1.8049   1.9323   8.4941   0.4478  -1.9688  -1.9281   0.00    0.0
2261 221775   47.833942835    7.596191231   280.2276   6   6   1.8052   1.9320   8.4957   0.4480  -1.9686  -1.9301   0.00    0.0
2261 221776   47.833954208    7.596185750   280.9857   6   6   1.8054   1.9317   8.4973   0.4482  -1.9684  -1.9322   0.00    0.0
2261 221777   47.833944291    7.596169132   277.0128   6   6   1.8057   1.9314   8.4990   0.4484  -1.9682  -1.9342   0.00    0.0
2261 221778   47.833945301    7.596157775   278.2257   6   6   1.8060   1.9311   8.5006   0.4486  -1.9681  -1.9363   0.00    0.0
2261 221779   47.833951903    7.596195940   282.3910   6   6   1.8063   1.9308   8.5022   0.4488  -1.9679  -1.9383   0.00    0.0
2261 221780   47.833948473    7.596183400   283.8471   6   6   1.8065   1.9305   8.5039   0.4490  -1.9677  -1.9404   0.00    0.0
2261 221781   47.833949141    7.596165993   279.5964   6   6   1.8068   1.9302   8.5055   0.4492  -1.9675  -1.9424   0.00    0.0
2261 221782   47.833947448    7.596197040   283.6081   6   6   1.8071   1.9299   8.5071   0.4494  -1.9674  -1.9445   0.00    0.0
2261 221783   47.833951909    7.596188001   281.6626   6   6   1.8074   1.9296   8.5087   0.4496  -1.9672  -1.9465   0.00    0.0
2261 221784   47.833957360    7.596187847   281.7441   6   6   1.8076   1.9293   8.5104   0.4498  -1.9670  -1.9486   0.00    0.0
2261 221785   47.833957790    7.596183776   281.4275   6   6   1.8079   1.9290   8.5120   0.4500  -1.9668  -1.9506   0.00    0.0
2261 221786   47.833951768    7.596185799   279.7562   6   6   1.8082   1.9287   8.5136   0.4502  -1.9667  -1.9526   0.00    0.0
2261 221787   47.833942738    7.596180974   285.4020   6   6   1.8085   1.9284   8.5153   0.4504  -1.9665  -1.9547   0.00    0.0
2261 221788   47.833951006    7.596132273   279.2826   6   6   1.8087   1.9281   8.5169   0.4506  -1.9663  -1.9567   0.00    0.0
2261 221789   47.833941731    7.596160882   276.9641   6   6   1.8090   1.9278   8.5186   0.4508  -1.9661  -1.9588   0.00    0.0
2261 221790   47.833947913    7.596179814   283.5648   6   6   1.8093   1.9275   8.5202   0.4510  -1.9660  -1.9608   0.00    0.0
2261 221791   47.833947771    7.596188339   282.2799   6   6   1.8096   1.9272   8.5218   0.4512  -1.9658  -1.9629   0.00    0.0
2261 221792   47.833952400    7.596185825   284.1525   6   6   1.8099   1.9269   8.5235   0.4514  -1.9656  -1.9649   0.00    0.0
2261 221793   47.833942713    7.596166835   283.4434   6   6   1.8101   1.9266   8.5251   0.4516  -1.9654  -1.9669   0.00    0.0
2261 221794   47.833948684    7.596186469   285.0537   6   6   1.8104   1.9263   8.5268   0.4518  -1.9653  -1.9690   0.00    0.0
2261 221795   47.833948760    7.596166360   283.2170   6   6   1.8107   1.9260   8.5284   0.4520  -1.9651  -1.9710   0.00    0.0
2261 221796   47.833943101    7.596182637   281.3634   6   6   1.8110   1.9257   8.5301   0.4522  -1.9649  -1.9731   0.00    0.0
2261 221797   47.833939256    7.596188148   283.2566   6   6   1.8113   1.9254   8.5317   0.4524  -1.9647  -1.9751   0.00    0.0
2261 221798   47.833945596    7.596194654   282.9363   6   7   1.7043   1.9159   6.8863   0.2988  -1.7063  -0.9026   0.00    0.0
2261 221799   47.833946385    7.596197652   286.6578   6   7   1.7044   1.9156   6.8868   0.2991  -1.7062  -0.9045   0.00    0.0
2261 221800   47.833948963    7.596195603   281.7224   6   7   1.7045   1.9153   6.8872   0.2993  -1.7060  -0.9065   0.00    0.0
2261 221801   47.833950657    7.596210089   283.6020   6   7   1.7045   1.9150   6.8877   0.2995  -1.7059  -0.9084   0.00    0.0
2261 221802   47.833943260    7.596180759   280.7814   6   7   1.7046   1.9147   6.8882   0.2997  -1.7057  -0.9103   0.00    0.0
2261 221803   47.833951982    7.596167108   284.4832   6   7   1.7047   1.9144   6.8886   0.2999  -1.7056  -0.9123   0.00    0.0
2261 221804   47.833949311    7.596178236   283.4860   6   7   1.7047   1.9141   6.8891   0.3002  -1.7055  -0.9142   0.00    0.0
2261 221805   47.833947061    7.596186181   283.0798   6   7   1.7048   1.9139   6.8896   0.3004  -1.7053  -0.9161   0.00    0.0
2261 221806   47.833942749    7.596164212   281.5268   6   7   1.7049   1.9136   6.8900   0.3006  -1.7052  -0.9181   0.00    0.0
2261 221807   47.833940378    7.596172773   283.3837   6   7   1.7050   1.9133   6.8905   0.3008  -1.7050  -0.9200   0.00    0.0
2261 221808   47.833946799    7.596152429   283.8478   6   7   1.7050   1.9130   6.8910   0.3010  -1.7049  -0.9219   0.00    0.0
2261 221809   47.833944087    7.596187018   283.2916   6   7   1.7051   1.9127   6.8915   0.3013  -1.7047  -0.9238   0.00    0.0
2261 221810   47.833945705    7.596180088   285.0963   6   7   1.7052   1.9124   6.8919   0.3015  -1.7046  -0.9257   0.00    0.0
2261 221811   47.833945001    7.596176261   282.9513   6   7   1.7053   1.9121   6.8924   0.3017  -1.7044  -0.9276   0.00    0.0
2261 221812   47.833945975    7.596192706   285.8636   6   7   1.7053   1.9119   6.8929   0.3019  -1.7043  -0.9295   0.00    0.0
2261 221813   47.833945780    7.596161094   283.4307   6   7   1.7054   1.9116   6.8933   0.3021  -1.7042  -0.9314   0.00    0.0
2261 221814   47.833946383    7.596156597   284.6077   6   7   1.7055   1.9113   6.8938   0.3023  -1.7040  -0.9333   0.00    0.0
2261 221815   47.833944635    7.596198268   280.9937   6   7   1.7056   1.9110   6.8943   0.3026  -1.7039  -0.9352   0.00    0.0
2261 221816   47.833945559    7.596180565   280.5574   6   7   1.7057   1.9107   6.8948   0.3028  -1.7037  -0.9371   0.00    0.0
2261 221817   47.833947993    7.596175747   284.9017   6   7   1.7057   1.9104   6.8952   0.3030  -1.7036  -0.9390   0.00    0.0
2261 221818   47.833944010    7.596174485   283.7896   6   7   1.7058   1.9101   6.8957   0.3032  -1.7034  -0.9409   0.00    0.0
2261 221819   47.833948741    7.596198805   283.5072   6   7   1.7059   1.9099   6.8962   0.3034  -1.7033  -0.9427   0.00    0.0
2261 221820   47.833948391    7.596190842   283.8423   6   7   1.7060   1.9096   6.8967   0.3036  -1.7032  -0.9446   0.00    0.0
2261 221821   47.833956457    7.596201035   287.0032   6   7   1.7060   1.9093   6.8971   0.3039  -1.7030  -0.9465   0.00    0.0
2261 221822   47.833950060    7.596159028   282.8736   6   7   1.7061   1.9090   6.8976   0.3041  -1.7029  -0.9483   0.00    0.0
2261 221823   47.833953206    7.596190691   284.0503   6   7   1.7062   1.9087   6.8981   0.3043  -1.7027  -0.9502   0.00    0.0
2261 221824   47.833952604    7.596205473   284.1520   6   7   1.7063   1.9084   6.8986   0.3045  -1.7026  -0.9521   0.00    0.0
2261 221825   47.833954282    7.596191064   280.8331   6   8   1.7064   1.8387   3.2166   0.3105   0.4648  -0.9758   0.00    0.0
2261 221826   47.833954752    7.596216852   281.3603   6   8   1.7064   1.8384   3.2164   0.3102   0.4644  -0.9760   0.00    0.0
2261 221827   47.833942916    7.596182208   281.0474   6   8   1.7065   1.8382   3.2163   0.3100   0.4640  -0.9762   0.00    0.0
2261 221828   47.833952987    7.596191284   281.6114   6   8   1.7066   1.8379   3.2161   0.3098   0.4636  -0.9764   0.00    0.0
2261 221829   47.833950722    7.596176232   281.1388   6   8   1.7067   1.8377   3.2160   0.3096   0.4632  -0.9766   0.00    0.0
2261 221830   47.833949178    7.596175706   279.9201   6   8   1.7068   1.8375   3.2158   0.3094   0.4629  -0.9768   0.00    0.0
2261 221831   47.833944749    7.596187945   282.0213   6   8   1.7068   1.8372   3.2156   0.3092   0.4625  -0.9770   0.00    0.0
2261 221832   47.833950569    7.596185553   279.8473   6   8   1.7069   1.8370   3.2155   0.3090   0.4621  -0.9773   0.00    0.0
2261 221833   47.833959580    7.596190794   279.9226   6   8   1.7070   1.8367   3.2153   0.3088   0.4617  -0.9775   0.00    0.0
2261 221834   47.833953355    7.596192641   281.0081   6   8   1.7071   1.8365   3.2151   0.3086   0.4613  -0.9777   0.00    0.0
2261 221835   47.833943065    7.596149745   279.7328   6   8   1.7072   1.8363   3.2150   0.3083   0.4609  -0.9779   0.00    0.0
2261 221836   47.833954198    7.596197131   279.5212   6   8   1.7073   1.8360   3.2148   0.3081   0.4605  -0.9781   0.00    0.0
2261 221837   47.833946321    7.596189923   279.1222   6   8   1.7074   1.8358   3.2147   0.3079   0.4601  -0.9783   0.00    0.0
2261 221838   47.833945945    7.596159970   278.5354   6   8   1.7074   1.8355   3.2145   0.3077   0.4597  -0.9785   0.00    0.0
2261 221839   47.833952025    7.596188122   280.8575   6   8   1.7075   1.8353   3.2143   0.3075   0.4593  -0.9787   0.00    0.0
2261 221840   47.833948079    7.596192634   279.6640   6   8   1.7076   1.8351   3.2142   0.3073   0.4589  -0.9789   0.00    0.0
2261 221841   47.833945626    7.596176378   280.1832   6   8   1.7077   1.8348   3.2140   0.3071   0.4585  -0.9791   0.00    0.0
2261 221842   47.833949964    7.596175625   280.2833   6   8   1.7078   1.8346   3.2139   0.3069   0.4581  -0.9794   0.00    0.0
2261 221843   47.833947155    7.596196133   280.7955   6   8   1.7079   1.8343   3.2137   0.3067   0.4577  -0.9796   0.00    0.0
2261 221844   47.833950623    7.596188251   280.6288   6   8   1.7079   1.8341   3.2135   0.3065   0.4574  -0.9798   0.00    0.0
2261 221845   47.833951130    7.596195205   280.5806   6   8   1.7080   1.8339   3.2134   0.3062   0.4570  -0.9800   0.00    0.0
2261 221846   47.833943281    7.596150562   280.5296   6   8   1.7081   1.8336   3.2132   0.3060   0.4566  -0.9802   0.00    0.0
2261 221847   47.833949213    7.596189129   280.8044   6   8   1.7082   1.8334   3.2131   0.3058   0.4562  -0.9804   0.00    0.0
2261 221848   47.833947771    7.596192489   279.8895   6   8   1.7083   1.8332   3.2129   0.3056   0.4558  -0.9806   0.00    0.0
2261 221849   47.833949630    7.596234050   281.4146   6   8   1.7084   1.8329   3.2128   0.3054   0.4554  -0.9808   0.00    0.0
2261 221850   47.833951415    7.596201192   280.6421   6   8   1.7085   1.8327   3.2126   0.3052   0.4550  -0.9810   0.00    0.0
2261 221851   47.833953062    7.596199548   279.3493   6   8   1.7086   1.8324   3.2124   0.3050   0.4546  -0.9812   0.00    0.0
2261 221852   47.833950847    7.596202696   279.9527   6   8   1.7086   1.8322   3.2123   0.3048   0.4542  -0.9815   0.00    0.0
2261 221853   47.833949493    7.596207747   280.0712   6   8   1.7087   1.8320   3.2121   0.3046   0.4538  -0.9817   0.00    0.0
2261 221854   47.833945865    7.596212648   280.3320   6   8   1.7088   1.8317   3.2120   0.3044   0.4534  -0.9819   0.00    0.0
2261 221855   47.833947539    7.596183826   280.2280   6   8   1.7089   1.8315   3.2118   0.3042   0.4530  -0.9821   0.00    0.0
2261 221856   47.833951907    7.596196496   280.5489   6   8   1.7090   1.8313   3.2117   0.3040   0.4526  -0.9823   0.00    0.0
2261 221857   47.833949106    7.596189825   281.4916   6   8   1.7091   1.8310   3.2115   0.3037   0.4522  -0.9825   0.00    0.0
2261 221858   47.833950980    7.596177532   279.6112   6   8   1.7092   1.8308   3.2114   0.3035   0.4518  -0.9827   0.00    0.0
2261 221859   47.833953953    7.596209366   280.3999   6   8   1.7093   1.8305   3.2112   0.3033   0.4514  -0.9829   0.00    0.0
2261 221860   47.833949233    7.596181640   279.4510   6   8   1.7093   1.8303   3.2110   0.3031   0.4510  -0.9831   0.00    0.0
2261 221861   47.833949998    7.596185790   279.8688   6   8   1.7094   1.8301   3.2109   0.3029   0.4506  -0.9833   0.00    0.0
2261 221862   47.833945832    7.596184719   278.8212   6   8   1.7095   1.8298   3.2107   0.3027   0.4502  -0.9835   0.00    0.0
2261 221863   47.833945138    7.596176776   280.5702   6   8   1.7096   1.8296   3.2106   0.3025   0.4498  -0.9837   0.00    0.0
2261 221864   47.833947963    7.596211452   279.2527   6   8   1.7097   1.8294   3.2104   0.3023   0.4494  -0.9840   0.00    0.0
2261 221865   47.833952253    7.596187316   279.9629   6   8   1.7098   1.8291   3.2103   0.3021   0.4490  -0.9842   0.00    0.0
2261 221866   47.833954217    7.596202958   280.5772   6   8   1.7099   1.8289   3.2101   0.3019   0.4486  -0.9844   0.00    0.0
2261 221867   47.833947163    7.596207065   280.7839   6   8   1.7100   1.8287   3.2100   0.3017   0.4482  -0.9846   0.00    0.0
2261 221868   47.833955917    7.596213887   280.2562   6   8   1.7101   1.8284   3.2098   0.3015   0.4478  -0.9848   0.00    0.0
2261 221869   47.833947815    7.596211868   279.8011   6   8   1.7101   1.8282   3.2097   0.3013   0.4474  -0.9850   0.00    0.0
2261 221870   47.833948606    7.596211921   279.5113   6   8   1.7102   1.8279   3.2095   0.3011   0.4470  -0.9852   0.00    0.0
2261 221871   47.833944757    7.596199064   280.6938   6   8   1.7103   1.8277   3.2094   0.3009   0.4466  -0.9854   0.00    0.0
2261 221872   47.833948028    7.596193186   279.0063   6   8   1.7104   1.8275   3.2092   0.3007   0.4462  -0.9856   0.00    0.0
2261 221873   47.833951790    7.596202145   280.7630   6   8   1.7105   1.8272   3.2091   0.3004   0.4458  -0.9858   0.00    0.0
2261 221874   47.833951484    7.596185130   279.0212   6   8   1.7106   1.8270   3.2089   0.3002   0.4454  -0.9860   0.00    0.0
2261 221875   47.833953029    7.596189147   281.2516   6   8   1.7107   1.8268   3.2088   0.3000   0.4450  -0.9862   0.00    0.0
2261 221876   47.833949304    7.596188230   280.0310   6   8   1.7108   1.8265   3.2086   0.2998   0.4446  -0.9865   0.00    0.0
2261 221877   47.833946698    7.596183023   281.0134   6   8   1.7109   1.8263   3.2085   0.2996   0.4442  -0.9867   0.00    0.0
2261 221878   47.833946142    7.596186926   279.9922   6   8   1.7110   1.8261   3.2083   0.2994   0.4438  -0.9869   0.00    0.0
2261 221879   47.833955182    7.596219154   279.5291   6   8   1.7111   1.8258   3.2082   0.2992   0.4434  -0.9871   0.00    0.0
2261 221880   47.833950628    7.596208631   279.3804   6   8   1.7111   1.8256   3.2080   0.2990   0.4430  -0.9873   0.00    0.0
2261 221881   47.833952972    7.596222666   280.8056   6   8   1.7112   1.8254   3.2079   0.2988   0.4426  -0.9875   0.00    0.0
2261 221882   47.833950100    7.596199532   280.5209   6   8   1.7113   1.8251   3.2077   0.2986   0.4422  -0.9877   0.00    0.0
2261 221883   47.833951115    7.596187472   279.0458   6   8   1.7114   1.8249   3.2076   0.2984   0.4418  -0.9879   0.00    0.0
2261 221884   47.833949672    7.596187003   279.8092   6   8   1.7115   1.8247   3.2074   0.2982   0.4414  -0.9881   0.00    0.0
2261 221885   47.833949083    7.596189781   279.6526   6   9   1.7050   1.6613   3.1374  -0.1555   0.8346  -0.9365   0.00    0.0
2261 221886   47.833953452    7.596198569   280.3499   6   9   1.7051   1.6612   3.1373  -0.1556   0.8343  -0.9367   0.00    0.0
2261 221887   47.833942024    7.596169342   280.0805   6   9   1.7052   1.6610   3.1371  -0.1557   0.8339  -0.9370   0.00    0.0
2261 221888   47.833953483    7.596189134   279.6756   6   9   1.7053   1.6609   3.1370  -0.1557   0.8336  -0.9372   0.00    0.0
2261 221889   47.833951930    7.596196623   280.9605   6   9   1.7054   1.6608   3.1368  -0.1558   0.8333  -0.9375   0.00    0.0
2261 221890   47.833955515    7.596211025   281.9540   6   9   1.7055   1.6607   3.1367  -0.1558   0.8329  -0.9377   0.00    0.0
2261 221891   47.833954918    7.596223137   281.3558   6   9   1.7056   1.6606   3.1365  -0.1559   0.8326  -0.9379   0.00    0.0
2261 221892   47.833952309    7.596190234   280.7975   6   9   1.7057   1.6604   3.1364  -0.1560   0.8323  -0.9382   0.00    0.0
2261 221893   47.833948712    7.596205085   280.7612   6   9   1.7058   1.6603   3.1362  -0.1560   0.8319  -0.9384   0.00    0.0
2261 221894   47.833954481    7.596211289   279.3210   6   9   1.7059   1.6602   3.1361  -0.1561   0.8316  -0.9387   0.00    0.0
2261 221895   47.833947694    7.596185240   280.6388   6   9   1.7060   1.6601   3.1359  -0.1561   0.8313  -0.9389   0.00    0.0
2261 221896   47.833949132    7.596190141   280.0564   6   9   1.7061   1.6600   3.1358  -0.1562   0.8310  -0.9392   0.00    0.0
2261 221897   47.833952903    7.596193322   281.8008   6   9   1.7062   1.6598   3.1356  -0.1562   0.8306  -0.9394   0.00    0.0
2261 221898   47.833951075    7.596195539   280.9575   6   9   1.7063   1.6597   3.1355  -0.1563   0.8303  -0.9396   0.00    0.0
2261 221899   47.833959342    7.596199665   278.7575   6   9   1.7064   1.6596   3.1353  -0.1564   0.8300  -0.9399   0.00    0.0
2261 221900   47.833954232    7.596178243   278.0841   6   9   1.7065   1.6595   3.1352  -0.1564   0.8296  -0.9401   0.00    0.0
2261 221901   47.833956466    7.596206234   280.7696   6   9   1.7066   1.6594   3.1350  -0.1565   0.8293  -0.9404   0.00    0.0
2261 221902   47.833956838    7.596193509   281.1893   6   9   1.7068   1.6593   3.1349  -0.1565   0.8290  -0.9406   0.00    0.0
2261 221903   47.833955698    7.596200988   281.2374   6   9   1.7069   1.6591   3.1347  -0.1566   0.8286  -0.9409   0.00    0.0
2261 221904   47.833953359    7.596197187   280.1915   6   9   1.7070   1.6590   3.1346  -0.1566   0.8283  -0.9411   0.00    0.0
2261 221905   47.833947138    7.596177905   279.9349   6   9   1.7071   1.6589   3.1344  -0.1567   0.8280  -0.9413   0.00    0.0
2261 221906   47.833946002    7.596183148   280.4437   6   9   1.7072   1.6588   3.1343  -0.1567   0.8276  -0.9416   0.00    0.0
2261 221907   47.833948184    7.596182560   279.9033   6   9   1.7073   1.6587   3.1341  -0.1568   0.8273  -0.9418   0.00    0.0
2261 221908   47.833947009    7.596197607   279.3015   6   9   1.7074   1.6585   3.1340  -0.1568   0.8270  -0.9421   0.00    0.0
2261 221909   47.833947455    7.596178504   281.0683   6   9   1.7075   1.6584   3.1338  -0.1569   0.8266  -0.9423   0.00    0.0
2261 221910   47.833953776    7.596222000   281.9474   6   9   1.7076   1.6583   3.1337  -0.1570   0.8263  -0.9426   0.00    0.0
2261 221911   47.833955844    7.596182366   279.9624   6   9   1.7077   1.6582   3.1335  -0.1570   0.8260  -0.9428   0.00    0.0
2261 221912   47.833949300    7.596196790   280.0507   6   9   1.7078   1.6581   3.1334  -0.1571   0.8257  -0.9430   0.00    0.0
2261 221913   47.833945521    7.596210359   281.5549   6   9   1.7079   1.6579   3.1333  -0.1571   0.8253  -0.9433   0.00    0.0
2261 221914   47.833953252    7.596204472   279.6897   6   9   1.7080   1.6578   3.1331  -0.1572   0.8250  -0.9435   0.00    0.0
2261 221915   47.833952727    7.596182118   279.3458   6   9   1.7081   1.6577   3.1330  -0.1572   0.8247  -0.9438   0.00    0.0
2261 221916   47.833954984    7.596207770   280.1071   6   9   1.7082   1.6576   3.1328  -0.1573   0.8243  -0.9440   0.00    0.0
2261 221917   47.833953652    7.596200298   278.6361   6   9   1.7083   1.6575   3.1327  -0.1573   0.8240  -0.9442   0.00    0.0
2261 221918   47.833952558    7.596211877   279.9784   6   9   1.7084   1.6574   3.1325  -0.1574   0.8237  -0.9445   0.00    0.0
2261 221919   47.833952353    7.596179795   280.2988   6   9   1.7085   1.6572   3.1324  -0.1574   0.8233  -0.9447   0.00    0.0
2261 221920   47.833956195    7.596191224   279.5850   6   9   1.7086   1.6571   3.1322  -0.1575   0.8230  -0.9450   0.00    0.0
2261 221921   47.833950653    7.596186467   278.4607   6   9   1.7087   1.6570   3.1321  -0.1575   0.8227  -0.9452   0.00    0.0
2261 221922   47.833946900    7.596197621   279.8242   6   9   1.7088   1.6569   3.1320  -0.1576   0.8223  -0.9454   0.00    0.0
2261 221923   47.833949071    7.596190926   280.9857   6   9   1.7089   1.6568   3.1318  -0.1576   0.8220  -0.9457   0.00    0.0
2261 221924   47.833944966    7.596165243   278.6417   6   9   1.7090   1.6566   3.1317  -0.1577   0.8217  -0.9459   0.00    0.0
2261 221925   47.833947246    7.596186596   279.4679   6   9   1.7092   1.6565   3.1315  -0.1577   0.8213  -0.9462   0.00    0.0
2261 221926   47.833947155    7.596178911   279.3340   6   9   1.7093   1.6564   3.1314  -0.1578   0.8210  -0.9464   0.00    0.0
2261 221927   47.833943212    7.596191832   280.6031   6   9   1.7094   1.6563   3.1313  -0.1578   0.8207  -0.9466   0.00    0.0
2261 221928   47.833940934    7.596182649   279.3395   6   9   1.7095   1.6562   3.1311  -0.1579   0.8203  -0.9469   0.00    0.0
2261 221929   47.833942598    7.596151698   279.3869   6   9   1.7096   1.6561   3.1310  -0.1579   0.8200  -0.9471   0.00    0.0
2261 221930   47.833939219    7.596169372   279.9794   6   9   1.7097   1.6559   3.1308  -0.1579   0.8197  -0.9474   0.00    0.0
2261 221931   47.833951634    7.596200422   279.0031   6   9   1.7098   1.6558   3.1307  -0.1580   0.8193  -0.9476   0.00    0.0
2261 221932   47.833944349    7.596198100   280.0650   6   9   1.7099   1.6557   3.1306  -0.1580   0.8190  -0.9478   0.00    0.0
2261 221933   47.833947878    7.596178048   279.3697   6   9   1.7100   1.6556   3.1304  -0.1581   0.8187  -0.9481   0.00    0.0
2261 221934   47.833946715    7.596201927   279.3829   6   9   1.7101   1.6555   3.1303  -0.1581   0.8183  -0.9483   0.00    0.0
2261 221935   47.833946633    7.596163453   278.6030   6   9   1.7102   1.6554   3.1301  -0.1582   0.8180  -0.9486   0.00    0.0
2261 221936   47.833948527    7.596178913   279.5303   6   9   1.7103   1.6552   3.1300  -0.1582   0.8177  -0.9488   0.00    0.0
2261 221937   47.833941969    7.596177728   281.2464   6   9   1.7104   1.6551   3.1299  -0.1583   0.8173  -0.9490   0.00    0.0
2261 221938   47.833945312    7.596203575   279.8661   6   9   1.7105   1.6550   3.1297  -0.1583   0.8170  -0.9493   0.00    0.0
2261 221939   47.833946898    7.596181859   279.6518   6   9   1.7107   1.6549   3.1296  -0.1584   0.8167  -0.9495   0.00    0.0
2261 221940   47.833949549    7.596196231   279.8209   6   9   1.7108   1.6548   3.1295  -0.1584   0.8163  -0.9497   0.00    0.0
2261 221941   47.833949026    7.596207264   280.4131   6   9   1.7109   1.6546   3.1293  -0.1584   0.8160  -0.9500   0.00    0.0
2261 221942   47.833945097    7.596183287   281.4362   6   9   1.7110   1.6545   3.1292  -0.1585   0.8157  -0.9502   0.00    0.0
2261 221943   47.833950924    7.596190896   279.5281   6   9   1.7111   1.6544   3.1290  -0.1585   0.8153  -0.9505   0.00    0.0
2261 221944   47.833945410    7.596180340   278.7221   6   9   1.7112   1.6543   3.1289  -0.1586   0.8150  -0.9507   0.00    0.0
2261 221945   47.833949483    7.596199823   279.4873   6  10   1.6678   1.5133   3.1277   0.4806   0.7806  -0.9344   0.00    0.0
2261 221946   47.833948578    7.596190520   279.5641   6  10   1.6679   1.5131   3.1276   0.4806   0.7801  -0.9346   0.00    0.0
2261 221947   47.833950402    7.596200158   280.5733   6  10   1.6680   1.5130   3.1274   0.4806   0.7796  -0.9347   0.00    0.0
2261 221948   47.833950119    7.596204514   280.3406   6  10   1.6681   1.5129   3.1273   0.4806   0.7792  -0.9349   0.00    0.0
2261 221949   47.833951419    7.596187225   278.3999   6  10   1.6682   1.5128   3.1271   0.4805   0.7787  -0.9351   0.00    0.0
2261 221950   47.833947822    7.596181103   280.8305   6  10   1.6684   1.5127   3.1270   0.4805   0.7782  -0.9353   0.00    0.0
2261 221951   47.833951730    7.596180794   280.1178   6  10   1.6685   1.5126   3.1268   0.4805   0.7778  -0.9355   0.00    0.0
2261 221952   47.833947350    7.596216381   281.0314   6  10   1.6686   1.5125   3.1267   0.4805   0.7773  -0.9356   0.00    0.0
2261 221953   47.833948230    7.596178538   277.7072   6  10   1.6687   1.5123   3.1266   0.4805   0.7768  -0.9358   0.00    0.0
2261 221954   47.833952108    7.596205519   280.7135   6  10   1.6688   1.5122   3.1264   0.4805   0.7763  -0.9360   0.00    0.0
2261 221955   47.833944959    7.596189803   279.9855   6  10   1.6689   1.5121   3.1263   0.4805   0.7759  -0.9362   0.00    0.0
2261 221956   47.833947308    7.596198406   280.9338   6  10   1.6690   1.5120   3.1261   0.4804   0.7754  -0.9364   0.00    0.0
2261 221957   47.833954231    7.596223013   280.0105   6  10   1.6691   1.5119   3.1260   0.4804   0.7749  -0.9365   0.00    0.0
2261 221958   47.833947655    7.596191688   280.8818   6  10   1.6692   1.5118   3.1258   0.4804   0.7744  -0.9367   0.00    0.0
2261 221959   47.833945297    7.596192526   279.6539   6  10   1.6694   1.5117   3.1257   0.4804   0.7740  -0.9369   0.00    0.0
2261 221960   47.833942585    7.596205189   279.3632   6  10   1.6695   1.5115   3.1256   0.4804   0.7735  -0.9371   0.00    0.0
2261 221961   47.833943740    7.596185148   279.0368   6  10   1.6696   1.5114   3.1254   0.4804   0.7730  -0.9373   0.00    0.0
2261 221962   47.833944748    7.596194143   279.8597   6  10   1.6697   1.5113   3.1253   0.4803   0.7725  -0.9374   0.00    0.0
2261 221963   47.833946095    7.596204951   280.5155   6  10   1.6698   1.5112   3.1251   0.4803   0.7721  -0.9376   0.00    0.0
2261 221964   47.833945317    7.596195325   279.2785   6  10   1.6699   1.5111   3.1250   0.4803   0.7716  -0.9378   0.00    0.0
2261 221965   47.833951141    7.596179949   279.6241   6  10   1.6700   1.5110   3.1248   0.4803   0.7711  -0.9380   0.00    0.0
2261 221966   47.833951222    7.596197953   279.9249   6  10   1.6701   1.5109   3.1247   0.4803   0.7706  -0.9382   0.00    0.0
2261 221967   47.833951043    7.596203036   280.5144   6  10   1.6703   1.5108   3.1246   0.4803   0.7702  -0.9383   0.00    0.0
2261 221968   47.833944539    7.596194985   281.3623   6  10   1.6704   1.5106   3.1244   0.4803   0.7697  -0.9385   0.00    0.0
2261 221969   47.833946018    7.596192531   277.9686   6  10   1.6705   1.5105   3.1243   0.4802   0.7692  -0.9387   0.00    0.0
2261 221970   47.833943438    7.596178599   279.2130   6  10   1.6706   1.5104   3.1241   0.4802   0.7687  -0.9389   0.00    0.0
2261 221971   47.833945510    7.596193969   280.5632   6  10   1.6707   1.5103   3.1240   0.4802   0.7683  -0.9391   0.00    0.0
2261 221972   47.833948272    7.596189428   278.7059   6  10   1.6708   1.5102   3.1239   0.4802   0.7678  -0.9392   0.00    0.0
2261 221973   47.833948496    7.596196136   279.7908   6  10   1.6709   1.5101   3.1237   0.4802   0.7673  -0.9394   0.00    0.0
2261 221974   47.833943446    7.596208206   279.1476   6  10   1.6710   1.5100   3.1236   0.4802   0.7668  -0.9396   0.00    0.0
2261 221975   47.833947388    7.596191621   280.2397   6  10   1.6712   1.5099   3.1234   0.4802   0.7664  -0.9398   0.00    0.0
2261 221976   47.833945035    7.596189800   279.1591   6  10   1.6713   1.5097   3.1233   0.4801   0.7659  -0.9400   0.00    0.0
2261 221977   47.833946329    7.596195069   279.3870   6  10   1.6714   1.5096   3.1232   0.4801   0.7654  -0.9401   0.00    0.0
2261 221978   47.833950218    7.596208006   280.7685   6  10   1.6715   1.5095   3.1230   0.4801   0.7649  -0.9403   0.00    0.0
2261 221979   47.833936152    7.596169669   279.8672   6  10   1.6716   1.5094   3.1229   0.4801   0.7645  -0.9405   0.00    0.0
2261 221980   47.833944546    7.596188707   280.3277   6  10   1.6717   1.5093   3.1228   0.4801   0.7640  -0.9407   0.00    0.0
2261 221981   47.833947481    7.596185419   278.5377   6  10   1.6718   1.5092   3.1226   0.4801   0.7635  -0.9408   0.00    0.0
2261 221982   47.833946225    7.596194286   278.4739   6  10   1.6720   1.5091   3.1225   0.4801   0.7630  -0.9410   0.00    0.0
2261 221983   47.833941494    7.596182465   280.0730   6  10   1.6721   1.5090   3.1223   0.4800   0.7626  -0.9412   0.00    0.0
2261 221984   47.833944672    7.596183167   281.0086   6  10   1.6722   1.5089   3.1222   0.4800   0.7621  -0.9414   0.00    0.0
2261 221985   47.833936124    7.596189813   279.1557   6  10   1.6723   1.5087   3.1221   0.4800   0.7616  -0.9416   0.00    0.0
2261 221986   47.833944691    7.596198022   278.8289   6  10   1.6724   1.5086   3.1219   0.4800   0.7611  -0.9417   0.00    0.0
2261 221987   47.833946007    7.596193419   280.2082   6  10   1.6725   1.5085   3.1218   0.4800   0.7606  -0.9419   0.00    0.0
2261 221988   47.833948660    7.596200615   280.6863   6  10   1.6727   1.5084   3.1217   0.4800   0.7602  -0.9421   0.00    0.0
2261 221989   47.833945831    7.596193299   279.9272   6  10   1.6728   1.5083   3.1215   0.4800   0.7597  -0.9423   0.00    0.0
2261 221990   47.833943220    7.596181434   279.5281   6  10   1.6729   1.5082   3.1214   0.4800   0.7592  -0.9425   0.00    0.0
2261 221991   47.833942872    7.596189473   280.7534   6  10   1.6730   1.5081   3.1213   0.4799   0.7587  -0.9426   0.00    0.0
2261 221992   47.833946017    7.596213644   278.9324   6  10   1.6731   1.5080   3.1211   0.4799   0.7582  -0.9428   0.00    0.0
2261 221993   47.833945958    7.596193004   279.1724   6  10   1.6732   1.5079   3.1210   0.4799   0.7578  -0.9430   0.00    0.0
2261 221994   47.833941470    7.596174873   280.7462   6  10   1.6734   1.5077   3.1209   0.4799   0.7573  -0.9432   0.00    0.0
2261 221995   47.833946113    7.596178307   279.8287   6  10   1.6735   1.5076   3.1207   0.4799   0.7568  -0.9433   0.00    0.0
2261 221996   47.833945531    7.596190799   280.4172   6  10   1.6736   1.5075   3.1206   0.4799   0.7563  -0.9435   0.00    0.0
2261 221997   47.833946919    7.596178360   280.1315   6  10   1.6737   1.5074   3.1205   0.4799   0.7559  -0.9437   0.00    0.0
2261 221998   47.833954471    7.596204638   279.1737   6  10   1.6738   1.5073   3.1203   0.4799   0.7554  -0.9439   0.00    0.0
2261 221999   47.833944123    7.596208362   279.9940   6  10   1.6739   1.5072   3.1202   0.4798   0.7549  -0.9441   0.00    0.0
2261 222000   47.833944235    7.596201391   280.2267   6  10   1.6741   1.5071   3.1201   0.4798   0.7544  -0.9442   0.00    0.0
2261 222001   47.833947094    7.596177667   278.7085   6  10   1.6742   1.5070   3.1199   0.4798   0.7539  -0.9444   0.00    0.0
2261 222002   47.833952744    7.596185587   278.5172   6  10   1.6743   1.5069   3.1198   0.4798   0.7535  -0.9446   0.00    0.0
2261 222003   47.833952442    7.596202461   279.5609   6  10   1.6744   1.5068   3.1197   0.4798   0.7530  -0.9448   0.00    0.0
2261 222004   47.833949586    7.596185985   280.4600   6  10   1.6745   1.5067   3.1195   0.4798   0.7525  -0.9449   0.00    0.0
2261 222005   47.833945394    7.596175835   278.9910   6  10   1.6747   1.5065   3.1194   0.4798   0.7520  -0.9451   0.00    0.0
2261 222006   47.833947477    7.596180252   278.9250   6  10   1.6748   1.5064   3.1193   0.4798   0.7515  -0.9453   0.00    0.0
2261 222007   47.833943832    7.596173729   279.2577   6  10   1.6749   1.5063   3.1191   0.4797   0.7511  -0.9455   0.00    0.0
2261 222008   47.833951566    7.596182349   279.5282   6  10   1.6750   1.5062   3.1190   0.4797   0.7506  -0.9456   0.00    0.0
2261 222009   47.833946598    7.596197916   278.6387   6  10   1.6751   1.5061   3.1189   0.4797   0.7501  -0.9458   0.00    0.0
2261 222010   47.833945470    7.596192681   278.3491   6  10   1.6752   1.5060   3.1188   0.4797   0.7496  -0.9460   0.00    0.0
2261 222011   47.833950779    7.596206177   279.6784   6  10   1.6754   1.5059   3.1186   0.4797   0.7491  -0.9462   0.00    0.0
2261 222012   47.833945431    7.596191705   280.0143   6  10   1.6755   1.5058   3.1185   0.4797   0.7486  -0.9464   0.00    0.0
2261 222013   47.833946980    7.596179140   278.5386   6  10   1.6756   1.5057   3.1184   0.4797   0.7482  -0.9465   0.00    0.0
2261 222014   47.833948962    7.596168280   277.9055   6  10   1.6757   1.5056   3.1182   0.4797   0.7477  -0.9467   0.00    0.0
2261 222015   47.833941682    7.596180104   279.4379   6  10   1.6758   1.5055   3.1181   0.4797   0.7472  -0.9469   0.00    0.0
2261 222016   47.833946267    7.596184532   277.8828   6  10   1.6760   1.5053   3.1180   0.4797   0.7467  -0.9471   0.00    0.0
2261 222017   47.833947525    7.596180335   278.1623   6  10   1.6761   1.5052   3.1179   0.4796   0.7462  -0.9472   0.00    0.0
2261 222018   47.833947099    7.596173718   279.3565   6  10   1.6762   1.5051   3.1177   0.4796   0.7458  -0.9474   0.00    0.0
2261 222019   47.833945148    7.596192039   279.9456   6  10   1.6763   1.5050   3.1176   0.4796   0.7453  -0.9476   0.00    0.0
2261 222020   47.833946772    7.596202250   278.4636   6  10   1.6765   1.5049   3.1175   0.4796   0.7448  -0.9478   0.00    0.0
2261 222021   47.833947615    7.596192770   279.0830   6  10   1.6766   1.5048   3.1173   0.4796   0.7443  -0.9479   0.00    0.0
2261 222022   47.833947518    7.596181950   278.5962   6  10   1.6767   1.5047   3.1172   0.4796   0.7438  -0.9481   0.00    0.0
2261 222023   47.833948010    7.596187285   279.4517   6  10   1.6768   1.5046   3.1171   0.4796   0.7433  -0.9483   0.00    0.0
2261 222024   47.833947430    7.596160889   278.6431   6  10   1.6769   1.5045   3.1170   0.4796   0.7429  -0.9485   0.00    0.0
2261 222025   47.833939447    7.596163746   278.6100   6  10   1.6771   1.5044   3.1168   0.4796   0.7424  -0.9486   0.00    0.0
2261 222026   47.833946291    7.596176318   279.4316   6  10   1.6772   1.5043   3.1167   0.4795   0.7419  -0.9488   0.00    0.0
2261 222027   47.833948713    7.596175671   277.5465   6  10   1.6773   1.5042   3.1166   0.4795   0.7414  -0.9490   0.00    0.0
2261 222028   47.833950460    7.596187403   280.4572   6  10   1.6774   1.5041   3.1165   0.4795   0.7409  -0.9492   0.00    0.0
2261 222029   47.833941829    7.596177161   279.3692   6  10   1.6775   1.5039   3.1163   0.4795   0.7404  -0.9493   0.00    0.0
2261 222030   47.833948363    7.596207305   280.8125   6  10   1.6777   1.5038   3.1162   0.4795   0.7399  -0.9495   0.00    0.0
2261 222031   47.833953367    7.596200303   277.5660   6  10   1.6778   1.5037   3.1161   0.4795   0.7395  -0.9497   0.00    0.0
