%  GPST Time  latitude(deg) longitude(deg)  height(m)   Q  ns   sdn(m)   sde(m)   sdu(m)  sdne(m)  sdeu(m)  sdun(m) age(s)  ratio
2281 400043   16.262307324  -61.527542525    -9.0047   6   7  11.9868  11.2124  28.5984   7.5001 -10.1624  -8.1107   0.00    0.0
2281 400044   16.262304365  -61.527543842   -10.6277   6   7   8.7376   8.1357  21.9224   5.5337  -7.8476  -6.5738   0.00    0.0
2281 400045   16.262303081  -61.527544976   -11.4109   6   7   7.2114   6.7053  18.4395   4.5896  -6.6205  -5.6416   0.00    0.0
2281 400046   16.262302052  -61.527545588   -11.7950   6   7   6.2778   5.8348  16.2097   4.0063  -5.8312  -5.0183   0.00    0.0
2281 400047   16.262301213  -61.527545705   -12.0460   6   7   5.6305   5.2334  14.6224   3.5998  -5.2687  -4.5676   0.00    0.0
2281 400048   16.262300631  -61.527545711   -12.1926   6   7   5.1472   4.7859  13.4161   3.2952  -4.8416  -4.2239   0.00    0.0
2281 400049   16.262300193  -61.527545719   -12.2814   6   7   4.7681   4.4360  12.4572   3.0558  -4.5026  -3.9517   0.00    0.0
2281 400050   16.262299975  -61.527545796   -12.3716   6   7   4.4600   4.1525  11.6697   2.8610  -4.2250  -3.7299   0.00    0.0
2281 400051   16.262300027  -61.527545886   -12.4904   6   7   4.2030   3.9167  11.0068   2.6983  -3.9919  -3.5453   0.00    0.0
2281 400052   16.262300062  -61.527545942   -12.6386   6   7   3.9840   3.7164  10.4376   2.5597  -3.7925  -3.3890   0.00    0.0
2281 400053   16.262308762  -61.527535012   -15.3387   6  10   3.4541   3.1928   9.3146   1.9184  -2.9841  -2.3833   0.00    0.0
2281 400054   16.262311768  -61.527531114   -16.3687   6  10   3.1398   2.8938   8.5998   1.5647  -2.5738  -1.8199   0.00    0.0
2281 400055   16.262313470  -61.527528958   -16.9934   6  10   2.9126   2.6812   8.0547   1.3242  -2.3062  -1.4345   0.00    0.0
2281 400056   16.262314408  -61.527527534   -17.4095   6  10   2.7349   2.5173   7.6111   1.1476  -2.1138  -1.1528   0.00    0.0
2281 400057   16.262315064  -61.527526581   -17.7243   6  10   2.5890   2.3844   7.2358   1.0114  -1.9660  -0.9395   0.00    0.0
2281 400058   16.262315426  -61.527525893   -17.9534   6  10   2.4653   2.2731   6.9100   0.9026  -1.8471  -0.7760   0.00    0.0
2281 400059   16.262315621  -61.527525292   -18.1782   6  10   2.3580   2.1777   6.6220   0.8135  -1.7480  -0.6518   0.00    0.0
2281 400060   16.262315512  -61.527524767   -18.3698   6  10   2.2633   2.0943   6.3638   0.7391  -1.6634  -0.5606   0.00    0.0
2281 400061   16.262315428  -61.527524308   -18.5496   6  10   2.1786   2.0205   6.1299   0.6761  -1.5896  -0.4983   0.00    0.0
2281 400062   16.262314732  -61.527522870   -18.8784   6  12   2.0970   1.9364   5.8698   0.6512  -1.4729  -0.5249   0.00    0.0
2281 400063   16.262314190  -61.527521617   -19.1936   6  12   2.0237   1.8644   5.6412   0.6257  -1.3773  -0.5518   0.00    0.0
2281 400064   16.262313702  -61.527520531   -19.4477   6  12   1.9568   1.8004   5.4350   0.6028  -1.2950  -0.5802   0.00    0.0
2281 400065   16.262313257  -61.527519496   -19.6956   6  12   1.8953   1.7429   5.2472   0.5820  -1.2232  -0.6080   0.00    0.0
2281 400066   16.262312794  -61.527518643   -19.9264   6  12   1.8384   1.6909   5.0750   0.5630  -1.1602  -0.6344   0.00    0.0
2281 400067   16.262312348  -61.527517867   -20.1947   6  12   1.7856   1.6434   4.9160   0.5454  -1.1042  -0.6590   0.00    0.0
2281 400068   16.262312000  -61.527517209   -20.4271   6  12   1.7364   1.5999   4.7684   0.5291  -1.0541  -0.6817   0.00    0.0
2281 400069   16.262311440  -61.527516729   -20.7034   6  12   1.6902   1.5597   4.6307   0.5139  -1.0089  -0.7025   0.00    0.0
2281 400070   16.262310980  -61.527516359   -20.9248   6  12   1.6469   1.5225   4.5018   0.4996  -0.9681  -0.7215   0.00    0.0
2281 400071   16.262310508  -61.527516172   -21.0838   6  12   1.6061   1.4879   4.3806   0.4862  -0.9308  -0.7387   0.00    0.0
2281 400072   16.262310094  -61.527516042   -21.2457   6  12   1.5675   1.4556   4.2664   0.4735  -0.8967  -0.7543   0.00    0.0
2281 400073   16.262309555  -61.527515659   -21.3669   6  12   1.5298   1.4311   4.1594   0.4661  -0.8565  -0.7689   0.00    0.0
2281 400074   16.262309076  -61.527515306   -21.4848   6  12   1.4947   1.4080   4.0583   0.4582  -0.8193  -0.7811   0.00    0.0
2281 400075   16.262308821  -61.527514918   -21.5684   6  12   1.4613   1.3862   3.9621   0.4502  -0.7847  -0.7920   0.00    0.0
2281 400076   16.262308573  -61.527514566   -21.6492   6  12   1.4296   1.3654   3.8706   0.4423  -0.7523  -0.8017   0.00    0.0
2281 400077   16.262308313  -61.527514259   -21.7186   6  12   1.3994   1.3456   3.7833   0.4344  -0.7219  -0.8104   0.00    0.0
2281 400078   16.262308069  -61.527513977   -21.7785   6  12   1.3720   1.3268   3.7090   0.4259  -0.6948  -0.8078   0.00    0.0
2281 400079   16.262307793  -61.527513740   -21.8066   6  12   1.3458   1.3087   3.6374   0.4176  -0.6692  -0.8058   0.00    0.0
2281 400080   16.262307586  -61.527513509   -21.8486   6  12   1.3206   1.2914   3.5685   0.4095  -0.6450  -0.8041   0.00    0.0
2281 400081   16.262307339  -61.527513321   -21.8845   6  12   1.2963   1.2749   3.5020   0.4015  -0.6222  -0.8026   0.00    0.0
2281 400082   16.262307306  -61.527512755   -21.9323   6   4   1.2951   1.2720   3.4995   0.4027  -0.6184  -0.8024   0.00    0.0
2281 400083   16.262307165  -61.527512134   -21.9909   6   5   1.2931   1.2691   3.4969   0.4045  -0.6144  -0.8029   0.00    0.0
2281 400084   16.262307060  -61.527511496   -22.0472   6   5   1.2915   1.2663   3.4943   0.4060  -0.6104  -0.8031   0.00    0.0
2281 400085   16.262306952  -61.527510856   -22.1024   6   5   1.2898   1.2634   3.4916   0.4075  -0.6065  -0.8034   0.00    0.0
2281 400086   16.262306837  -61.527510201   -22.1606   6   5   1.2881   1.2606   3.4888   0.4089  -0.6025  -0.8038   0.00    0.0
