%  GPST Time  latitude(deg) longitude(deg)  height(m)   Q  ns   sdn(m)   sde(m)   sdu(m)  sdne(m)  sdeu(m)  sdun(m) age(s)  ratio
2280 463900   16.262292331  -61.527552014   -53.3732   6   6  17.4730  27.1189  48.1840  16.6873  -6.8243   8.2797   0.00    0.0
2280 463901   16.262289618  -61.527556660   -49.6160   6   6  13.1321  20.8672  41.5211  12.9527  -6.4245   7.0336   0.00    0.0
2280 463902   16.262289253  -61.527558883   -47.0701   6   6  10.9692  17.5892  36.9847  10.9471  -5.9416   6.1968   0.00    0.0
2280 463903   16.262289636  -61.527558867   -45.4234   6   6   9.6118  15.4898  33.6198   9.6512  -5.5382   5.5713   0.00    0.0
2280 463904   16.262289439  -61.527559141   -44.5821   6   6   8.6571  13.9980  30.9796   8.7259  -5.2124   5.0706   0.00    0.0
2280 463905   16.262289122  -61.527559726   -44.0187   6   6   7.9378  12.8676  28.8235   8.0225  -4.9482   4.6505   0.00    0.0
2280 463906   16.262288778  -61.527560457   -43.3237   6   6   7.3703  11.9728  27.0097   7.4643  -4.7317   4.2854   0.00    0.0
2280 463907   16.262288309  -61.527561349   -42.9209   6   6   6.9072  11.2415  25.4483   7.0071  -4.5522   3.9593   0.00    0.0
2280 463908   16.262287360  -61.527563020   -42.6174   6   6   6.5197  10.6293  24.0795   6.6236  -4.4017   3.6620   0.00    0.0
2280 463909   16.262285805  -61.527565606   -42.4698   6   6   6.1891  10.1069  22.8619   6.2958  -4.2742   3.3861   0.00    0.0
2280 463910   16.262289953  -61.527556969   -36.8814   6   5   5.8978   9.5149  19.3099   5.9450  -7.0730  -1.0995   0.00    0.0
2280 463911   16.262291537  -61.527555065   -34.1616   6   5   5.6827   9.2025  17.6439   5.7548  -7.7277  -2.4466   0.00    0.0
2280 463912   16.262292368  -61.527555041   -32.3622   6   5   5.5004   8.9707  16.5528   5.6126  -7.9697  -2.9296   0.00    0.0
2280 463913   16.262292800  -61.527555744   -31.0071   6   5   5.3399   8.7761  15.7280   5.4940  -8.0505  -3.1944   0.00    0.0
2280 463914   16.262293090  -61.527556711   -29.9233   6   5   5.1957   8.6025  15.0506   5.3895  -8.0507  -3.3600   0.00    0.0
2280 463915   16.262296100  -61.527553069   -29.2394   6   7   4.5497   5.6077  11.2340   3.7564  -2.6769   2.7341   0.00    0.0
2280 463916   16.262298302  -61.527551528   -28.4707   6   7   4.3093   4.7813  10.0592   3.3002   1.2415   3.0946   0.00    0.0
2280 463917   16.262300053  -61.527551270   -27.7263   6   8   4.1296   4.2967   9.3270   3.0225   2.1223   3.1334   0.00    0.0
2280 463918   16.262301508  -61.527550669   -27.2536   6   8   3.9822   3.9816   8.7801   2.8336   2.3611   3.0810   0.00    0.0
2280 463919   16.262302993  -61.527550094   -26.7907   6   8   3.8528   3.7465   8.3341   2.6868   2.4339   2.9983   0.00    0.0
2280 463920   16.262305436  -61.527548034   -26.2614   6  11   3.4632   3.2908   7.7026   2.2222   1.8321   2.4018   0.00    0.0
2280 463921   16.262306867  -61.527546916   -25.8891   6  11   3.2084   2.9988   7.2412   1.9369   1.4740   2.0069   0.00    0.0
2280 463922   16.262307959  -61.527546245   -25.5842   6  11   3.0171   2.7850   6.8702   1.7376   1.2289   1.7072   0.00    0.0
2280 463923   16.262308511  -61.527545656   -25.3411   6  11   2.8645   2.6182   6.5584   1.5893   1.0509   1.4648   0.00    0.0
2280 463924   16.262308818  -61.527545047   -25.1018   6  11   2.7377   2.4825   6.2886   1.4739   0.9158   1.2595   0.00    0.0
2280 463925   16.262308709  -61.527544603   -24.9185   6  11   2.6293   2.3687   6.0503   1.3812   0.8100   1.0788   0.00    0.0
2280 463926   16.262308467  -61.527544087   -24.7237   6  11   2.5349   2.2712   5.8364   1.3046   0.7246   0.9141   0.00    0.0
2280 463927   16.262308297  -61.527543609   -24.5591   6  11   2.4513   2.1861   5.6423   1.2402   0.6542   0.7583   0.00    0.0
2280 463928   16.262308156  -61.527543137   -24.3825   6  11   2.3763   2.1108   5.4643   1.1850   0.5949   0.6038   0.00    0.0
2280 463929   16.262308153  -61.527542658   -24.1902   6  11   2.3085   2.0435   5.2998   1.1370   0.5438   0.4383   0.00    0.0
2280 463930   16.262307960  -61.527542358   -24.0824   6  12   2.2380   1.9624   5.1442   1.0692   0.4495   0.1288   0.00    0.0
2280 463931   16.262307802  -61.527542047   -23.9960   6  12   2.1754   1.8928   4.9993   1.0135   0.3651  -0.3520   0.00    0.0
2280 463932   16.262307676  -61.527541707   -23.9477   6  12   2.1186   1.8309   4.8635   0.9655   0.2821  -0.4893   0.00    0.0
2280 463933   16.262307586  -61.527541399   -23.9088   6  12   2.0665   1.7754   4.7356   0.9237   0.1927  -0.5790   0.00    0.0
2280 463934   16.262307492  -61.527541160   -23.8886   6  12   2.0186   1.7252   4.6149   0.8870   0.0557  -0.6445   0.00    0.0
2280 463935   16.262307020  -61.527541008   -23.7766   6  13   1.9573   1.6793   4.4920   0.8552  -0.1606  -0.6417   0.00    0.0
2280 463936   16.262306591  -61.527540993   -23.6996   6  13   1.9031   1.6372   4.3766   0.8268  -0.2223  -0.6460   0.00    0.0
2280 463937   16.262306238  -61.527540906   -23.6028   6  13   1.8538   1.5984   4.2673   0.8013  -0.2623  -0.6516   0.00    0.0
2280 463938   16.262305930  -61.527540848   -23.5329   6  13   1.8084   1.5623   4.1634   0.7782  -0.2913  -0.6578   0.00    0.0
2280 463939   16.262305590  -61.527540785   -23.4735   6  13   1.7665   1.5287   4.0644   0.7572  -0.3133  -0.6641   0.00    0.0
2280 463940   16.262305734  -61.527540881   -23.5764   6  15   1.7064   1.4953   3.8979   0.7341  -0.3029  -0.4967   0.00    0.0
2280 463941   16.262305815  -61.527540903   -23.6482   6  15   1.6545   1.4645   3.7547   0.7135  -0.2981  -0.3408   0.00    0.0
2280 463942   16.262305816  -61.527540867   -23.7127   6  15   1.6083   1.4355   3.6270   0.6952  -0.2987  -0.1524   0.00    0.0
2280 463943   16.262305808  -61.527540874   -23.7840   6  15   1.5664   1.4083   3.5117   0.6789  -0.3024   0.2071   0.00    0.0
2280 463944   16.262305874  -61.527540755   -23.8225   6  15   1.5281   1.3827   3.4063   0.6641  -0.3077   0.2994   0.00    0.0
2280 463945   16.262305854  -61.527540588   -23.8808   6  16   1.4904   1.3581   3.3083   0.6486  -0.3173   0.3395   0.00    0.0
2280 463946   16.262305876  -61.527540505   -23.9297   6  16   1.4563   1.3349   3.2177   0.6351  -0.3251   0.3657   0.00    0.0
2280 463947   16.262305926  -61.527540422   -23.9955   6  16   1.4246   1.3129   3.1331   0.6226  -0.3325   0.3804   0.00    0.0
2280 463948   16.262306017  -61.527540339   -24.0571   6  16   1.3948   1.2919   3.0539   0.6110  -0.3393   0.3873   0.00    0.0
2280 463949   16.262306038  -61.527540226   -24.1090   6  16   1.3668   1.2719   2.9792   0.6002  -0.3454   0.3884   0.00    0.0
2280 463950   16.262305923  -61.527540153   -24.1860   6  17   1.3286   1.2524   2.9078   0.5855  -0.3540   0.3683   0.00    0.0
2280 463951   16.262305842  -61.527540097   -24.2726   6  17   1.2939   1.2338   2.8402   0.5722  -0.3611   0.3478   0.00    0.0
2280 463952   16.262305806  -61.527539978   -24.3404   6  17   1.2618   1.2160   2.7760   0.5600  -0.3672   0.3264   0.00    0.0
2280 463953   16.262305787  -61.527539852   -24.4003   6  17   1.2320   1.1989   2.7150   0.5488  -0.3722   0.3040   0.00    0.0
2280 463954   16.262305742  -61.527539723   -24.4639   6  17   1.2042   1.1825   2.6568   0.5384  -0.3764   0.2805   0.00    0.0
2280 463955   16.262305683  -61.527539676   -24.5181   6  20   1.1738   1.1653   2.5978   0.5236  -0.3898   0.2310   0.00    0.0
2280 463956   16.262305555  -61.527539623   -24.5686   6  20   1.1460   1.1490   2.5420   0.5104  -0.3999   0.1788   0.00    0.0
2280 463957   16.262305496  -61.527539621   -24.5986   6  20   1.1201   1.1333   2.4890   0.4983  -0.4080   0.1139   0.00    0.0
2280 463958   16.262305407  -61.527539577   -24.6406   6  20   1.0957   1.1182   2.4385   0.4870  -0.4143  -0.0628   0.00    0.0
2280 463959   16.262305356  -61.527539558   -24.6797   6  20   1.0728   1.1037   2.3903   0.4766  -0.4193  -0.1382   0.00    0.0
2280 463960   16.262305371  -61.527539583   -24.7052   6  25   1.0435   1.0820   2.3331   0.4640  -0.3877  -0.1818   0.00    0.0
2280 463961   16.262305365  -61.527539565   -24.7295   6  25   1.0179   1.0628   2.2813   0.4510  -0.3650  -0.2050   0.00    0.0
2280 463962   16.262305325  -61.527539473   -24.7655   6  25   0.9943   1.0448   2.2327   0.4385  -0.3456  -0.2218   0.00    0.0
2280 463963   16.262305272  -61.527539426   -24.8031   6  25   0.9724   1.0279   2.1867   0.4269  -0.3283  -0.2354   0.00    0.0
2280 463964   16.262305178  -61.527539367   -24.8431   6  25   0.9519   1.0119   2.1430   0.4160  -0.3127  -0.2470   0.00    0.0
2280 463965   16.262305072  -61.527539301   -24.8902   6  25   0.9326   0.9965   2.1013   0.4059  -0.2986  -0.2571   0.00    0.0
2280 463966   16.262304974  -61.527539247   -24.9179   6  25   0.9143   0.9819   2.0614   0.3964  -0.2858  -0.2661   0.00    0.0
2280 463967   16.262304843  -61.527539257   -24.9424   6  25   0.8970   0.9679   2.0231   0.3876  -0.2741  -0.2742   0.00    0.0
2280 463968   16.262304765  -61.527539295   -24.9740   6  25   0.8806   0.9545   1.9864   0.3794  -0.2634  -0.2815   0.00    0.0
2280 463969   16.262304715  -61.527539369   -24.9944   6  25   0.8650   0.9416   1.9511   0.3716  -0.2537  -0.2882   0.00    0.0
2280 463970   16.262304705  -61.527539461   -25.0050   6  27   0.8491   0.9276   1.9166   0.3628  -0.2472  -0.2973   0.00    0.0
2280 463971   16.262304703  -61.527539505   -25.0213   6  27   0.8340   0.9143   1.8834   0.3547  -0.2412  -0.3051   0.00    0.0
2280 463972   16.262304749  -61.527539517   -25.0274   6  27   0.8197   0.9016   1.8515   0.3471  -0.2359  -0.3120   0.00    0.0
2280 463973   16.262304798  -61.527539489   -25.0281   6  27   0.8059   0.8894   1.8206   0.3399  -0.2312  -0.3182   0.00    0.0
2280 463974   16.262304840  -61.527539469   -25.0325   6  27   0.7927   0.8776   1.7908   0.3332  -0.2269  -0.3236   0.00    0.0
2280 463975   16.262304894  -61.527539384   -25.0254   6  27   0.7801   0.8663   1.7620   0.3269  -0.2231  -0.3285   0.00    0.0
2280 463976   16.262304938  -61.527539300   -25.0245   6  27   0.7679   0.8554   1.7342   0.3209  -0.2198  -0.3329   0.00    0.0
2280 463977   16.262304999  -61.527539225   -25.0156   6  27   0.7562   0.8448   1.7072   0.3152  -0.2168  -0.3367   0.00    0.0
2280 463978   16.262304974  -61.527539165   -25.0260   6  27   0.7449   0.8346   1.6810   0.3098  -0.2141  -0.3402   0.00    0.0
2280 463979   16.262304977  -61.527539112   -25.0298   6  27   0.7340   0.8247   1.6557   0.3047  -0.2117  -0.3433   0.00    0.0
2280 463980   16.262305023  -61.527539002   -25.0854   6  28   0.7231   0.8150   1.6270   0.2994  -0.2056  -0.3425   0.00    0.0
2280 463981   16.262305035  -61.527538914   -25.1334   6  28   0.7126   0.8056   1.5996   0.2943  -0.2001  -0.3418   0.00    0.0
2280 463982   16.262305059  -61.527538866   -25.1859   6  28   0.7025   0.7965   1.5733   0.2894  -0.1953  -0.3413   0.00    0.0
2280 463983   16.262305085  -61.527538853   -25.2268   6  28   0.6926   0.7877   1.5480   0.2848  -0.1909  -0.3408   0.00    0.0
2280 463984   16.262305106  -61.527538815   -25.2696   6  28   0.6831   0.7791   1.5236   0.2804  -0.1870  -0.3403   0.00    0.0
2280 463985   16.262305190  -61.527538791   -25.3001   6  28   0.6738   0.7707   1.5001   0.2762  -0.1836  -0.3399   0.00    0.0
2280 463986   16.262305292  -61.527538755   -25.3318   6  28   0.6648   0.7626   1.4774   0.2722  -0.1805  -0.3395   0.00    0.0
2280 463987   16.262305388  -61.527538717   -25.3717   6  28   0.6560   0.7547   1.4554   0.2683  -0.1778  -0.3391   0.00    0.0
2280 463988   16.262305488  -61.527538673   -25.4019   6  28   0.6475   0.7469   1.4342   0.2645  -0.1754  -0.3387   0.00    0.0
2280 463989   16.262305572  -61.527538624   -25.4225   6  28   0.6392   0.7394   1.4137   0.2610  -0.1733  -0.3383   0.00    0.0
2280 463990   16.262305639  -61.527538571   -25.4304   6  29   0.6309   0.7320   1.3936   0.2574  -0.1717  -0.3383   0.00    0.0
2280 463991   16.262305721  -61.527538508   -25.4383   6  29   0.6229   0.7248   1.3743   0.2540  -0.1702  -0.3381   0.00    0.0
2280 463992   16.262305796  -61.527538465   -25.4556   6  29   0.6151   0.7178   1.3555   0.2507  -0.1689  -0.3379   0.00    0.0
2280 463993   16.262305847  -61.527538421   -25.4697   6  29   0.6075   0.7109   1.3372   0.2476  -0.1678  -0.3376   0.00    0.0
2280 463994   16.262305878  -61.527538382   -25.4823   6  29   0.6000   0.7042   1.3195   0.2445  -0.1669  -0.3373   0.00    0.0
2280 463995   16.262305888  -61.527538352   -25.4781   6  29   0.5927   0.6976   1.3023   0.2415  -0.1661  -0.3369   0.00    0.0
2280 463996   16.262305903  -61.527538337   -25.4720   6  29   0.5856   0.6912   1.2856   0.2387  -0.1654  -0.3365   0.00    0.0
2280 463997   16.262305894  -61.527538280   -25.4690   6  29   0.5787   0.6849   1.2694   0.2359  -0.1648  -0.3359   0.00    0.0
2280 463998   16.262305891  -61.527538222   -25.4713   6  29   0.5719   0.6787   1.2536   0.2332  -0.1643  -0.3354   0.00    0.0
2280 463999   16.262305916  -61.527538134   -25.4712   6  29   0.5652   0.6726   1.2382   0.2306  -0.1639  -0.3348   0.00    0.0
2280 464000   16.262305971  -61.527538032   -25.4737   6  29   0.5587   0.6667   1.2232   0.2281  -0.1636  -0.3341   0.00    0.0
2280 464001   16.262306060  -61.527537937   -25.4704   6  29   0.5523   0.6608   1.2086   0.2256  -0.1633  -0.3334   0.00    0.0
2280 464002   16.262306149  -61.527537845   -25.4609   6  29   0.5460   0.6551   1.1944   0.2232  -0.1631  -0.3326   0.00    0.0
2280 464003   16.262306236  -61.527537775   -25.4456   6  29   0.5399   0.6495   1.1805   0.2209  -0.1630  -0.3319   0.00    0.0
2280 464004   16.262306346  -61.527537701   -25.4301   6  29   0.5339   0.6439   1.1670   0.2186  -0.1629  -0.3310   0.00    0.0
2280 464005   16.262306392  -61.527537626   -25.4240   6  29   0.5280   0.6385   1.1538   0.2164  -0.1628  -0.3301   0.00    0.0
2280 464006   16.262306405  -61.527537586   -25.4145   6  29   0.5222   0.6331   1.1409   0.2142  -0.1628  -0.3292   0.00    0.0
2280 464007   16.262306419  -61.527537556   -25.4068   6  29   0.5165   0.6279   1.1283   0.2121  -0.1628  -0.3283   0.00    0.0
2280 464008   16.262306420  -61.527537507   -25.3995   6  29   0.5109   0.6227   1.1160   0.2100  -0.1628  -0.3273   0.00    0.0
2280 464009   16.262306429  -61.527537455   -25.3883   6  29   0.5054   0.6176   1.1040   0.2080  -0.1628  -0.3263   0.00    0.0
2280 464010   16.262306440  -61.527537408   -25.3794   6  29   0.5001   0.6126   1.0923   0.2061  -0.1629  -0.3253   0.00    0.0
2280 464011   16.262306471  -61.527537370   -25.3663   6  29   0.4948   0.6077   1.0808   0.2041  -0.1629  -0.3242   0.00    0.0
2280 464012   16.262306468  -61.527537343   -25.3444   6  29   0.4896   0.6028   1.0696   0.2022  -0.1630  -0.3231   0.00    0.0
2280 464013   16.262306454  -61.527537310   -25.3227   6  29   0.4844   0.5981   1.0586   0.2004  -0.1631  -0.3220   0.00    0.0
2280 464014   16.262306455  -61.527537302   -25.3039   6  29   0.4794   0.5933   1.0478   0.1986  -0.1632  -0.3208   0.00    0.0
2280 464015   16.262306470  -61.527537281   -25.2874   6  29   0.4745   0.5887   1.0373   0.1968  -0.1633  -0.3197   0.00    0.0
2280 464016   16.262306470  -61.527537288   -25.2799   6  29   0.4696   0.5841   1.0269   0.1951  -0.1634  -0.3185   0.00    0.0
2280 464017   16.262306493  -61.527537310   -25.2730   6  29   0.4648   0.5796   1.0168   0.1934  -0.1635  -0.3173   0.00    0.0
2280 464018   16.262306482  -61.527537327   -25.2724   6  29   0.4601   0.5752   1.0069   0.1917  -0.1636  -0.3160   0.00    0.0
2280 464019   16.262306466  -61.527537319   -25.2692   6  29   0.4555   0.5708   0.9972   0.1900  -0.1637  -0.3148   0.00    0.0
2280 464020   16.262306454  -61.527537274   -25.2591   6  29   0.4509   0.5665   0.9877   0.1884  -0.1639  -0.3135   0.00    0.0
2280 464021   16.262306420  -61.527537238   -25.2480   6  29   0.4464   0.5622   0.9784   0.1868  -0.1640  -0.3123   0.00    0.0
2280 464022   16.262306393  -61.527537205   -25.2429   6  29   0.4420   0.5580   0.9692   0.1853  -0.1641  -0.3110   0.00    0.0
2280 464023   16.262306366  -61.527537161   -25.2373   6  29   0.4376   0.5538   0.9602   0.1837  -0.1642  -0.3097   0.00    0.0
2280 464024   16.262306321  -61.527537133   -25.2338   6  29   0.4333   0.5497   0.9514   0.1822  -0.1643  -0.3084   0.00    0.0
2280 464025   16.262306295  -61.527537102   -25.2252   6  29   0.4291   0.5457   0.9428   0.1807  -0.1643  -0.3070   0.00    0.0
2280 464026   16.262306251  -61.527537070   -25.2053   6  29   0.4249   0.5417   0.9343   0.1793  -0.1644  -0.3057   0.00    0.0
2280 464027   16.262306192  -61.527537034   -25.1951   6  29   0.4208   0.5377   0.9259   0.1778  -0.1645  -0.3043   0.00    0.0
2280 464028   16.262306152  -61.527537000   -25.1783   6  29   0.4167   0.5338   0.9177   0.1764  -0.1646  -0.3030   0.00    0.0
2280 464029   16.262306115  -61.527536984   -25.1635   6  29   0.4128   0.5300   0.9096   0.1750  -0.1646  -0.3016   0.00    0.0
2280 464030   16.262306114  -61.527536938   -25.1511   6  29   0.4088   0.5262   0.9017   0.1736  -0.1647  -0.3003   0.00    0.0
2280 464031   16.262306113  -61.527536893   -25.1476   6  29   0.4049   0.5224   0.8939   0.1723  -0.1648  -0.2989   0.00    0.0
2280 464032   16.262306104  -61.527536872   -25.1357   6  29   0.4011   0.5187   0.8862   0.1709  -0.1648  -0.2975   0.00    0.0
2280 464033   16.262306071  -61.527536861   -25.1284   6  29   0.3973   0.5150   0.8787   0.1696  -0.1648  -0.2961   0.00    0.0
2280 464034   16.262306036  -61.527536847   -25.1302   6  29   0.3936   0.5114   0.8713   0.1683  -0.1649  -0.2947   0.00    0.0
2280 464035   16.262306040  -61.527536811   -25.1261   6  29   0.3900   0.5078   0.8640   0.1670  -0.1649  -0.2933   0.00    0.0
2280 464036   16.262306044  -61.527536754   -25.1218   6  29   0.3863   0.5043   0.8568   0.1658  -0.1649  -0.2919   0.00    0.0
2280 464037   16.262306039  -61.527536699   -25.1151   6  29   0.3828   0.5008   0.8497   0.1645  -0.1649  -0.2905   0.00    0.0
2280 464038   16.262306049  -61.527536657   -25.1109   6  29   0.3793   0.4973   0.8428   0.1633  -0.1649  -0.2891   0.00    0.0
2280 464039   16.262306044  -61.527536614   -25.1112   6  29   0.3758   0.4939   0.8359   0.1621  -0.1649  -0.2877   0.00    0.0
2280 464040   16.262306043  -61.527536544   -25.1089   6  29   0.3724   0.4905   0.8292   0.1609  -0.1649  -0.2863   0.00    0.0
2280 464041   16.262306050  -61.527536502   -25.1011   6  29   0.3690   0.4871   0.8225   0.1597  -0.1648  -0.2849   0.00    0.0
2280 464042   16.262306054  -61.527536457   -25.0908   6  29   0.3656   0.4838   0.8159   0.1585  -0.1648  -0.2835   0.00    0.0
2280 464043   16.262306070  -61.527536432   -25.0832   6  29   0.3623   0.4805   0.8095   0.1574  -0.1648  -0.2821   0.00    0.0
2280 464044   16.262306093  -61.527536413   -25.0756   6  29   0.3591   0.4773   0.8031   0.1562  -0.1647  -0.2807   0.00    0.0
2280 464045   16.262306101  -61.527536389   -25.0627   6  29   0.3559   0.4741   0.7968   0.1551  -0.1646  -0.2793   0.00    0.0
2280 464046   16.262306104  -61.527536368   -25.0519   6  29   0.3527   0.4709   0.7906   0.1540  -0.1646  -0.2778   0.00    0.0
2280 464047   16.262306090  -61.527536344   -25.0373   6  29   0.3496   0.4677   0.7845   0.1529  -0.1645  -0.2764   0.00    0.0
2280 464048   16.262306092  -61.527536320   -25.0217   6  29   0.3465   0.4646   0.7785   0.1518  -0.1644  -0.2750   0.00    0.0
2280 464049   16.262306084  -61.527536285   -25.0099   6  29   0.3435   0.4616   0.7725   0.1507  -0.1643  -0.2736   0.00    0.0
2280 464050   16.262306063  -61.527536227   -25.0055   6  29   0.3405   0.4585   0.7667   0.1496  -0.1642  -0.2722   0.00    0.0
2280 464051   16.262306048  -61.527536183   -25.0067   6  29   0.3375   0.4555   0.7609   0.1486  -0.1641  -0.2708   0.00    0.0
2280 464052   16.262306009  -61.527536135   -25.0116   6  29   0.3346   0.4525   0.7551   0.1476  -0.1640  -0.2694   0.00    0.0
2280 464053   16.262305977  -61.527536112   -25.0131   6  29   0.3317   0.4495   0.7495   0.1465  -0.1638  -0.2680   0.00    0.0
2280 464054   16.262305939  -61.527536095   -25.0088   6  29   0.3288   0.4466   0.7439   0.1455  -0.1637  -0.2666   0.00    0.0
2280 464055   16.262305876  -61.527536056   -25.0007   6  29   0.3260   0.4437   0.7384   0.1445  -0.1636  -0.2653   0.00    0.0
2280 464056   16.262305828  -61.527536040   -24.9924   6  29   0.3232   0.4408   0.7330   0.1435  -0.1634  -0.2639   0.00    0.0
2280 464057   16.262305776  -61.527536036   -24.9892   6  29   0.3205   0.4380   0.7276   0.1425  -0.1632  -0.2625   0.00    0.0
2280 464058   16.262305734  -61.527536046   -24.9867   6  29   0.3178   0.4352   0.7223   0.1416  -0.1631  -0.2611   0.00    0.0
2280 464059   16.262305698  -61.527536052   -24.9821   6  29   0.3151   0.4324   0.7170   0.1406  -0.1629  -0.2597   0.00    0.0
2280 464060   16.262305662  -61.527536025   -24.9822   6  29   0.3124   0.4296   0.7119   0.1396  -0.1627  -0.2584   0.00    0.0
2280 464061   16.262305608  -61.527535985   -24.9827   6  29   0.3098   0.4269   0.7067   0.1387  -0.1625  -0.2570   0.00    0.0
2280 464062   16.262305560  -61.527535963   -24.9830   6  29   0.3072   0.4242   0.7017   0.1378  -0.1623  -0.2557   0.00    0.0
2280 464063   16.262305520  -61.527535950   -24.9814   6  29   0.3047   0.4215   0.6967   0.1368  -0.1621  -0.2543   0.00    0.0
2280 464064   16.262305493  -61.527535953   -24.9815   6  29   0.3022   0.4188   0.6917   0.1359  -0.1619  -0.2530   0.00    0.0
2280 464065   16.262305475  -61.527535970   -24.9823   6  29   0.2997   0.4162   0.6868   0.1350  -0.1617  -0.2516   0.00    0.0
2280 464066   16.262305460  -61.527535954   -24.9874   6  29   0.2972   0.4136   0.6820   0.1341  -0.1615  -0.2503   0.00    0.0
2280 464067   16.262305490  -61.527535938   -24.9845   6  29   0.2948   0.4110   0.6772   0.1332  -0.1613  -0.2489   0.00    0.0
2280 464068   16.262305510  -61.527535937   -24.9824   6  29   0.2924   0.4084   0.6725   0.1324  -0.1610  -0.2476   0.00    0.0
2280 464069   16.262305537  -61.527535964   -24.9806   6  29   0.2900   0.4059   0.6678   0.1315  -0.1608  -0.2463   0.00    0.0
2280 464070   16.262305548  -61.527535975   -24.9789   6  29   0.2876   0.4034   0.6632   0.1306  -0.1605  -0.2450   0.00    0.0
2280 464071   16.262305555  -61.527535980   -24.9792   6  29   0.2853   0.4009   0.6586   0.1298  -0.1603  -0.2436   0.00    0.0
2280 464072   16.262305552  -61.527535984   -24.9785   6  29   0.2830   0.3984   0.6541   0.1289  -0.1600  -0.2423   0.00    0.0
2280 464073   16.262305552  -61.527535995   -24.9822   6  29   0.2808   0.3960   0.6496   0.1281  -0.1597  -0.2410   0.00    0.0
2280 464074   16.262305557  -61.527536026   -24.9892   6  29   0.2785   0.3936   0.6451   0.1273  -0.1595  -0.2397   0.00    0.0
2280 464075   16.262305563  -61.527536020   -24.9942   6  29   0.2763   0.3912   0.6407   0.1265  -0.1592  -0.2385   0.00    0.0
2280 464076   16.262305572  -61.527536021   -25.0044   6  29   0.2741   0.3888   0.6364   0.1257  -0.1589  -0.2372   0.00    0.0
2280 464077   16.262305569  -61.527536025   -25.0141   6  29   0.2720   0.3864   0.6321   0.1249  -0.1586  -0.2359   0.00    0.0
2280 464078   16.262305580  -61.527536046   -25.0265   6  29   0.2698   0.3841   0.6278   0.1241  -0.1583  -0.2346   0.00    0.0
2280 464079   16.262305596  -61.527536072   -25.0334   6  29   0.2677   0.3818   0.6236   0.1233  -0.1580  -0.2334   0.00    0.0
2280 464080   16.262305608  -61.527536051   -25.0328   6  29   0.2657   0.3795   0.6194   0.1225  -0.1577  -0.2321   0.00    0.0
2280 464081   16.262305628  -61.527536031   -25.0328   6  29   0.2636   0.3772   0.6153   0.1217  -0.1574  -0.2308   0.00    0.0
2280 464082   16.262305640  -61.527536014   -25.0331   6  29   0.2616   0.3749   0.6112   0.1210  -0.1571  -0.2296   0.00    0.0
2280 464083   16.262305637  -61.527536003   -25.0369   6  29   0.2595   0.3727   0.6072   0.1202  -0.1567  -0.2284   0.00    0.0
2280 464084   16.262305644  -61.527535996   -25.0393   6  29   0.2575   0.3705   0.6032   0.1195  -0.1564  -0.2271   0.00    0.0
2280 464085   16.262305630  -61.527535993   -25.0467   6  29   0.2556   0.3683   0.5992   0.1187  -0.1561  -0.2259   0.00    0.0
2280 464086   16.262305620  -61.527535979   -25.0554   6  29   0.2536   0.3661   0.5952   0.1180  -0.1558  -0.2247   0.00    0.0
2280 464087   16.262305618  -61.527535985   -25.0614   6  29   0.2517   0.3639   0.5913   0.1172  -0.1554  -0.2235   0.00    0.0
2280 464088   16.262305622  -61.527535980   -25.0693   6  29   0.2498   0.3618   0.5875   0.1165  -0.1551  -0.2223   0.00    0.0
2280 464089   16.262305618  -61.527535989   -25.0777   6  29   0.2479   0.3597   0.5837   0.1158  -0.1547  -0.2211   0.00    0.0
2280 464090   16.262305605  -61.527535968   -25.0769   6  29   0.2461   0.3576   0.5799   0.1151  -0.1544  -0.2199   0.00    0.0
2280 464091   16.262305593  -61.527535952   -25.0791   6  29   0.2442   0.3555   0.5761   0.1144  -0.1540  -0.2187   0.00    0.0
2280 464092   16.262305579  -61.527535915   -25.0854   6  29   0.2424   0.3534   0.5724   0.1137  -0.1536  -0.2175   0.00    0.0
2280 464093   16.262305567  -61.527535895   -25.0903   6  29   0.2406   0.3514   0.5687   0.1130  -0.1533  -0.2163   0.00    0.0
2280 464094   16.262305556  -61.527535880   -25.0951   6  29   0.2388   0.3493   0.5651   0.1123  -0.1529  -0.2151   0.00    0.0
2280 464095   16.262305539  -61.527535854   -25.0939   6  29   0.2371   0.3473   0.5615   0.1116  -0.1525  -0.2140   0.00    0.0
2280 464096   16.262305539  -61.527535846   -25.0948   6  29   0.2353   0.3453   0.5579   0.1110  -0.1522  -0.2128   0.00    0.0
2280 464097   16.262305531  -61.527535835   -25.0904   6  29   0.2336   0.3433   0.5543   0.1103  -0.1518  -0.2117   0.00    0.0
2280 464098   16.262305527  -61.527535817   -25.0900   6  29   0.2319   0.3414   0.5508   0.1096  -0.1514  -0.2105   0.00    0.0
2280 464099   16.262305527  -61.527535810   -25.0889   6  29   0.2302   0.3394   0.5473   0.1090  -0.1510  -0.2094   0.00    0.0
2280 464100   16.262305527  -61.527535802   -25.0885   6  29   0.2286   0.3375   0.5439   0.1083  -0.1506  -0.2083   0.00    0.0
2280 464101   16.262305515  -61.527535787   -25.0858   6  29   0.2269   0.3355   0.5405   0.1077  -0.1502  -0.2071   0.00    0.0
2280 464102   16.262305507  -61.527535789   -25.0858   6  29   0.2253   0.3336   0.5371   0.1071  -0.1498  -0.2060   0.00    0.0
2280 464103   16.262305496  -61.527535793   -25.0860   6  29   0.2237   0.3318   0.5337   0.1064  -0.1494  -0.2049   0.00    0.0
2280 464104   16.262305493  -61.527535790   -25.0879   6  29   0.2221   0.3299   0.5304   0.1058  -0.1490  -0.2038   0.00    0.0
2280 464105   16.262305496  -61.527535774   -25.0886   6  29   0.2205   0.3280   0.5271   0.1052  -0.1486  -0.2027   0.00    0.0
2280 464106   16.262305505  -61.527535746   -25.0876   6  29   0.2189   0.3262   0.5238   0.1046  -0.1482  -0.2016   0.00    0.0
2280 464107   16.262305508  -61.527535718   -25.0871   6  29   0.2174   0.3244   0.5206   0.1040  -0.1478  -0.2006   0.00    0.0
2280 464108   16.262305500  -61.527535716   -25.0861   6  29   0.2159   0.3226   0.5174   0.1033  -0.1474  -0.1995   0.00    0.0
2280 464109   16.262305494  -61.527535715   -25.0843   6  29   0.2144   0.3208   0.5142   0.1027  -0.1470  -0.1984   0.00    0.0
2280 464110   16.262305471  -61.527535709   -25.0799   6  29   0.2129   0.3190   0.5110   0.1021  -0.1466  -0.1973   0.00    0.0
2280 464111   16.262305451  -61.527535700   -25.0743   6  29   0.2114   0.3172   0.5079   0.1016  -0.1461  -0.1963   0.00    0.0
2280 464112   16.262305439  -61.527535682   -25.0674   6  29   0.2099   0.3155   0.5048   0.1010  -0.1457  -0.1952   0.00    0.0
2280 464113   16.262305429  -61.527535681   -25.0583   6  29   0.2085   0.3137   0.5017   0.1004  -0.1453  -0.1942   0.00    0.0
2280 464114   16.262305427  -61.527535669   -25.0503   6  29   0.2070   0.3120   0.4987   0.0998  -0.1449  -0.1932   0.00    0.0
2280 464115   16.262305434  -61.527535646   -25.0473   6  29   0.2056   0.3103   0.4957   0.0992  -0.1445  -0.1921   0.00    0.0
2280 464116   16.262305424  -61.527535611   -25.0426   6  29   0.2042   0.3086   0.4927   0.0987  -0.1440  -0.1911   0.00    0.0
2280 464117   16.262305416  -61.527535583   -25.0363   6  29   0.2028   0.3069   0.4897   0.0981  -0.1436  -0.1901   0.00    0.0
2280 464118   16.262305400  -61.527535553   -25.0334   6  29   0.2014   0.3052   0.4868   0.0976  -0.1432  -0.1891   0.00    0.0
2280 464119   16.262305399  -61.527535514   -25.0303   6  29   0.2001   0.3036   0.4838   0.0970  -0.1427  -0.1881   0.00    0.0
2280 464120   16.262305412  -61.527535506   -25.0329   6  29   0.1987   0.3019   0.4809   0.0965  -0.1423  -0.1871   0.00    0.0
2280 464121   16.262305417  -61.527535496   -25.0342   6  29   0.1974   0.3003   0.4781   0.0959  -0.1419  -0.1861   0.00    0.0
2280 464122   16.262305424  -61.527535486   -25.0352   6  29   0.1961   0.2987   0.4752   0.0954  -0.1414  -0.1851   0.00    0.0
2280 464123   16.262305434  -61.527535464   -25.0362   6  29   0.1948   0.2971   0.4724   0.0949  -0.1410  -0.1841   0.00    0.0
2280 464124   16.262305449  -61.527535455   -25.0381   6  29   0.1935   0.2955   0.4696   0.0943  -0.1406  -0.1832   0.00    0.0
2280 464125   16.262305468  -61.527535450   -25.0383   6  29   0.1922   0.2939   0.4668   0.0938  -0.1401  -0.1822   0.00    0.0
2280 464126   16.262305486  -61.527535450   -25.0419   6  29   0.1909   0.2923   0.4641   0.0933  -0.1397  -0.1812   0.00    0.0
2280 464127   16.262305501  -61.527535447   -25.0428   6  29   0.1897   0.2908   0.4614   0.0928  -0.1392  -0.1803   0.00    0.0
2280 464128   16.262305509  -61.527535440   -25.0439   6  29   0.1885   0.2892   0.4587   0.0922  -0.1388  -0.1793   0.00    0.0
2280 464129   16.262305517  -61.527535424   -25.0441   6  29   0.1872   0.2877   0.4560   0.0917  -0.1384  -0.1784   0.00    0.0
2280 464130   16.262305531  -61.527535402   -25.0469   6  29   0.1860   0.2862   0.4533   0.0912  -0.1379  -0.1775   0.00    0.0
2280 464131   16.262305547  -61.527535380   -25.0493   6  29   0.1848   0.2847   0.4507   0.0907  -0.1375  -0.1765   0.00    0.0
2280 464132   16.262305567  -61.527535374   -25.0526   6  29   0.1836   0.2832   0.4481   0.0902  -0.1370  -0.1756   0.00    0.0
2280 464133   16.262305589  -61.527535367   -25.0567   6  29   0.1824   0.2817   0.4455   0.0897  -0.1366  -0.1747   0.00    0.0
2280 464134   16.262305602  -61.527535350   -25.0582   6  29   0.1813   0.2802   0.4429   0.0893  -0.1361  -0.1738   0.00    0.0
2280 464135   16.262305614  -61.527535330   -25.0605   6  29   0.1801   0.2788   0.4404   0.0888  -0.1357  -0.1729   0.00    0.0
2280 464136   16.262305620  -61.527535303   -25.0592   6  29   0.1790   0.2773   0.4379   0.0883  -0.1353  -0.1720   0.00    0.0
2280 464137   16.262305617  -61.527535279   -25.0576   6  29   0.1778   0.2759   0.4353   0.0878  -0.1348  -0.1711   0.00    0.0
2280 464138   16.262305624  -61.527535258   -25.0598   6  29   0.1767   0.2744   0.4329   0.0873  -0.1344  -0.1702   0.00    0.0
2280 464139   16.262305626  -61.527535232   -25.0631   6  29   0.1756   0.2730   0.4304   0.0869  -0.1339  -0.1693   0.00    0.0
2280 464140   16.262305626  -61.527535204   -25.0729   6  29   0.1745   0.2716   0.4280   0.0864  -0.1335  -0.1684   0.00    0.0
2280 464141   16.262305624  -61.527535156   -25.0814   6  29   0.1734   0.2702   0.4255   0.0859  -0.1330  -0.1676   0.00    0.0
2280 464142   16.262305621  -61.527535112   -25.0888   6  29   0.1723   0.2688   0.4231   0.0855  -0.1326  -0.1667   0.00    0.0
2280 464143   16.262305610  -61.527535081   -25.0980   6  29   0.1713   0.2675   0.4207   0.0850  -0.1321  -0.1659   0.00    0.0
2280 464144   16.262305605  -61.527535048   -25.1084   6  29   0.1702   0.2661   0.4184   0.0846  -0.1317  -0.1650   0.00    0.0
2280 464145   16.262305599  -61.527535013   -25.1166   6  29   0.1691   0.2647   0.4160   0.0841  -0.1312  -0.1642   0.00    0.0
2280 464146   16.262305595  -61.527534980   -25.1152   6  29   0.1681   0.2634   0.4137   0.0837  -0.1308  -0.1633   0.00    0.0
2280 464147   16.262305594  -61.527534948   -25.1128   6  29   0.1671   0.2621   0.4114   0.0833  -0.1304  -0.1625   0.00    0.0
2280 464148   16.262305593  -61.527534924   -25.1079   6  29   0.1661   0.2607   0.4091   0.0828  -0.1299  -0.1617   0.00    0.0
2280 464149   16.262305593  -61.527534901   -25.1035   6  29   0.1651   0.2594   0.4069   0.0824  -0.1295  -0.1608   0.00    0.0
2280 464150   16.262305594  -61.527534869   -25.1020   6  29   0.1641   0.2581   0.4046   0.0820  -0.1290  -0.1600   0.00    0.0
2280 464151   16.262305595  -61.527534828   -25.1046   6  29   0.1631   0.2568   0.4024   0.0815  -0.1286  -0.1592   0.00    0.0
2280 464152   16.262305604  -61.527534788   -25.1046   6  29   0.1621   0.2555   0.4002   0.0811  -0.1281  -0.1584   0.00    0.0
2280 464153   16.262305613  -61.527534755   -25.1059   6  29   0.1611   0.2543   0.3980   0.0807  -0.1277  -0.1576   0.00    0.0
2280 464154   16.262305615  -61.527534731   -25.1046   6  29   0.1601   0.2530   0.3958   0.0803  -0.1273  -0.1568   0.00    0.0
2280 464155   16.262305618  -61.527534709   -25.1035   6  29   0.1592   0.2518   0.3936   0.0798  -0.1268  -0.1560   0.00    0.0
2280 464156   16.262305629  -61.527534695   -25.1026   6  29   0.1582   0.2505   0.3915   0.0794  -0.1264  -0.1552   0.00    0.0
2280 464157   16.262305645  -61.527534668   -25.1008   6  29   0.1573   0.2493   0.3894   0.0790  -0.1259  -0.1545   0.00    0.0
2280 464158   16.262305665  -61.527534645   -25.0976   6  29   0.1564   0.2480   0.3872   0.0786  -0.1255  -0.1537   0.00    0.0
2280 464159   16.262305687  -61.527534635   -25.0941   6  29   0.1555   0.2468   0.3852   0.0782  -0.1251  -0.1529   0.00    0.0
2280 464160   16.262305701  -61.527534631   -25.0938   6  29   0.1546   0.2456   0.3831   0.0778  -0.1246  -0.1522   0.00    0.0
2280 464161   16.262305712  -61.527534620   -25.0963   6  29   0.1537   0.2444   0.3810   0.0774  -0.1242  -0.1514   0.00    0.0
2280 464162   16.262305719  -61.527534589   -25.0972   6  29   0.1528   0.2432   0.3790   0.0770  -0.1238  -0.1506   0.00    0.0
2280 464163   16.262305730  -61.527534555   -25.0998   6  29   0.1519   0.2420   0.3770   0.0766  -0.1233  -0.1499   0.00    0.0
2280 464164   16.262305744  -61.527534529   -25.1024   6  29   0.1510   0.2409   0.3749   0.0763  -0.1229  -0.1492   0.00    0.0
2280 464165   16.262305760  -61.527534514   -25.1038   6  29   0.1501   0.2397   0.3729   0.0759  -0.1225  -0.1484   0.00    0.0
2280 464166   16.262305772  -61.527534496   -25.1049   6  29   0.1493   0.2385   0.3710   0.0755  -0.1220  -0.1477   0.00    0.0
2280 464167   16.262305780  -61.527534490   -25.1050   6  29   0.1484   0.2374   0.3690   0.0751  -0.1216  -0.1470   0.00    0.0
2280 464168   16.262305788  -61.527534478   -25.1068   6  29   0.1476   0.2362   0.3671   0.0747  -0.1212  -0.1462   0.00    0.0
2280 464169   16.262305796  -61.527534473   -25.1061   6  29   0.1467   0.2351   0.3651   0.0744  -0.1207  -0.1455   0.00    0.0
2280 464170   16.262305813  -61.527534489   -25.1045   6  29   0.1459   0.2340   0.3632   0.0740  -0.1203  -0.1448   0.00    0.0
2280 464171   16.262305820  -61.527534505   -25.1043   6  29   0.1451   0.2329   0.3613   0.0736  -0.1199  -0.1441   0.00    0.0
2280 464172   16.262305835  -61.527534531   -25.1052   6  29   0.1443   0.2318   0.3594   0.0733  -0.1194  -0.1434   0.00    0.0
2280 464173   16.262305841  -61.527534557   -25.1060   6  29   0.1434   0.2306   0.3576   0.0729  -0.1190  -0.1427   0.00    0.0
2280 464174   16.262305841  -61.527534584   -25.1053   6  29   0.1426   0.2296   0.3557   0.0725  -0.1186  -0.1420   0.00    0.0
2280 464175   16.262305842  -61.527534595   -25.1043   6  29   0.1418   0.2285   0.3539   0.0722  -0.1182  -0.1413   0.00    0.0
2280 464176   16.262305847  -61.527534602   -25.1016   6  29   0.1411   0.2274   0.3520   0.0718  -0.1178  -0.1406   0.00    0.0
2280 464177   16.262305853  -61.527534617   -25.0993   6  29   0.1403   0.2263   0.3502   0.0715  -0.1173  -0.1400   0.00    0.0
2280 464178   16.262305864  -61.527534635   -25.0978   6  29   0.1395   0.2253   0.3484   0.0711  -0.1169  -0.1393   0.00    0.0
2280 464179   16.262305864  -61.527534651   -25.0961   6  29   0.1387   0.2242   0.3466   0.0708  -0.1165  -0.1386   0.00    0.0
2280 464180   16.262305859  -61.527534653   -25.0944   6  29   0.1380   0.2232   0.3449   0.0704  -0.1161  -0.1379   0.00    0.0
2280 464181   16.262305855  -61.527534666   -25.0961   6  29   0.1372   0.2221   0.3431   0.0701  -0.1157  -0.1373   0.00    0.0
2280 464182   16.262305850  -61.527534698   -25.0968   6  29   0.1365   0.2211   0.3413   0.0698  -0.1153  -0.1366   0.00    0.0
2280 464183   16.262305853  -61.527534737   -25.0987   6  29   0.1357   0.2201   0.3396   0.0694  -0.1148  -0.1360   0.00    0.0
2280 464184   16.262305856  -61.527534773   -25.1013   6  29   0.1350   0.2190   0.3379   0.0691  -0.1144  -0.1353   0.00    0.0
2280 464185   16.262305854  -61.527534795   -25.1013   6  29   0.1343   0.2180   0.3362   0.0688  -0.1140  -0.1347   0.00    0.0
2280 464186   16.262305853  -61.527534803   -25.1005   6  29   0.1335   0.2170   0.3345   0.0684  -0.1136  -0.1341   0.00    0.0
2280 464187   16.262305854  -61.527534816   -25.0990   6  29   0.1328   0.2160   0.3328   0.0681  -0.1132  -0.1334   0.00    0.0
2280 464188   16.262305853  -61.527534825   -25.0965   6  29   0.1321   0.2150   0.3312   0.0678  -0.1128  -0.1328   0.00    0.0
2280 464189   16.262305858  -61.527534843   -25.0950   6  29   0.1314   0.2141   0.3295   0.0675  -0.1124  -0.1322   0.00    0.0
2280 464190   16.262305874  -61.527534867   -25.0961   6  29   0.1307   0.2131   0.3279   0.0671  -0.1120  -0.1315   0.00    0.0
2280 464191   16.262305892  -61.527534886   -25.0981   6  29   0.1300   0.2121   0.3262   0.0668  -0.1116  -0.1309   0.00    0.0
2280 464192   16.262305906  -61.527534908   -25.0997   6  29   0.1293   0.2111   0.3246   0.0665  -0.1112  -0.1303   0.00    0.0
2280 464193   16.262305922  -61.527534926   -25.1019   6  29   0.1287   0.2102   0.3230   0.0662  -0.1108  -0.1297   0.00    0.0
2280 464194   16.262305935  -61.527534941   -25.1047   6  29   0.1280   0.2092   0.3214   0.0659  -0.1104  -0.1291   0.00    0.0
2280 464195   16.262305950  -61.527534948   -25.1078   6  29   0.1273   0.2083   0.3198   0.0656  -0.1100  -0.1285   0.00    0.0
2280 464196   16.262305958  -61.527534948   -25.1087   6  29   0.1267   0.2074   0.3183   0.0653  -0.1096  -0.1279   0.00    0.0
2280 464197   16.262305970  -61.527534944   -25.1095   6  29   0.1260   0.2064   0.3167   0.0650  -0.1092  -0.1273   0.00    0.0
2280 464198   16.262305987  -61.527534936   -25.1103   6  29   0.1253   0.2055   0.3152   0.0647  -0.1088  -0.1267   0.00    0.0
2280 464199   16.262306014  -61.527534930   -25.1119   6  29   0.1247   0.2046   0.3136   0.0644  -0.1084  -0.1261   0.00    0.0
2280 464200   16.262306037  -61.527534939   -25.1145   6  29   0.1241   0.2037   0.3121   0.0641  -0.1080  -0.1256   0.00    0.0
2280 464201   16.262306062  -61.527534941   -25.1194   6  29   0.1234   0.2028   0.3106   0.0638  -0.1076  -0.1250   0.00    0.0
2280 464202   16.262306090  -61.527534939   -25.1236   6  29   0.1228   0.2019   0.3091   0.0635  -0.1073  -0.1244   0.00    0.0
2280 464203   16.262306112  -61.527534952   -25.1268   6  29   0.1222   0.2010   0.3076   0.0632  -0.1069  -0.1238   0.00    0.0
2280 464204   16.262306135  -61.527534960   -25.1297   6  29   0.1215   0.2001   0.3061   0.0629  -0.1065  -0.1233   0.00    0.0
2280 464205   16.262306161  -61.527534963   -25.1310   6  29   0.1209   0.1992   0.3047   0.0626  -0.1061  -0.1227   0.00    0.0
2280 464206   16.262306181  -61.527534972   -25.1306   6  29   0.1203   0.1983   0.3032   0.0623  -0.1057  -0.1222   0.00    0.0
2280 464207   16.262306199  -61.527534981   -25.1311   6  29   0.1197   0.1975   0.3018   0.0620  -0.1053  -0.1216   0.00    0.0
2280 464208   16.262306216  -61.527534994   -25.1305   6  29   0.1191   0.1966   0.3004   0.0618  -0.1050  -0.1211   0.00    0.0
2280 464209   16.262306238  -61.527535001   -25.1310   6  29   0.1185   0.1957   0.2989   0.0615  -0.1046  -0.1205   0.00    0.0
2280 464210   16.262306258  -61.527535006   -25.1336   6  29   0.1179   0.1949   0.2975   0.0612  -0.1042  -0.1200   0.00    0.0
2280 464211   16.262306276  -61.527535016   -25.1347   6  29   0.1173   0.1940   0.2961   0.0609  -0.1038  -0.1194   0.00    0.0
2280 464212   16.262306296  -61.527535022   -25.1362   6  29   0.1167   0.1932   0.2947   0.0607  -0.1035  -0.1189   0.00    0.0
2280 464213   16.262306316  -61.527535030   -25.1371   6  29   0.1162   0.1924   0.2933   0.0604  -0.1031  -0.1184   0.00    0.0
2280 464214   16.262306338  -61.527535033   -25.1387   6  29   0.1156   0.1915   0.2920   0.0601  -0.1027  -0.1178   0.00    0.0
2280 464215   16.262306352  -61.527535040   -25.1384   6  29   0.1150   0.1907   0.2906   0.0598  -0.1024  -0.1173   0.00    0.0
2280 464216   16.262306366  -61.527535047   -25.1367   6  29   0.1145   0.1899   0.2893   0.0596  -0.1020  -0.1168   0.00    0.0
2280 464217   16.262306378  -61.527535049   -25.1357   6  29   0.1139   0.1891   0.2879   0.0593  -0.1016  -0.1163   0.00    0.0
2280 464218   16.262306385  -61.527535047   -25.1335   6  29   0.1134   0.1883   0.2866   0.0591  -0.1013  -0.1158   0.00    0.0
2280 464219   16.262306391  -61.527535049   -25.1315   6  29   0.1128   0.1875   0.2853   0.0588  -0.1009  -0.1152   0.00    0.0
2280 464220   16.262306397  -61.527535063   -25.1316   6  29   0.1123   0.1867   0.2839   0.0585  -0.1005  -0.1147   0.00    0.0
2280 464221   16.262306401  -61.527535073   -25.1290   6  29   0.1117   0.1859   0.2826   0.0583  -0.1002  -0.1142   0.00    0.0
2280 464222   16.262306402  -61.527535078   -25.1267   6  29   0.1112   0.1851   0.2813   0.0580  -0.0998  -0.1137   0.00    0.0
2280 464223   16.262306405  -61.527535087   -25.1246   6  29   0.1106   0.1843   0.2801   0.0578  -0.0995  -0.1132   0.00    0.0
2280 464224   16.262306408  -61.527535085   -25.1228   6  29   0.1101   0.1835   0.2788   0.0575  -0.0991  -0.1127   0.00    0.0
2280 464225   16.262306408  -61.527535091   -25.1212   6  29   0.1096   0.1828   0.2775   0.0573  -0.0988  -0.1123   0.00    0.0
2280 464226   16.262306414  -61.527535094   -25.1230   6  29   0.1091   0.1820   0.2763   0.0570  -0.0984  -0.1118   0.00    0.0
2280 464227   16.262306425  -61.527535096   -25.1250   6  29   0.1086   0.1812   0.2750   0.0568  -0.0981  -0.1113   0.00    0.0
2280 464228   16.262306438  -61.527535105   -25.1267   6  29   0.1080   0.1805   0.2738   0.0565  -0.0977  -0.1108   0.00    0.0
2280 464229   16.262306443  -61.527535113   -25.1278   6  29   0.1075   0.1797   0.2725   0.0563  -0.0974  -0.1103   0.00    0.0
2280 464230   16.262306451  -61.527535127   -25.1278   6  29   0.1070   0.1790   0.2713   0.0560  -0.0970  -0.1099   0.00    0.0
2280 464231   16.262306459  -61.527535137   -25.1287   6  29   0.1065   0.1783   0.2701   0.0558  -0.0967  -0.1094   0.00    0.0
2280 464232   16.262306467  -61.527535151   -25.1277   6  29   0.1060   0.1775   0.2689   0.0556  -0.0963  -0.1089   0.00    0.0
2280 464233   16.262306478  -61.527535160   -25.1278   6  29   0.1055   0.1768   0.2677   0.0553  -0.0960  -0.1084   0.00    0.0
2280 464234   16.262306491  -61.527535172   -25.1295   6  29   0.1050   0.1761   0.2665   0.0551  -0.0957  -0.1080   0.00    0.0
2280 464235   16.262306502  -61.527535181   -25.1315   6  29   0.1046   0.1753   0.2653   0.0548  -0.0953  -0.1075   0.00    0.0
2280 464236   16.262306511  -61.527535187   -25.1326   6  29   0.1041   0.1746   0.2642   0.0546  -0.0950  -0.1071   0.00    0.0
2280 464237   16.262306518  -61.527535206   -25.1321   6  29   0.1036   0.1739   0.2630   0.0544  -0.0947  -0.1066   0.00    0.0
2280 464238   16.262306523  -61.527535222   -25.1317   6  29   0.1031   0.1732   0.2618   0.0542  -0.0943  -0.1062   0.00    0.0
2280 464239   16.262306528  -61.527535240   -25.1320   6  29   0.1026   0.1725   0.2607   0.0539  -0.0940  -0.1057   0.00    0.0
2280 464240   16.262306540  -61.527535252   -25.1332   6  29   0.1022   0.1718   0.2596   0.0537  -0.0937  -0.1053   0.00    0.0
2280 464241   16.262306550  -61.527535256   -25.1345   6  29   0.1017   0.1711   0.2584   0.0535  -0.0933  -0.1048   0.00    0.0
2280 464242   16.262306558  -61.527535269   -25.1363   6  29   0.1013   0.1704   0.2573   0.0533  -0.0930  -0.1044   0.00    0.0
2280 464243   16.262306562  -61.527535276   -25.1367   6  29   0.1008   0.1697   0.2562   0.0530  -0.0927  -0.1040   0.00    0.0
2280 464244   16.262306567  -61.527535290   -25.1392   6  29   0.1003   0.1690   0.2551   0.0528  -0.0924  -0.1035   0.00    0.0
2280 464245   16.262306571  -61.527535315   -25.1413   6  29   0.0999   0.1684   0.2540   0.0526  -0.0920  -0.1031   0.00    0.0
2280 464246   16.262306577  -61.527535335   -25.1414   6  29   0.0994   0.1677   0.2529   0.0524  -0.0917  -0.1027   0.00    0.0
2280 464247   16.262306584  -61.527535358   -25.1420   6  29   0.0990   0.1670   0.2518   0.0522  -0.0914  -0.1022   0.00    0.0
2280 464248   16.262306592  -61.527535376   -25.1430   6  29   0.0986   0.1663   0.2507   0.0519  -0.0911  -0.1018   0.00    0.0
2280 464249   16.262306602  -61.527535399   -25.1444   6  29   0.0981   0.1657   0.2496   0.0517  -0.0908  -0.1014   0.00    0.0
2280 464250   16.262306608  -61.527535404   -25.1462   6  29   0.0977   0.1650   0.2486   0.0515  -0.0904  -0.1010   0.00    0.0
2280 464251   16.262306611  -61.527535409   -25.1480   6  29   0.0972   0.1644   0.2475   0.0513  -0.0901  -0.1006   0.00    0.0
2280 464252   16.262306617  -61.527535414   -25.1507   6  29   0.0968   0.1637   0.2465   0.0511  -0.0898  -0.1002   0.00    0.0
2280 464253   16.262306625  -61.527535416   -25.1533   6  29   0.0964   0.1631   0.2454   0.0509  -0.0895  -0.0997   0.00    0.0
2280 464254   16.262306635  -61.527535420   -25.1561   6  29   0.0960   0.1624   0.2444   0.0507  -0.0892  -0.0993   0.00    0.0
2280 464255   16.262306645  -61.527535426   -25.1599   6  29   0.0956   0.1618   0.2434   0.0505  -0.0889  -0.0989   0.00    0.0
2280 464256   16.262306657  -61.527535425   -25.1629   6  29   0.0951   0.1612   0.2423   0.0503  -0.0886  -0.0985   0.00    0.0
2280 464257   16.262306665  -61.527535431   -25.1649   6  29   0.0947   0.1605   0.2413   0.0501  -0.0883  -0.0981   0.00    0.0
2280 464258   16.262306674  -61.527535433   -25.1684   6  29   0.0943   0.1599   0.2403   0.0499  -0.0880  -0.0977   0.00    0.0
2280 464259   16.262306686  -61.527535434   -25.1727   6  29   0.0939   0.1593   0.2393   0.0497  -0.0877  -0.0973   0.00    0.0
2280 464260   16.262306698  -61.527535438   -25.1762   6  29   0.0935   0.1587   0.2383   0.0495  -0.0874  -0.0970   0.00    0.0
2280 464261   16.262306713  -61.527535441   -25.1803   6  29   0.0931   0.1581   0.2373   0.0493  -0.0871  -0.0966   0.00    0.0
2280 464262   16.262306728  -61.527535444   -25.1859   6  29   0.0927   0.1575   0.2364   0.0491  -0.0868  -0.0962   0.00    0.0
2280 464263   16.262306742  -61.527535448   -25.1910   6  29   0.0923   0.1568   0.2354   0.0489  -0.0865  -0.0958   0.00    0.0
2280 464264   16.262306755  -61.527535456   -25.1955   6  29   0.0919   0.1562   0.2344   0.0487  -0.0862  -0.0954   0.00    0.0
2280 464265   16.262306769  -61.527535464   -25.2002   6  29   0.0915   0.1556   0.2334   0.0485  -0.0859  -0.0950   0.00    0.0
2280 464266   16.262306776  -61.527535468   -25.2019   6  29   0.0911   0.1550   0.2325   0.0483  -0.0856  -0.0947   0.00    0.0
2280 464267   16.262306783  -61.527535475   -25.2025   6  29   0.0907   0.1545   0.2315   0.0481  -0.0853  -0.0943   0.00    0.0
2280 464268   16.262306791  -61.527535478   -25.2041   6  29   0.0904   0.1539   0.2306   0.0479  -0.0850  -0.0939   0.00    0.0
2280 464269   16.262306795  -61.527535484   -25.2055   6  29   0.0900   0.1533   0.2297   0.0477  -0.0847  -0.0935   0.00    0.0
2280 464270   16.262306800  -61.527535483   -25.2062   6  29   0.0896   0.1527   0.2287   0.0475  -0.0844  -0.0932   0.00    0.0
2280 464271   16.262306806  -61.527535483   -25.2073   6  29   0.0892   0.1521   0.2278   0.0474  -0.0842  -0.0928   0.00    0.0
2280 464272   16.262306812  -61.527535484   -25.2085   6  29   0.0889   0.1516   0.2269   0.0472  -0.0839  -0.0924   0.00    0.0
2280 464273   16.262306818  -61.527535485   -25.2099   6  29   0.0885   0.1510   0.2260   0.0470  -0.0836  -0.0921   0.00    0.0
2280 464274   16.262306826  -61.527535484   -25.2123   6  29   0.0881   0.1504   0.2251   0.0468  -0.0833  -0.0917   0.00    0.0
2280 464275   16.262306830  -61.527535485   -25.2131   6  29   0.0878   0.1498   0.2242   0.0466  -0.0830  -0.0914   0.00    0.0
2280 464276   16.262306834  -61.527535483   -25.2144   6  29   0.0874   0.1493   0.2233   0.0464  -0.0827  -0.0910   0.00    0.0
2280 464277   16.262306840  -61.527535484   -25.2167   6  29   0.0870   0.1487   0.2224   0.0463  -0.0825  -0.0907   0.00    0.0
2280 464278   16.262306846  -61.527535493   -25.2178   6  29   0.0867   0.1482   0.2215   0.0461  -0.0822  -0.0903   0.00    0.0
2280 464279   16.262306855  -61.527535504   -25.2199   6  29   0.0863   0.1476   0.2206   0.0459  -0.0819  -0.0900   0.00    0.0
2280 464280   16.262306858  -61.527535507   -25.2210   6  29   0.0860   0.1471   0.2197   0.0457  -0.0816  -0.0896   0.00    0.0
2280 464281   16.262306862  -61.527535504   -25.2222   6  29   0.0856   0.1465   0.2189   0.0456  -0.0814  -0.0893   0.00    0.0
2280 464282   16.262306863  -61.527535499   -25.2241   6  29   0.0853   0.1460   0.2180   0.0454  -0.0811  -0.0889   0.00    0.0
2280 464283   16.262306865  -61.527535505   -25.2267   6  29   0.0849   0.1455   0.2172   0.0452  -0.0808  -0.0886   0.00    0.0
2280 464284   16.262306864  -61.527535512   -25.2279   6  29   0.0846   0.1449   0.2163   0.0450  -0.0806  -0.0883   0.00    0.0
2280 464285   16.262306868  -61.527535523   -25.2291   6  29   0.0842   0.1444   0.2155   0.0449  -0.0803  -0.0879   0.00    0.0
2280 464286   16.262306878  -61.527535529   -25.2312   6  29   0.0839   0.1439   0.2146   0.0447  -0.0800  -0.0876   0.00    0.0
2280 464287   16.262306889  -61.527535539   -25.2325   6  29   0.0836   0.1433   0.2138   0.0445  -0.0798  -0.0873   0.00    0.0
2280 464288   16.262306900  -61.527535548   -25.2345   6  29   0.0832   0.1428   0.2130   0.0444  -0.0795  -0.0869   0.00    0.0
2280 464289   16.262306908  -61.527535560   -25.2372   6  29   0.0829   0.1423   0.2121   0.0442  -0.0792  -0.0866   0.00    0.0
2280 464290   16.262306909  -61.527535567   -25.2395   6  29   0.0826   0.1418   0.2113   0.0440  -0.0790  -0.0863   0.00    0.0
2280 464291   16.262306909  -61.527535574   -25.2420   6  29   0.0822   0.1413   0.2105   0.0439  -0.0787  -0.0859   0.00    0.0
2280 464292   16.262306909  -61.527535581   -25.2445   6  29   0.0819   0.1408   0.2097   0.0437  -0.0784  -0.0856   0.00    0.0
2280 464293   16.262306904  -61.527535595   -25.2455   6  29   0.0816   0.1402   0.2089   0.0435  -0.0782  -0.0853   0.00    0.0
2280 464294   16.262306902  -61.527535607   -25.2470   6  29   0.0813   0.1397   0.2081   0.0434  -0.0779  -0.0850   0.00    0.0
2280 464295   16.262306903  -61.527535611   -25.2482   6  29   0.0810   0.1392   0.2073   0.0432  -0.0777  -0.0847   0.00    0.0
2280 464296   16.262306904  -61.527535615   -25.2493   6  29   0.0806   0.1387   0.2065   0.0431  -0.0774  -0.0844   0.00    0.0
2280 464297   16.262306904  -61.527535629   -25.2508   6  29   0.0803   0.1382   0.2057   0.0429  -0.0772  -0.0840   0.00    0.0
2280 464298   16.262306901  -61.527535646   -25.2511   6  29   0.0800   0.1378   0.2049   0.0428  -0.0769  -0.0837   0.00    0.0
2280 464299   16.262306896  -61.527535662   -25.2514   6  29   0.0797   0.1373   0.2042   0.0426  -0.0767  -0.0834   0.00    0.0
2280 464300   16.262306890  -61.527535677   -25.2512   6  29   0.0794   0.1368   0.2034   0.0424  -0.0764  -0.0831   0.00    0.0
2280 464301   16.262306887  -61.527535692   -25.2510   6  29   0.0791   0.1363   0.2026   0.0423  -0.0762  -0.0828   0.00    0.0
2280 464302   16.262306883  -61.527535708   -25.2513   6  29   0.0788   0.1358   0.2019   0.0421  -0.0759  -0.0825   0.00    0.0
2280 464303   16.262306877  -61.527535726   -25.2520   6  29   0.0785   0.1353   0.2011   0.0420  -0.0757  -0.0822   0.00    0.0
