%  GPST Time  latitude(deg) longitude(deg)  height(m)   Q  ns   sdn(m)   sde(m)   sdu(m)  sdne(m)  sdeu(m)  sdun(m) age(s)  ratio
2280 464351   31.025023858  121.439440780    38.5689   6   9   9.4416   8.7719  19.5272  -3.7658   2.8842  -9.0665   0.00    0.0
2280 464352   31.025024270  121.439440454    37.9447   6   9   6.8449   6.3245  14.4349  -2.7214   1.8851  -6.6946   0.00    0.0
2280 464353   31.025024391  121.439440311    37.7145   6   9   5.6351   5.1982  11.9660  -2.2364   1.4772  -5.5460   0.00    0.0
2280 464354   31.025024467  121.439440254    37.5930   6   9   4.8982   4.5165  10.4356  -1.9411   1.2424  -4.8341   0.00    0.0
2280 464355   31.025024488  121.439440253    37.5048   6   9   4.3884   4.0473   9.3657  -1.7368   1.0833  -4.3363   0.00    0.0
2280 464356   31.025024411  121.439440346    37.4884   6   9   4.0082   3.6990   8.5615  -1.5841   0.9647  -3.9619   0.00    0.0
2280 464357   31.025024295  121.439440423    37.4435   6   9   3.7101   3.4271   7.9269  -1.4641   0.8704  -3.6661   0.00    0.0
2280 464358   31.025024245  121.439440387    37.4036   6   9   3.4679   3.2072   7.4081  -1.3663   0.7916  -3.4241   0.00    0.0
2280 464359   31.025024139  121.439440345    37.3808   6   9   3.2656   3.0246   6.9727  -1.2843   0.7235  -3.2208   0.00    0.0
2280 464360   31.025024086  121.439440266    37.3174   6   9   3.0932   2.8697   6.5996  -1.2141   0.6627  -3.0463   0.00    0.0
2280 464361   31.025024072  121.439440239    37.3574   6   9   2.9436   2.7361   6.2744  -1.1530   0.6073  -2.8939   0.00    0.0
2280 464362   31.025024092  121.439440178    37.3494   6   9   2.8121   2.6193   5.9871  -1.0989   0.5557  -2.7592   0.00    0.0
2280 464363   31.025024050  121.439440133    37.3509   6   9   2.6951   2.5161   5.7303  -1.0506   0.5066  -2.6385   0.00    0.0
2280 464364   31.025023937  121.439440095    37.3718   6   9   2.5900   2.4239   5.4985  -1.0069   0.4591  -2.5294   0.00    0.0
2280 464365   31.025024022  121.439440009    37.3590   6   9   2.4948   2.3410   5.2876  -0.9672   0.4122  -2.4300   0.00    0.0
2280 464366   31.025024114  121.439440013    37.4157   6   9   2.4078   2.2658   5.0943  -0.9306   0.3652  -2.3387   0.00    0.0
2280 464367   31.025024308  121.439439962    37.4460   6   9   2.3280   2.1972   4.9161  -0.8969   0.3167  -2.2544   0.00    0.0
2280 464368   31.025024388  121.439439972    37.5192   6   9   2.2543   2.1343   4.7508  -0.8655   0.2650  -2.1761   0.00    0.0
2280 464369   31.025024570  121.439439932    37.5633   6   9   2.1858   2.0763   4.5969  -0.8362   0.2069  -2.1031   0.00    0.0
2280 464370   31.025024806  121.439439890    37.6175   6   9   2.1220   2.0226   4.4529  -0.8087   0.1327  -2.0346   0.00    0.0
2280 464371   31.025025001  121.439439839    37.6604   6   9   2.0622   1.9727   4.3177  -0.7828  -0.0746  -1.9703   0.00    0.0
2280 464372   31.025025089  121.439439806    37.7104   6   9   2.0061   1.9261   4.1904  -0.7584  -0.1641  -1.9096   0.00    0.0
2280 464373   31.025025164  121.439439779    37.7589   6   9   1.9532   1.8826   4.0701  -0.7352  -0.2161  -1.8521   0.00    0.0
2280 464374   31.025025265  121.439439763    37.7928   6   9   1.9032   1.8417   3.9562  -0.7131  -0.2549  -1.7977   0.00    0.0
2280 464375   31.025025348  121.439439764    37.8561   6   9   1.8559   1.8032   3.8481  -0.6920  -0.2862  -1.7459   0.00    0.0
2280 464376   31.025025423  121.439439773    37.9111   6   9   1.8109   1.7668   3.7453  -0.6719  -0.3124  -1.6966   0.00    0.0
2280 464377   31.025025573  121.439439775    37.9393   6   9   1.7681   1.7325   3.6473  -0.6527  -0.3350  -1.6495   0.00    0.0
2280 464378   31.025025688  121.439439773    37.9701   6   9   1.7272   1.6999   3.5538  -0.6342  -0.3546  -1.6046   0.00    0.0
2280 464379   31.025025761  121.439439763    38.0118   6   9   1.6882   1.6690   3.4644  -0.6164  -0.3719  -1.5615   0.00    0.0
2280 464380   31.025025867  121.439439787    38.0566   6   9   1.6509   1.6396   3.3789  -0.5993  -0.3873  -1.5203   0.00    0.0
2280 464381   31.025025940  121.439439816    38.0819   6   9   1.6151   1.6115   3.2969  -0.5829  -0.4010  -1.4808   0.00    0.0
2280 464382   31.025025963  121.439439852    38.1179   6   9   1.5807   1.5848   3.2183  -0.5670  -0.4133  -1.4428   0.00    0.0
2280 464383   31.025026046  121.439439843    38.1562   6   9   1.5477   1.5592   3.1428  -0.5516  -0.4244  -1.4063   0.00    0.0
2280 464384   31.025026124  121.439439888    38.2040   6   9   1.5159   1.5347   3.0702  -0.5367  -0.4345  -1.3713   0.00    0.0
2280 464385   31.025026252  121.439439924    38.2567   6   9   1.4853   1.5112   3.0004  -0.5223  -0.4436  -1.3375   0.00    0.0
2280 464386   31.025026395  121.439439934    38.2628   6   9   1.4558   1.4887   2.9333  -0.5083  -0.4518  -1.3049   0.00    0.0
2280 464387   31.025026557  121.439439940    38.2709   6   9   1.4273   1.4670   2.8686  -0.4947  -0.4592  -1.2736   0.00    0.0
2280 464388   31.025026747  121.439439934    38.2711   6   9   1.3998   1.4462   2.8062  -0.4816  -0.4660  -1.2433   0.00    0.0
2280 464389   31.025026814  121.439439976    38.2735   6   9   1.3732   1.4261   2.7461  -0.4687  -0.4721  -1.2141   0.00    0.0
2280 464390   31.025026945  121.439439967    38.2685   6   9   1.3475   1.4068   2.6881  -0.4563  -0.4777  -1.1859   0.00    0.0
2280 464391   31.025026973  121.439439958    38.2346   6   9   1.3226   1.3881   2.6321  -0.4441  -0.4828  -1.1587   0.00    0.0
2280 464392   31.025026897  121.439439980    38.2332   6   9   1.2985   1.3701   2.5780  -0.4323  -0.4873  -1.1324   0.00    0.0
2280 464393   31.025026885  121.439439988    38.2269   6   9   1.2751   1.3527   2.5258  -0.4208  -0.4915  -1.1070   0.00    0.0
2280 464394   31.025026748  121.439440044    38.2311   6   9   1.2524   1.3359   2.4753  -0.4095  -0.4952  -1.0824   0.00    0.0
2280 464395   31.025026696  121.439440065    38.2208   6   9   1.2303   1.3195   2.4264  -0.3985  -0.4985  -1.0587   0.00    0.0
2280 464396   31.025026581  121.439440130    38.2244   6   9   1.2089   1.3037   2.3792  -0.3878  -0.5016  -1.0357   0.00    0.0
2280 464397   31.025026401  121.439440194    38.2282   6   9   1.1881   1.2884   2.3335  -0.3773  -0.5042  -1.0134   0.00    0.0
2280 464398   31.025026223  121.439440257    38.2189   6   9   1.1679   1.2735   2.2893  -0.3671  -0.5066  -0.9918   0.00    0.0
2280 464399   31.025026056  121.439440317    38.2051   6   9   1.1483   1.2591   2.2464  -0.3570  -0.5088  -0.9709   0.00    0.0
2280 464400   31.025025897  121.439440373    38.1880   6   9   1.1292   1.2451   2.2049  -0.3472  -0.5106  -0.9507   0.00    0.0
2280 464401   31.025025884  121.439440367    38.1563   6   9   1.1106   1.2314   2.1647  -0.3376  -0.5123  -0.9311   0.00    0.0
2280 464402   31.025025837  121.439440382    38.1397   6   9   1.0924   1.2182   2.1258  -0.3281  -0.5137  -0.9121   0.00    0.0
2280 464403   31.025025786  121.439440361    38.1084   6   9   1.0748   1.2053   2.0881  -0.3189  -0.5149  -0.8937   0.00    0.0
2280 464404   31.025025784  121.439440349    38.0877   6   9   1.0576   1.1927   2.0515  -0.3098  -0.5159  -0.8758   0.00    0.0
2280 464405   31.025025723  121.439440332    38.0702   6   9   1.0408   1.1804   2.0160  -0.3009  -0.5168  -0.8585   0.00    0.0
2280 464406   31.025025708  121.439440325    38.0743   6   9   1.0245   1.1685   1.9816  -0.2921  -0.5175  -0.8417   0.00    0.0
2280 464407   31.025025695  121.439440320    38.0710   6   9   1.0086   1.1569   1.9482  -0.2835  -0.5180  -0.8254   0.00    0.0
2280 464408   31.025025665  121.439440334    38.0796   6   9   0.9930   1.1455   1.9157  -0.2750  -0.5184  -0.8096   0.00    0.0
2280 464409   31.025025643  121.439440329    38.0898   6   9   0.9779   1.1344   1.8843  -0.2667  -0.5187  -0.7942   0.00    0.0
2280 464410   31.025025613  121.439440362    38.1136   6   9   0.9631   1.1236   1.8537  -0.2584  -0.5188  -0.7793   0.00    0.0
2280 464411   31.025025660  121.439440373    38.1285   6   9   0.9486   1.1130   1.8241  -0.2503  -0.5188  -0.7648   0.00    0.0
2280 464412   31.025025703  121.439440377    38.1473   6   9   0.9345   1.1027   1.7952  -0.2423  -0.5188  -0.7507   0.00    0.0
2280 464413   31.025025740  121.439440393    38.1761   6   9   0.9207   1.0926   1.7673  -0.2344  -0.5186  -0.7370   0.00    0.0
2280 464414   31.025025815  121.439440394    38.2083   6   9   0.9073   1.0827   1.7401  -0.2267  -0.5183  -0.7237   0.00    0.0
2280 464415   31.025025902  121.439440414    38.2300   6   9   0.8941   1.0730   1.7136  -0.2189  -0.5180  -0.7108   0.00    0.0
2280 464416   31.025025953  121.439440414    38.2569   6   9   0.8812   1.0636   1.6879  -0.2113  -0.5175  -0.6983   0.00    0.0
2280 464417   31.025025938  121.439440383    38.2527   6   9   0.8687   1.0543   1.6629  -0.2037  -0.5170  -0.6861   0.00    0.0
2280 464418   31.025025954  121.439440350    38.2408   6   9   0.8564   1.0452   1.6386  -0.1962  -0.5164  -0.6742   0.00    0.0
2280 464419   31.025025953  121.439440276    38.2349   6   9   0.8443   1.0363   1.6150  -0.1888  -0.5158  -0.6626   0.00    0.0
2280 464420   31.025025909  121.439440235    38.2295   6   9   0.8326   1.0276   1.5920  -0.1814  -0.5151  -0.6514   0.00    0.0
2280 464421   31.025025842  121.439440198    38.2349   6   9   0.8210   1.0191   1.5696  -0.1740  -0.5143  -0.6405   0.00    0.0
2280 464422   31.025025791  121.439440161    38.2403   6   9   0.8098   1.0107   1.5478  -0.1666  -0.5135  -0.6298   0.00    0.0
2280 464423   31.025025766  121.439440145    38.2432   6   9   0.7988   1.0025   1.5266  -0.1593  -0.5127  -0.6195   0.00    0.0
2280 464424   31.025025751  121.439440125    38.2485   6   9   0.7880   0.9944   1.5059  -0.1519  -0.5118  -0.6094   0.00    0.0
2280 464425   31.025025688  121.439440100    38.2624   6   9   0.7774   0.9865   1.4858  -0.1445  -0.5108  -0.5996   0.00    0.0
2280 464426   31.025025631  121.439440096    38.2641   6   9   0.7671   0.9787   1.4662  -0.1370  -0.5098  -0.5900   0.00    0.0
2280 464427   31.025025577  121.439440098    38.2642   6   9   0.7569   0.9711   1.4471  -0.1295  -0.5088  -0.5807   0.00    0.0
2280 464428   31.025025523  121.439440083    38.2653   6   9   0.7470   0.9636   1.4285  -0.1219  -0.5078  -0.5716   0.00    0.0
2280 464429   31.025025517  121.439440068    38.2638   6   9   0.7373   0.9562   1.4103  -0.1141  -0.5067  -0.5628   0.00    0.0
2280 464430   31.025025465  121.439440066    38.2688   6   9   0.7277   0.9490   1.3926  -0.1061  -0.5056  -0.5541   0.00    0.0
2280 464431   31.025025482  121.439440060    38.2651   6   9   0.7184   0.9419   1.3754  -0.0979  -0.5044  -0.5457   0.00    0.0
2280 464432   31.025025558  121.439440045    38.2630   6   9   0.7093   0.9349   1.3585  -0.0893  -0.5033  -0.5375   0.00    0.0
2280 464433   31.025025630  121.439440034    38.2609   6   9   0.7003   0.9280   1.3421  -0.0802  -0.5021  -0.5295   0.00    0.0
2280 464434   31.025025682  121.439440016    38.2582   6   9   0.6915   0.9213   1.3261  -0.0705  -0.5009  -0.5217   0.00    0.0
2280 464435   31.025025750  121.439439999    38.2536   6   9   0.6829   0.9146   1.3105  -0.0597  -0.4997  -0.5141   0.00    0.0
2280 464436   31.025025785  121.439439988    38.2322   6   9   0.6744   0.9080   1.2952  -0.0471  -0.4984  -0.5067   0.00    0.0
2280 464437   31.025025800  121.439439978    38.2154   6   9   0.6661   0.9016   1.2803  -0.0306  -0.4972  -0.4995   0.00    0.0
2280 464438   31.025025792  121.439439958    38.1942   6   9   0.6580   0.8953   1.2657   0.0171  -0.4959  -0.4924   0.00    0.0
2280 464439   31.025025797  121.439439959    38.1757   6   9   0.6500   0.8890   1.2515   0.0383  -0.4946  -0.4855   0.00    0.0
2280 464440   31.025025824  121.439439956    38.1614   6   9   0.6422   0.8828   1.2376   0.0508  -0.4933  -0.4788   0.00    0.0
2280 464441   31.025025824  121.439439977    38.1539   6   9   0.6345   0.8768   1.2240   0.0605  -0.4920  -0.4722   0.00    0.0
2280 464442   31.025025835  121.439439991    38.1487   6   9   0.6270   0.8708   1.2108   0.0684  -0.4907  -0.4658   0.00    0.0
2280 464443   31.025025893  121.439440005    38.1428   6   9   0.6196   0.8649   1.1978   0.0752  -0.4894  -0.4595   0.00    0.0
2280 464444   31.025025919  121.439440025    38.1390   6   9   0.6123   0.8591   1.1851   0.0812  -0.4880  -0.4534   0.00    0.0
2280 464445   31.025025964  121.439440039    38.1260   6   9   0.6052   0.8534   1.1727   0.0865  -0.4867  -0.4474   0.00    0.0
2280 464446   31.025025944  121.439440054    38.1142   6   9   0.5982   0.8478   1.1605   0.0913  -0.4853  -0.4415   0.00    0.0
2280 464447   31.025025921  121.439440064    38.1075   6   9   0.5913   0.8422   1.1487   0.0956  -0.4840  -0.4358   0.00    0.0
2280 464448   31.025025944  121.439440078    38.0991   6   9   0.5846   0.8367   1.1370   0.0996  -0.4826  -0.4302   0.00    0.0
2280 464449   31.025025989  121.439440089    38.0950   6   9   0.5779   0.8313   1.1257   0.1032  -0.4813  -0.4247   0.00    0.0
2280 464450   31.025026004  121.439440108    38.0869   6   9   0.5714   0.8260   1.1145   0.1066  -0.4799  -0.4194   0.00    0.0
2280 464451   31.025026030  121.439440116    38.0821   6   9   0.5650   0.8207   1.1036   0.1097  -0.4785  -0.4142   0.00    0.0
2280 464452   31.025026045  121.439440130    38.0829   6   9   0.5587   0.8155   1.0929   0.1125  -0.4771  -0.4090   0.00    0.0
2280 464453   31.025026098  121.439440141    38.0834   6   9   0.5526   0.8104   1.0824   0.1152  -0.4758  -0.4040   0.00    0.0
2280 464454   31.025026140  121.439440138    38.0828   6   9   0.5465   0.8054   1.0722   0.1177  -0.4744  -0.3991   0.00    0.0
2280 464455   31.025026208  121.439440159    38.0821   6   9   0.5406   0.8004   1.0621   0.1200  -0.4730  -0.3943   0.00    0.0
2280 464456   31.025026232  121.439440130    38.0776   6   9   0.5347   0.7955   1.0522   0.1222  -0.4716  -0.3896   0.00    0.0
2280 464457   31.025026261  121.439440131    38.0838   6   9   0.5289   0.7906   1.0425   0.1242  -0.4702  -0.3850   0.00    0.0
2280 464458   31.025026267  121.439440133    38.0902   6   9   0.5233   0.7858   1.0331   0.1261  -0.4688  -0.3805   0.00    0.0
2280 464459   31.025026302  121.439440149    38.0901   6   9   0.5177   0.7810   1.0237   0.1279  -0.4674  -0.3761   0.00    0.0
2280 464460   31.025026300  121.439440162    38.0893   6   9   0.5122   0.7764   1.0146   0.1296  -0.4660  -0.3718   0.00    0.0
2280 464461   31.025026269  121.439440162    38.0794   6   9   0.5069   0.7717   1.0056   0.1311  -0.4646  -0.3676   0.00    0.0
2280 464462   31.025026227  121.439440166    38.0664   6   9   0.5016   0.7671   0.9968   0.1326  -0.4632  -0.3635   0.00    0.0
2280 464463   31.025026205  121.439440159    38.0553   6   9   0.4964   0.7626   0.9882   0.1339  -0.4618  -0.3594   0.00    0.0
2280 464464   31.025026206  121.439440163    38.0433   6   9   0.4912   0.7582   0.9797   0.1352  -0.4604  -0.3554   0.00    0.0
2280 464465   31.025026182  121.439440166    38.0269   6   9   0.4862   0.7537   0.9714   0.1364  -0.4590  -0.3515   0.00    0.0
2280 464466   31.025026209  121.439440186    38.0228   6   9   0.4813   0.7494   0.9632   0.1376  -0.4577  -0.3477   0.00    0.0
2280 464467   31.025026232  121.439440170    38.0208   6   9   0.4764   0.7451   0.9552   0.1386  -0.4563  -0.3440   0.00    0.0
2280 464468   31.025026257  121.439440179    38.0186   6   9   0.4716   0.7408   0.9472   0.1396  -0.4549  -0.3403   0.00    0.0
2280 464469   31.025026269  121.439440171    38.0147   6   9   0.4669   0.7366   0.9395   0.1405  -0.4535  -0.3367   0.00    0.0
2280 464470   31.025026289  121.439440160    38.0074   6   9   0.4622   0.7324   0.9318   0.1414  -0.4521  -0.3332   0.00    0.0
2280 464471   31.025026273  121.439440158    38.0054   6   9   0.4577   0.7283   0.9243   0.1422  -0.4507  -0.3297   0.00    0.0
2280 464472   31.025026257  121.439440163    38.0011   6   9   0.4532   0.7242   0.9169   0.1429  -0.4493  -0.3263   0.00    0.0
2280 464473   31.025026246  121.439440171    37.9993   6   9   0.4487   0.7202   0.9096   0.1437  -0.4479  -0.3230   0.00    0.0
2280 464474   31.025026220  121.439440174    37.9945   6   9   0.4444   0.7162   0.9025   0.1443  -0.4465  -0.3197   0.00    0.0
2280 464475   31.025026198  121.439440188    37.9945   6   9   0.4401   0.7122   0.8954   0.1449  -0.4451  -0.3165   0.00    0.0
2280 464476   31.025026191  121.439440213    38.0017   6   9   0.4359   0.7083   0.8885   0.1455  -0.4437  -0.3133   0.00    0.0
2280 464477   31.025026190  121.439440212    38.0077   6   9   0.4317   0.7045   0.8817   0.1460  -0.4424  -0.3102   0.00    0.0
2280 464478   31.025026197  121.439440228    38.0172   6   9   0.4276   0.7006   0.8750   0.1465  -0.4410  -0.3072   0.00    0.0
2280 464479   31.025026218  121.439440222    38.0206   6   9   0.4236   0.6968   0.8683   0.1469  -0.4396  -0.3042   0.00    0.0
2280 464480   31.025026232  121.439440230    38.0249   6   9   0.4196   0.6931   0.8618   0.1473  -0.4382  -0.3013   0.00    0.0
2280 464481   31.025026265  121.439440214    38.0216   6   9   0.4157   0.6894   0.8554   0.1477  -0.4368  -0.2984   0.00    0.0
2280 464482   31.025026300  121.439440242    38.0126   6   9   0.4119   0.6857   0.8491   0.1480  -0.4355  -0.2956   0.00    0.0
2280 464483   31.025026314  121.439440249    38.0032   6   9   0.4081   0.6821   0.8428   0.1484  -0.4341  -0.2928   0.00    0.0
2280 464484   31.025026300  121.439440259    37.9980   6   9   0.4043   0.6785   0.8367   0.1486  -0.4327  -0.2901   0.00    0.0
2280 464485   31.025026271  121.439440255    37.9853   6   9   0.4006   0.6749   0.8306   0.1489  -0.4313  -0.2874   0.00    0.0
2280 464486   31.025026232  121.439440280    37.9684   6   9   0.3970   0.6714   0.8247   0.1491  -0.4300  -0.2848   0.00    0.0
2280 464487   31.025026172  121.439440320    37.9469   6   9   0.3934   0.6679   0.8188   0.1493  -0.4286  -0.2822   0.00    0.0
2280 464488   31.025026117  121.439440352    37.9244   6   9   0.3899   0.6644   0.8130   0.1495  -0.4272  -0.2796   0.00    0.0
2280 464489   31.025026048  121.439440363    37.8999   6   9   0.3864   0.6610   0.8072   0.1496  -0.4259  -0.2771   0.00    0.0
2280 464490   31.025026002  121.439440394    37.8758   6   9   0.3830   0.6576   0.8016   0.1498  -0.4245  -0.2747   0.00    0.0
2280 464491   31.025026006  121.439440426    37.8746   6   9   0.3796   0.6542   0.7960   0.1499  -0.4231  -0.2722   0.00    0.0
2280 464492   31.025026000  121.439440452    37.8724   6   9   0.3763   0.6509   0.7905   0.1499  -0.4218  -0.2699   0.00    0.0
2280 464493   31.025025992  121.439440476    37.8695   6   9   0.3730   0.6476   0.7850   0.1500  -0.4204  -0.2675   0.00    0.0
2280 464494   31.025025984  121.439440520    37.8638   6   9   0.3698   0.6443   0.7797   0.1500  -0.4191  -0.2652   0.00    0.0
2280 464495   31.025025973  121.439440555    37.8649   6   9   0.3666   0.6411   0.7744   0.1501  -0.4177  -0.2629   0.00    0.0
2280 464496   31.025025942  121.439440602    37.8626   6   9   0.3635   0.6379   0.7691   0.1501  -0.4164  -0.2607   0.00    0.0
2280 464497   31.025025922  121.439440641    37.8686   6   9   0.3603   0.6347   0.7640   0.1501  -0.4150  -0.2585   0.00    0.0
2280 464498   31.025025938  121.439440663    37.8777   6   9   0.3573   0.6315   0.7589   0.1500  -0.4137  -0.2564   0.00    0.0
2280 464499   31.025025987  121.439440693    37.8901   6   9   0.3543   0.6284   0.7538   0.1500  -0.4123  -0.2542   0.00    0.0
2280 464500   31.025026048  121.439440721    37.9048   6   9   0.3513   0.6253   0.7489   0.1499  -0.4110  -0.2522   0.00    0.0
2280 464501   31.025026057  121.439440743    37.9114   6   9   0.3484   0.6222   0.7439   0.1499  -0.4096  -0.2501   0.00    0.0
2280 464502   31.025026072  121.439440763    37.9191   6   9   0.3455   0.6192   0.7391   0.1498  -0.4083  -0.2481   0.00    0.0
2280 464503   31.025026094  121.439440814    37.9279   6   9   0.3426   0.6162   0.7343   0.1497  -0.4070  -0.2461   0.00    0.0
2280 464504   31.025026116  121.439440833    37.9384   6   9   0.3398   0.6132   0.7295   0.1496  -0.4056  -0.2441   0.00    0.0
2280 464505   31.025026146  121.439440857    37.9501   6   9   0.3370   0.6102   0.7248   0.1495  -0.4043  -0.2422   0.00    0.0
2280 464506   31.025026131  121.439440890    37.9524   6   9   0.3343   0.6072   0.7202   0.1493  -0.4030  -0.2403   0.00    0.0
2280 464507   31.025026118  121.439440927    37.9515   6   9   0.3316   0.6043   0.7156   0.1492  -0.4016  -0.2384   0.00    0.0
2280 464508   31.025026084  121.439440973    37.9511   6   9   0.3289   0.6014   0.7111   0.1490  -0.4003  -0.2365   0.00    0.0
2280 464509   31.025026055  121.439441007    37.9475   6   9   0.3263   0.5986   0.7066   0.1489  -0.3990  -0.2347   0.00    0.0
2280 464510   31.025026025  121.439441061    37.9437   6   9   0.3237   0.5957   0.7021   0.1487  -0.3977  -0.2329   0.00    0.0
2280 464511   31.025025993  121.439441084    37.9357   6   9   0.3211   0.5929   0.6978   0.1485  -0.3963  -0.2312   0.00    0.0
2280 464512   31.025025962  121.439441096    37.9294   6   9   0.3186   0.5901   0.6934   0.1483  -0.3950  -0.2294   0.00    0.0
2280 464513   31.025025927  121.439441101    37.9211   6   9   0.3161   0.5873   0.6891   0.1481  -0.3937  -0.2277   0.00    0.0
2280 464514   31.025025874  121.439441124    37.9124   6   9   0.3136   0.5845   0.6849   0.1479  -0.3924  -0.2260   0.00    0.0
2280 464515   31.025025805  121.439441162    37.9034   6   9   0.3112   0.5818   0.6807   0.1477  -0.3911  -0.2243   0.00    0.0
2280 464516   31.025025794  121.439441159    37.8943   6   9   0.3088   0.5791   0.6765   0.1474  -0.3898  -0.2227   0.00    0.0
2280 464517   31.025025782  121.439441157    37.8845   6   9   0.3064   0.5764   0.6724   0.1472  -0.3885  -0.2210   0.00    0.0
2280 464518   31.025025784  121.439441180    37.8729   6   9   0.3040   0.5737   0.6683   0.1469  -0.3872  -0.2194   0.00    0.0
2280 464519   31.025025796  121.439441175    37.8654   6   9   0.3017   0.5711   0.6643   0.1467  -0.3859  -0.2179   0.00    0.0
2280 464520   31.025025790  121.439441194    37.8582   6   9   0.2994   0.5685   0.6603   0.1464  -0.3846  -0.2163   0.00    0.0
2280 464521   31.025025816  121.439441204    37.8546   6   9   0.2972   0.5659   0.6563   0.1462  -0.3833  -0.2148   0.00    0.0
2280 464522   31.025025833  121.439441196    37.8533   6   9   0.2949   0.5633   0.6524   0.1459  -0.3820  -0.2132   0.00    0.0
2280 464523   31.025025867  121.439441191    37.8558   6   9   0.2927   0.5607   0.6486   0.1456  -0.3807  -0.2117   0.00    0.0
2280 464524   31.025025918  121.439441197    37.8623   6   9   0.2906   0.5581   0.6447   0.1453  -0.3794  -0.2103   0.00    0.0
2280 464525   31.025025970  121.439441213    37.8738   6   9   0.2884   0.5556   0.6409   0.1451  -0.3781  -0.2088   0.00    0.0
2280 464526   31.025025995  121.439441236    37.8831   6   9   0.2863   0.5531   0.6372   0.1448  -0.3768  -0.2074   0.00    0.0
2280 464527   31.025026018  121.439441233    37.8905   6   9   0.2842   0.5506   0.6334   0.1445  -0.3756  -0.2060   0.00    0.0
2280 464528   31.025026029  121.439441233    37.9011   6   9   0.2821   0.5481   0.6297   0.1442  -0.3743  -0.2046   0.00    0.0
2280 464529   31.025026045  121.439441222    37.9111   6   9   0.2801   0.5457   0.6261   0.1439  -0.3730  -0.2032   0.00    0.0
2280 464530   31.025026069  121.439441219    37.9174   6   9   0.2780   0.5432   0.6225   0.1436  -0.3718  -0.2018   0.00    0.0
2280 464531   31.025026045  121.439441195    37.9165   6   9   0.2760   0.5408   0.6189   0.1432  -0.3705  -0.2005   0.00    0.0
2280 464532   31.025026031  121.439441189    37.9147   6   9   0.2741   0.5384   0.6153   0.1429  -0.3692  -0.1991   0.00    0.0
2280 464533   31.025026017  121.439441142    37.9155   6   9   0.2721   0.5360   0.6118   0.1426  -0.3680  -0.1978   0.00    0.0
2280 464534   31.025025997  121.439441132    37.9121   6   9   0.2702   0.5337   0.6083   0.1423  -0.3667  -0.1965   0.00    0.0
2280 464535   31.025025980  121.439441117    37.9071   6   9   0.2683   0.5313   0.6049   0.1419  -0.3654  -0.1952   0.00    0.0
2280 464536   31.025025966  121.439441109    37.9047   6   9   0.2664   0.5290   0.6014   0.1416  -0.3642  -0.1940   0.00    0.0
2280 464537   31.025025959  121.439441102    37.9021   6   9   0.2645   0.5267   0.5980   0.1413  -0.3629  -0.1927   0.00    0.0
2280 464538   31.025025944  121.439441084    37.9019   6   9   0.2627   0.5244   0.5947   0.1409  -0.3617  -0.1915   0.00    0.0
2280 464539   31.025025953  121.439441066    37.9009   6   9   0.2609   0.5221   0.5914   0.1406  -0.3605  -0.1902   0.00    0.0
2280 464540   31.025025969  121.439441065    37.8980   6   9   0.2591   0.5198   0.5881   0.1403  -0.3592  -0.1890   0.00    0.0
2280 464541   31.025025973  121.439441060    37.8991   6   9   0.2573   0.5176   0.5848   0.1399  -0.3580  -0.1878   0.00    0.0
2280 464542   31.025025988  121.439441068    37.9006   6   9   0.2555   0.5153   0.5815   0.1396  -0.3567  -0.1867   0.00    0.0
2280 464543   31.025025979  121.439441085    37.9063   6   9   0.2538   0.5131   0.5783   0.1392  -0.3555  -0.1855   0.00    0.0
2280 464544   31.025025976  121.439441105    37.9136   6   9   0.2521   0.5109   0.5751   0.1389  -0.3543  -0.1843   0.00    0.0
2280 464545   31.025025976  121.439441122    37.9220   6   9   0.2504   0.5087   0.5720   0.1385  -0.3531  -0.1832   0.00    0.0
2280 464546   31.025025977  121.439441134    37.9254   6   9   0.2487   0.5065   0.5688   0.1381  -0.3518  -0.1821   0.00    0.0
2280 464547   31.025025984  121.439441155    37.9326   6   9   0.2470   0.5044   0.5657   0.1378  -0.3506  -0.1810   0.00    0.0
2280 464548   31.025025993  121.439441180    37.9407   6   9   0.2454   0.5022   0.5627   0.1374  -0.3494  -0.1799   0.00    0.0
2280 464549   31.025026001  121.439441216    37.9495   6   9   0.2438   0.5001   0.5596   0.1371  -0.3482  -0.1788   0.00    0.0
2280 464550   31.025026020  121.439441252    37.9570   6   9   0.2422   0.4980   0.5566   0.1367  -0.3470  -0.1777   0.00    0.0
2280 464551   31.025026043  121.439441284    37.9597   6   9   0.2406   0.4959   0.5536   0.1363  -0.3458  -0.1766   0.00    0.0
2280 464552   31.025026065  121.439441309    37.9647   6   9   0.2390   0.4938   0.5506   0.1360  -0.3446  -0.1756   0.00    0.0
2280 464553   31.025026082  121.439441337    37.9671   6   9   0.2374   0.4917   0.5476   0.1356  -0.3434  -0.1745   0.00    0.0
2280 464554   31.025026094  121.439441370    37.9702   6   9   0.2359   0.4896   0.5447   0.1352  -0.3422  -0.1735   0.00    0.0
2280 464555   31.025026114  121.439441387    37.9708   6   9   0.2344   0.4876   0.5418   0.1349  -0.3410  -0.1725   0.00    0.0
2280 464556   31.025026127  121.439441418    37.9675   6   9   0.2329   0.4855   0.5389   0.1345  -0.3398  -0.1715   0.00    0.0
2280 464557   31.025026138  121.439441461    37.9640   6   9   0.2314   0.4835   0.5361   0.1341  -0.3386  -0.1705   0.00    0.0
2280 464558   31.025026162  121.439441492    37.9618   6   9   0.2299   0.4815   0.5332   0.1337  -0.3375  -0.1695   0.00    0.0
2280 464559   31.025026178  121.439441531    37.9598   6   9   0.2284   0.4795   0.5304   0.1334  -0.3363  -0.1685   0.00    0.0
2280 464560   31.025026191  121.439441565    37.9575   6   9   0.2270   0.4775   0.5276   0.1330  -0.3351  -0.1676   0.00    0.0
2280 464561   31.025026203  121.439441606    37.9524   6   9   0.2256   0.4756   0.5249   0.1326  -0.3339  -0.1666   0.00    0.0
2280 464562   31.025026211  121.439441650    37.9462   6   9   0.2242   0.4736   0.5221   0.1322  -0.3328  -0.1657   0.00    0.0
2280 464563   31.025026219  121.439441673    37.9394   6   9   0.2228   0.4717   0.5194   0.1319  -0.3316  -0.1647   0.00    0.0
2280 464564   31.025026234  121.439441683    37.9339   6   9   0.2214   0.4697   0.5167   0.1315  -0.3305  -0.1638   0.00    0.0
2280 464565   31.025026239  121.439441701    37.9308   6   9   0.2200   0.4678   0.5141   0.1311  -0.3293  -0.1629   0.00    0.0
2280 464566   31.025026255  121.439441721    37.9282   6   9   0.2186   0.4659   0.5114   0.1307  -0.3282  -0.1620   0.00    0.0
2280 464567   31.025026271  121.439441732    37.9264   6   9   0.2173   0.4640   0.5088   0.1303  -0.3270  -0.1611   0.00    0.0
2280 464568   31.025026303  121.439441760    37.9230   6   9   0.2160   0.4621   0.5061   0.1300  -0.3259  -0.1602   0.00    0.0
2280 464569   31.025026319  121.439441766    37.9213   6   9   0.2147   0.4603   0.5036   0.1296  -0.3247  -0.1593   0.00    0.0
2280 464570   31.025026348  121.439441773    37.9184   6   9   0.2134   0.4584   0.5010   0.1292  -0.3236  -0.1584   0.00    0.0
2280 464571   31.025026362  121.439441796    37.9132   6   9   0.2121   0.4566   0.4984   0.1288  -0.3225  -0.1576   0.00    0.0
2280 464572   31.025026377  121.439441823    37.9087   6   9   0.2108   0.4547   0.4959   0.1284  -0.3213  -0.1567   0.00    0.0
2280 464573   31.025026379  121.439441840    37.9040   6   9   0.2095   0.4529   0.4934   0.1281  -0.3202  -0.1559   0.00    0.0
2280 464574   31.025026376  121.439441866    37.8974   6   9   0.2083   0.4511   0.4909   0.1277  -0.3191  -0.1550   0.00    0.0
2280 464575   31.025026384  121.439441894    37.8921   6   9   0.2070   0.4493   0.4884   0.1273  -0.3180  -0.1542   0.00    0.0
2280 464576   31.025026391  121.439441926    37.8884   6   9   0.2058   0.4475   0.4860   0.1269  -0.3169  -0.1534   0.00    0.0
2280 464577   31.025026398  121.439441949    37.8855   6   9   0.2046   0.4457   0.4835   0.1265  -0.3157  -0.1526   0.00    0.0
2280 464578   31.025026415  121.439441994    37.8834   6   9   0.2034   0.4439   0.4811   0.1262  -0.3146  -0.1518   0.00    0.0
2280 464579   31.025026427  121.439442029    37.8838   6   9   0.2022   0.4422   0.4787   0.1258  -0.3135  -0.1510   0.00    0.0
2280 464580   31.025026439  121.439442058    37.8842   6   9   0.2010   0.4404   0.4763   0.1254  -0.3124  -0.1502   0.00    0.0
2280 464581   31.025026446  121.439442100    37.8816   6   9   0.1999   0.4387   0.4740   0.1250  -0.3114  -0.1494   0.00    0.0
2280 464582   31.025026459  121.439442131    37.8798   6   9   0.1987   0.4370   0.4716   0.1247  -0.3103  -0.1486   0.00    0.0
2280 464583   31.025026474  121.439442172    37.8794   6   9   0.1976   0.4352   0.4693   0.1243  -0.3092  -0.1478   0.00    0.0
2280 464584   31.025026495  121.439442207    37.8792   6   9   0.1964   0.4335   0.4670   0.1239  -0.3081  -0.1471   0.00    0.0
2280 464585   31.025026513  121.439442247    37.8789   6   9   0.1953   0.4318   0.4647   0.1235  -0.3070  -0.1463   0.00    0.0
2280 464586   31.025026524  121.439442283    37.8725   6   9   0.1942   0.4302   0.4624   0.1231  -0.3059  -0.1456   0.00    0.0
2280 464587   31.025026531  121.439442335    37.8680   6   9   0.1931   0.4285   0.4602   0.1228  -0.3049  -0.1448   0.00    0.0
2280 464588   31.025026537  121.439442388    37.8641   6   9   0.1920   0.4268   0.4579   0.1224  -0.3038  -0.1441   0.00    0.0
2280 464589   31.025026553  121.439442441    37.8602   6   9   0.1909   0.4252   0.4557   0.1220  -0.3027  -0.1433   0.00    0.0
2280 464590   31.025026563  121.439442506    37.8573   6   9   0.1899   0.4235   0.4535   0.1216  -0.3017  -0.1426   0.00    0.0
2280 464591   31.025026563  121.439442549    37.8522   6   9   0.1888   0.4219   0.4513   0.1213  -0.3006  -0.1419   0.00    0.0
2280 464592   31.025026561  121.439442593    37.8480   6   9   0.1878   0.4203   0.4491   0.1209  -0.2996  -0.1412   0.00    0.0
2280 464593   31.025026561  121.439442646    37.8418   6   9   0.1867   0.4186   0.4470   0.1205  -0.2985  -0.1405   0.00    0.0
2280 464594   31.025026552  121.439442694    37.8370   6   9   0.1857   0.4170   0.4448   0.1202  -0.2975  -0.1398   0.00    0.0
2280 464595   31.025026543  121.439442749    37.8313   6   9   0.1847   0.4154   0.4427   0.1198  -0.2965  -0.1391   0.00    0.0
2280 464596   31.025026539  121.439442814    37.8231   6   9   0.1837   0.4138   0.4406   0.1194  -0.2954  -0.1384   0.00    0.0
2280 464597   31.025026535  121.439442876    37.8155   6   9   0.1827   0.4123   0.4385   0.1190  -0.2944  -0.1377   0.00    0.0
2280 464598   31.025026524  121.439442936    37.8078   6   9   0.1817   0.4107   0.4364   0.1187  -0.2934  -0.1371   0.00    0.0
2280 464599   31.025026518  121.439442998    37.8003   6   9   0.1807   0.4091   0.4343   0.1183  -0.2923  -0.1364   0.00    0.0
2280 464600   31.025026502  121.439443056    37.7939   6   9   0.1797   0.4076   0.4323   0.1179  -0.2913  -0.1357   0.00    0.0
2280 464601   31.025026492  121.439443117    37.7893   6   9   0.1787   0.4060   0.4302   0.1176  -0.2903  -0.1351   0.00    0.0
2280 464602   31.025026477  121.439443180    37.7831   6   9   0.1778   0.4045   0.4282   0.1172  -0.2893  -0.1344   0.00    0.0
2280 464603   31.025026468  121.439443242    37.7750   6   9   0.1768   0.4030   0.4262   0.1168  -0.2883  -0.1338   0.00    0.0
2280 464604   31.025026450  121.439443281    37.7669   6   9   0.1759   0.4015   0.4242   0.1165  -0.2873  -0.1331   0.00    0.0
2280 464605   31.025026427  121.439443328    37.7583   6   9   0.1750   0.4000   0.4222   0.1161  -0.2863  -0.1325   0.00    0.0
2280 464606   31.025026403  121.439443370    37.7487   6   9   0.1740   0.3985   0.4203   0.1157  -0.2853  -0.1319   0.00    0.0
2280 464607   31.025026396  121.439443400    37.7421   6   9   0.1731   0.3970   0.4183   0.1154  -0.2843  -0.1312   0.00    0.0
2280 464608   31.025026386  121.439443449    37.7363   6   9   0.1722   0.3955   0.4164   0.1150  -0.2833  -0.1306   0.00    0.0
2280 464609   31.025026375  121.439443491    37.7294   6   9   0.1713   0.3940   0.4144   0.1147  -0.2823  -0.1300   0.00    0.0
2280 464610   31.025026376  121.439443531    37.7220   6   9   0.1704   0.3926   0.4125   0.1143  -0.2814  -0.1294   0.00    0.0
2280 464611   31.025026389  121.439443578    37.7157   6   9   0.1695   0.3911   0.4106   0.1139  -0.2804  -0.1288   0.00    0.0
2280 464612   31.025026395  121.439443629    37.7094   6   9   0.1687   0.3896   0.4087   0.1136  -0.2794  -0.1282   0.00    0.0
2280 464613   31.025026401  121.439443673    37.7038   6   9   0.1678   0.3882   0.4069   0.1132  -0.2784  -0.1276   0.00    0.0
2280 464614   31.025026412  121.439443721    37.6989   6   9   0.1669   0.3868   0.4050   0.1129  -0.2775  -0.1270   0.00    0.0
2280 464615   31.025026428  121.439443763    37.6949   6   9   0.1661   0.3854   0.4032   0.1125  -0.2765  -0.1264   0.00    0.0
2280 464616   31.025026442  121.439443795    37.6909   6   9   0.1652   0.3839   0.4013   0.1122  -0.2756  -0.1258   0.00    0.0
2280 464617   31.025026454  121.439443821    37.6884   6   9   0.1644   0.3825   0.3995   0.1118  -0.2746  -0.1252   0.00    0.0
2280 464618   31.025026472  121.439443857    37.6852   6   9   0.1636   0.3811   0.3977   0.1115  -0.2737  -0.1247   0.00    0.0
2280 464619   31.025026490  121.439443878    37.6814   6   9   0.1627   0.3797   0.3959   0.1111  -0.2727  -0.1241   0.00    0.0
2280 464620   31.025026508  121.439443902    37.6772   6   9   0.1619   0.3784   0.3941   0.1108  -0.2718  -0.1235   0.00    0.0
2280 464621   31.025026526  121.439443927    37.6731   6   9   0.1611   0.3770   0.3924   0.1104  -0.2708  -0.1230   0.00    0.0
2280 464622   31.025026543  121.439443957    37.6702   6   9   0.1603   0.3756   0.3906   0.1101  -0.2699  -0.1224   0.00    0.0
2280 464623   31.025026561  121.439443978    37.6662   6   9   0.1595   0.3742   0.3889   0.1097  -0.2690  -0.1219   0.00    0.0
2280 464624   31.025026574  121.439444003    37.6619   6   9   0.1587   0.3729   0.3871   0.1094  -0.2681  -0.1213   0.00    0.0
2280 464625   31.025026581  121.439444022    37.6585   6   9   0.1579   0.3715   0.3854   0.1090  -0.2671  -0.1208   0.00    0.0
2280 464626   31.025026593  121.439444039    37.6519   6   9   0.1572   0.3702   0.3837   0.1087  -0.2662  -0.1202   0.00    0.0
2280 464627   31.025026596  121.439444052    37.6454   6   9   0.1564   0.3689   0.3820   0.1083  -0.2653  -0.1197   0.00    0.0
2280 464628   31.025026599  121.439444080    37.6381   6   9   0.1556   0.3676   0.3803   0.1080  -0.2644  -0.1192   0.00    0.0
2280 464629   31.025026604  121.439444087    37.6300   6   9   0.1549   0.3662   0.3786   0.1077  -0.2635  -0.1186   0.00    0.0
2280 464630   31.025026610  121.439444094    37.6223   6   9   0.1541   0.3649   0.3770   0.1073  -0.2626  -0.1181   0.00    0.0
2280 464631   31.025026626  121.439444098    37.6145   6   9   0.1534   0.3636   0.3753   0.1070  -0.2617  -0.1176   0.00    0.0
2280 464632   31.025026639  121.439444112    37.6073   6   9   0.1526   0.3623   0.3737   0.1066  -0.2608  -0.1171   0.00    0.0
2280 464633   31.025026641  121.439444121    37.6011   6   9   0.1519   0.3610   0.3720   0.1063  -0.2599  -0.1166   0.00    0.0
2280 464634   31.025026650  121.439444128    37.5942   6   9   0.1512   0.3598   0.3704   0.1060  -0.2590  -0.1160   0.00    0.0
2280 464635   31.025026658  121.439444143    37.5882   6   9   0.1505   0.3585   0.3688   0.1056  -0.2581  -0.1155   0.00    0.0
2280 464636   31.025026661  121.439444152    37.5824   6   9   0.1497   0.3572   0.3672   0.1053  -0.2573  -0.1150   0.00    0.0
2280 464637   31.025026672  121.439444169    37.5760   6   9   0.1490   0.3560   0.3656   0.1050  -0.2564  -0.1145   0.00    0.0
2280 464638   31.025026684  121.439444180    37.5710   6   9   0.1483   0.3547   0.3641   0.1046  -0.2555  -0.1140   0.00    0.0
2280 464639   31.025026694  121.439444191    37.5670   6   9   0.1476   0.3535   0.3625   0.1043  -0.2546  -0.1136   0.00    0.0
2280 464640   31.025026709  121.439444201    37.5645   6   9   0.1469   0.3522   0.3609   0.1040  -0.2538  -0.1131   0.00    0.0
2280 464641   31.025026709  121.439444218    37.5609   6   9   0.1463   0.3510   0.3594   0.1037  -0.2529  -0.1126   0.00    0.0
2280 464642   31.025026712  121.439444252    37.5568   6   9   0.1456   0.3498   0.3578   0.1033  -0.2521  -0.1121   0.00    0.0
2280 464643   31.025026710  121.439444276    37.5529   6   9   0.1449   0.3485   0.3563   0.1030  -0.2512  -0.1116   0.00    0.0
2280 464644   31.025026710  121.439444304    37.5495   6   9   0.1442   0.3473   0.3548   0.1027  -0.2504  -0.1112   0.00    0.0
2280 464645   31.025026714  121.439444319    37.5465   6   9   0.1436   0.3461   0.3533   0.1024  -0.2495  -0.1107   0.00    0.0
2280 464646   31.025026726  121.439444352    37.5417   6   9   0.1429   0.3449   0.3518   0.1020  -0.2487  -0.1102   0.00    0.0
2280 464647   31.025026741  121.439444393    37.5361   6   9   0.1422   0.3437   0.3503   0.1017  -0.2478  -0.1097   0.00    0.0
2280 464648   31.025026759  121.439444435    37.5321   6   9   0.1416   0.3425   0.3488   0.1014  -0.2470  -0.1093   0.00    0.0
2280 464649   31.025026779  121.439444476    37.5284   6   9   0.1409   0.3414   0.3474   0.1011  -0.2462  -0.1088   0.00    0.0
2280 464650   31.025026802  121.439444518    37.5261   6   9   0.1403   0.3402   0.3459   0.1008  -0.2453  -0.1084   0.00    0.0
2280 464651   31.025026814  121.439444553    37.5221   6   9   0.1397   0.3390   0.3445   0.1005  -0.2445  -0.1079   0.00    0.0
2280 464652   31.025026823  121.439444585    37.5177   6   9   0.1390   0.3379   0.3430   0.1001  -0.2437  -0.1075   0.00    0.0
2280 464653   31.025026832  121.439444611    37.5133   6   9   0.1384   0.3367   0.3416   0.0998  -0.2429  -0.1070   0.00    0.0
2280 464654   31.025026836  121.439444637    37.5091   6   9   0.1378   0.3355   0.3402   0.0995  -0.2421  -0.1066   0.00    0.0
2280 464655   31.025026837  121.439444657    37.5043   6   9   0.1372   0.3344   0.3388   0.0992  -0.2413  -0.1061   0.00    0.0
2280 464656   31.025026832  121.439444678    37.4994   6   9   0.1366   0.3333   0.3374   0.0989  -0.2405  -0.1057   0.00    0.0
2280 464657   31.025026833  121.439444704    37.4951   6   9   0.1360   0.3321   0.3360   0.0986  -0.2397  -0.1053   0.00    0.0
2280 464658   31.025026838  121.439444728    37.4933   6   9   0.1354   0.3310   0.3346   0.0983  -0.2389  -0.1048   0.00    0.0
2280 464659   31.025026844  121.439444747    37.4930   6   9   0.1348   0.3299   0.3332   0.0980  -0.2381  -0.1044   0.00    0.0
2280 464660   31.025026856  121.439444778    37.4912   6   9   0.1342   0.3288   0.3318   0.0977  -0.2373  -0.1040   0.00    0.0
2280 464661   31.025026859  121.439444809    37.4877   6   9   0.1336   0.3277   0.3305   0.0974  -0.2365  -0.1036   0.00    0.0
2280 464662   31.025026863  121.439444845    37.4823   6   9   0.1330   0.3266   0.3291   0.0971  -0.2357  -0.1032   0.00    0.0
2280 464663   31.025026869  121.439444873    37.4775   6   9   0.1324   0.3255   0.3278   0.0968  -0.2349  -0.1027   0.00    0.0
2280 464664   31.025026874  121.439444905    37.4735   6   9   0.1318   0.3244   0.3265   0.0965  -0.2341  -0.1023   0.00    0.0
2280 464665   31.025026881  121.439444935    37.4691   6   9   0.1313   0.3233   0.3251   0.0962  -0.2334  -0.1019   0.00    0.0
2280 464666   31.025026888  121.439444960    37.4647   6   9   0.1307   0.3222   0.3238   0.0959  -0.2326  -0.1015   0.00    0.0
2280 464667   31.025026891  121.439444993    37.4601   6   9   0.1301   0.3211   0.3225   0.0956  -0.2318  -0.1011   0.00    0.0
2280 464668   31.025026895  121.439445025    37.4554   6   9   0.1296   0.3201   0.3212   0.0953  -0.2311  -0.1007   0.00    0.0
2280 464669   31.025026903  121.439445051    37.4519   6   9   0.1290   0.3190   0.3199   0.0950  -0.2303  -0.1003   0.00    0.0
2280 464670   31.025026906  121.439445073    37.4490   6   9   0.1285   0.3179   0.3186   0.0947  -0.2295  -0.0999   0.00    0.0
2280 464671   31.025026913  121.439445090    37.4477   6   9   0.1279   0.3169   0.3174   0.0944  -0.2288  -0.0995   0.00    0.0
2280 464672   31.025026908  121.439445104    37.4460   6   9   0.1274   0.3158   0.3161   0.0941  -0.2280  -0.0991   0.00    0.0
2280 464673   31.025026911  121.439445117    37.4447   6   9   0.1268   0.3148   0.3148   0.0938  -0.2273  -0.0987   0.00    0.0
2280 464674   31.025026910  121.439445117    37.4448   6   9   0.1263   0.3138   0.3136   0.0935  -0.2266  -0.0983   0.00    0.0
2280 464675   31.025026910  121.439445126    37.4438   6   9   0.1258   0.3127   0.3123   0.0932  -0.2258  -0.0979   0.00    0.0
2280 464676   31.025026917  121.439445119    37.4440   6   9   0.1252   0.3117   0.3111   0.0929  -0.2251  -0.0976   0.00    0.0
2280 464677   31.025026921  121.439445112    37.4435   6   9   0.1247   0.3107   0.3099   0.0926  -0.2243  -0.0972   0.00    0.0
2280 464678   31.025026923  121.439445103    37.4426   6   9   0.1242   0.3097   0.3087   0.0924  -0.2236  -0.0968   0.00    0.0
2280 464679   31.025026927  121.439445086    37.4412   6   9   0.1237   0.3087   0.3074   0.0921  -0.2229  -0.0964   0.00    0.0
2280 464680   31.025026927  121.439445071    37.4403   6   9   0.1232   0.3077   0.3062   0.0918  -0.2222  -0.0961   0.00    0.0
2280 464681   31.025026928  121.439445074    37.4374   6   9   0.1227   0.3067   0.3050   0.0915  -0.2214  -0.0957   0.00    0.0
2280 464682   31.025026932  121.439445071    37.4349   6   9   0.1222   0.3057   0.3038   0.0912  -0.2207  -0.0953   0.00    0.0
2280 464683   31.025026938  121.439445071    37.4342   6   9   0.1217   0.3047   0.3027   0.0909  -0.2200  -0.0950   0.00    0.0
2280 464684   31.025026949  121.439445063    37.4332   6   9   0.1212   0.3037   0.3015   0.0907  -0.2193  -0.0946   0.00    0.0
2280 464685   31.025026960  121.439445067    37.4327   6   9   0.1207   0.3027   0.3003   0.0904  -0.2186  -0.0942   0.00    0.0
2280 464686   31.025026976  121.439445072    37.4332   6   9   0.1202   0.3017   0.2992   0.0901  -0.2179  -0.0939   0.00    0.0
2280 464687   31.025026994  121.439445081    37.4329   6   9   0.1197   0.3008   0.2980   0.0898  -0.2172  -0.0935   0.00    0.0
2280 464688   31.025027016  121.439445095    37.4324   6   9   0.1192   0.2998   0.2969   0.0896  -0.2165  -0.0932   0.00    0.0
2280 464689   31.025027036  121.439445111    37.4324   6   9   0.1187   0.2989   0.2957   0.0893  -0.2158  -0.0928   0.00    0.0
2280 464690   31.025027056  121.439445128    37.4331   6   9   0.1182   0.2979   0.2946   0.0890  -0.2151  -0.0924   0.00    0.0
2280 464691   31.025027069  121.439445145    37.4300   6   9   0.1178   0.2969   0.2934   0.0887  -0.2144  -0.0921   0.00    0.0
2280 464692   31.025027082  121.439445159    37.4281   6   9   0.1173   0.2960   0.2923   0.0885  -0.2137  -0.0918   0.00    0.0
2280 464693   31.025027093  121.439445173    37.4264   6   9   0.1168   0.2951   0.2912   0.0882  -0.2130  -0.0914   0.00    0.0
2280 464694   31.025027105  121.439445187    37.4245   6   9   0.1164   0.2941   0.2901   0.0879  -0.2124  -0.0911   0.00    0.0
2280 464695   31.025027116  121.439445195    37.4232   6   9   0.1159   0.2932   0.2890   0.0877  -0.2117  -0.0907   0.00    0.0
2280 464696   31.025027126  121.439445202    37.4209   6   9   0.1155   0.2923   0.2879   0.0874  -0.2110  -0.0904   0.00    0.0
2280 464697   31.025027136  121.439445212    37.4189   6   9   0.1150   0.2913   0.2868   0.0871  -0.2103  -0.0901   0.00    0.0
2280 464698   31.025027142  121.439445217    37.4155   6   9   0.1145   0.2904   0.2857   0.0869  -0.2097  -0.0897   0.00    0.0
2280 464699   31.025027150  121.439445226    37.4125   6   9   0.1141   0.2895   0.2847   0.0866  -0.2090  -0.0894   0.00    0.0
2280 464700   31.025027164  121.439445242    37.4089   6   9   0.1136   0.2886   0.2836   0.0864  -0.2083  -0.0891   0.00    0.0
2280 464701   31.025027170  121.439445253    37.4054   6   9   0.1132   0.2877   0.2825   0.0861  -0.2077  -0.0887   0.00    0.0
2280 464702   31.025027179  121.439445275    37.4020   6   9   0.1128   0.2868   0.2815   0.0858  -0.2070  -0.0884   0.00    0.0
2280 464703   31.025027184  121.439445291    37.3996   6   9   0.1123   0.2859   0.2804   0.0856  -0.2064  -0.0881   0.00    0.0
2280 464704   31.025027196  121.439445307    37.3966   6   9   0.1119   0.2850   0.2794   0.0853  -0.2057  -0.0878   0.00    0.0
2280 464705   31.025027206  121.439445325    37.3949   6   9   0.1115   0.2841   0.2783   0.0851  -0.2051  -0.0874   0.00    0.0
2280 464706   31.025027215  121.439445338    37.3921   6   9   0.1110   0.2833   0.2773   0.0848  -0.2044  -0.0871   0.00    0.0
2280 464707   31.025027226  121.439445357    37.3897   6   9   0.1106   0.2824   0.2763   0.0845  -0.2038  -0.0868   0.00    0.0
2280 464708   31.025027238  121.439445362    37.3885   6   9   0.1102   0.2815   0.2753   0.0843  -0.2032  -0.0865   0.00    0.0
2280 464709   31.025027248  121.439445372    37.3873   6   9   0.1098   0.2806   0.2743   0.0840  -0.2025  -0.0862   0.00    0.0
2280 464710   31.025027260  121.439445379    37.3865   6   9   0.1093   0.2798   0.2733   0.0838  -0.2019  -0.0859   0.00    0.0
2280 464711   31.025027261  121.439445392    37.3835   6   9   0.1089   0.2789   0.2722   0.0835  -0.2013  -0.0855   0.00    0.0
2280 464712   31.025027263  121.439445397    37.3816   6   9   0.1085   0.2781   0.2713   0.0833  -0.2006  -0.0852   0.00    0.0
2280 464713   31.025027264  121.439445396    37.3801   6   9   0.1081   0.2772   0.2703   0.0830  -0.2000  -0.0849   0.00    0.0
2280 464714   31.025027264  121.439445400    37.3790   6   9   0.1077   0.2764   0.2693   0.0828  -0.1994  -0.0846   0.00    0.0
2280 464715   31.025027268  121.439445410    37.3764   6   9   0.1073   0.2755   0.2683   0.0825  -0.1988  -0.0843   0.00    0.0
2280 464716   31.025027274  121.439445430    37.3725   6   9   0.1069   0.2747   0.2673   0.0823  -0.1981  -0.0840   0.00    0.0
2280 464717   31.025027277  121.439445449    37.3685   6   9   0.1065   0.2738   0.2664   0.0821  -0.1975  -0.0837   0.00    0.0
2280 464718   31.025027281  121.439445468    37.3637   6   9   0.1061   0.2730   0.2654   0.0818  -0.1969  -0.0834   0.00    0.0
2280 464719   31.025027285  121.439445486    37.3595   6   9   0.1057   0.2722   0.2644   0.0816  -0.1963  -0.0831   0.00    0.0
2280 464720   31.025027292  121.439445492    37.3551   6   9   0.1053   0.2714   0.2635   0.0813  -0.1957  -0.0828   0.00    0.0
2280 464721   31.025027283  121.439445499    37.3511   6   9   0.1049   0.2705   0.2625   0.0811  -0.1951  -0.0825   0.00    0.0
2280 464722   31.025027275  121.439445501    37.3452   6   9   0.1045   0.2697   0.2616   0.0809  -0.1945  -0.0823   0.00    0.0
2280 464723   31.025027265  121.439445497    37.3393   6   9   0.1042   0.2689   0.2607   0.0806  -0.1939  -0.0820   0.00    0.0
2280 464724   31.025027255  121.439445497    37.3332   6   9   0.1038   0.2681   0.2597   0.0804  -0.1933  -0.0817   0.00    0.0
2280 464725   31.025027242  121.439445489    37.3274   6   9   0.1034   0.2673   0.2588   0.0801  -0.1927  -0.0814   0.00    0.0
2280 464726   31.025027237  121.439445481    37.3252   6   9   0.1030   0.2665   0.2579   0.0799  -0.1921  -0.0811   0.00    0.0
2280 464727   31.025027231  121.439445482    37.3233   6   9   0.1027   0.2657   0.2570   0.0797  -0.1915  -0.0808   0.00    0.0
2280 464728   31.025027228  121.439445485    37.3213   6   9   0.1023   0.2649   0.2561   0.0794  -0.1910  -0.0805   0.00    0.0
2280 464729   31.025027227  121.439445494    37.3202   6   9   0.1019   0.2641   0.2552   0.0792  -0.1904  -0.0803   0.00    0.0
2280 464730   31.025027227  121.439445504    37.3182   6   9   0.1015   0.2633   0.2543   0.0790  -0.1898  -0.0800   0.00    0.0
2280 464731   31.025027219  121.439445516    37.3155   6   9   0.1012   0.2626   0.2534   0.0787  -0.1892  -0.0797   0.00    0.0
2280 464732   31.025027211  121.439445523    37.3137   6   9   0.1008   0.2618   0.2525   0.0785  -0.1887  -0.0794   0.00    0.0
2280 464733   31.025027201  121.439445538    37.3117   6   9   0.1005   0.2610   0.2516   0.0783  -0.1881  -0.0792   0.00    0.0
2280 464734   31.025027193  121.439445552    37.3098   6   9   0.1001   0.2602   0.2507   0.0781  -0.1875  -0.0789   0.00    0.0
2280 464735   31.025027185  121.439445571    37.3082   6   9   0.0997   0.2595   0.2498   0.0778  -0.1869  -0.0786   0.00    0.0
2280 464736   31.025027182  121.439445598    37.3051   6   9   0.0994   0.2587   0.2490   0.0776  -0.1864  -0.0783   0.00    0.0
2280 464737   31.025027179  121.439445621    37.3027   6   9   0.0990   0.2580   0.2481   0.0774  -0.1858  -0.0781   0.00    0.0
2280 464738   31.025027178  121.439445645    37.3006   6   9   0.0987   0.2572   0.2473   0.0772  -0.1853  -0.0778   0.00    0.0
2280 464739   31.025027177  121.439445665    37.2985   6   9   0.0983   0.2565   0.2464   0.0769  -0.1847  -0.0776   0.00    0.0
2280 464740   31.025027175  121.439445686    37.2970   6   9   0.0980   0.2557   0.2456   0.0767  -0.1842  -0.0773   0.00    0.0
2280 464741   31.025027169  121.439445717    37.2944   6   9   0.0977   0.2550   0.2447   0.0765  -0.1836  -0.0770   0.00    0.0
2280 464742   31.025027165  121.439445749    37.2928   6   9   0.0973   0.2542   0.2439   0.0763  -0.1831  -0.0768   0.00    0.0
2280 464743   31.025027160  121.439445784    37.2911   6   9   0.0970   0.2535   0.2430   0.0760  -0.1825  -0.0765   0.00    0.0
2280 464744   31.025027155  121.439445816    37.2896   6   9   0.0966   0.2528   0.2422   0.0758  -0.1820  -0.0762   0.00    0.0
2280 464745   31.025027155  121.439445854    37.2876   6   9   0.0963   0.2520   0.2414   0.0756  -0.1814  -0.0760   0.00    0.0
2280 464746   31.025027148  121.439445876    37.2842   6   9   0.0960   0.2513   0.2405   0.0754  -0.1809  -0.0757   0.00    0.0
2280 464747   31.025027139  121.439445904    37.2809   6   9   0.0956   0.2506   0.2397   0.0752  -0.1804  -0.0755   0.00    0.0
2280 464748   31.025027138  121.439445936    37.2770   6   9   0.0953   0.2498   0.2389   0.0750  -0.1798  -0.0752   0.00    0.0
2280 464749   31.025027135  121.439445969    37.2729   6   9   0.0950   0.2491   0.2381   0.0747  -0.1793  -0.0750   0.00    0.0
2280 464750   31.025027133  121.439445999    37.2683   6   9   0.0947   0.2484   0.2373   0.0745  -0.1788  -0.0747   0.00    0.0
2280 464751   31.025027125  121.439446028    37.2638   6   9   0.0943   0.2477   0.2365   0.0743  -0.1782  -0.0745   0.00    0.0
2280 464752   31.025027114  121.439446052    37.2589   6   9   0.0940   0.2470   0.2357   0.0741  -0.1777  -0.0742   0.00    0.0
2280 464753   31.025027104  121.439446079    37.2541   6   9   0.0937   0.2463   0.2349   0.0739  -0.1772  -0.0740   0.00    0.0
2280 464754   31.025027096  121.439446104    37.2487   6   9   0.0934   0.2456   0.2341   0.0737  -0.1767  -0.0737   0.00    0.0
2280 464755   31.025027087  121.439446124    37.2442   6   9   0.0931   0.2449   0.2333   0.0735  -0.1761  -0.0735   0.00    0.0
2280 464756   31.025027076  121.439446144    37.2413   6   9   0.0928   0.2442   0.2326   0.0733  -0.1756  -0.0733   0.00    0.0
2280 464757   31.025027065  121.439446168    37.2386   6   9   0.0924   0.2435   0.2318   0.0731  -0.1751  -0.0730   0.00    0.0
2280 464758   31.025027059  121.439446199    37.2351   6   9   0.0921   0.2428   0.2310   0.0728  -0.1746  -0.0728   0.00    0.0
2280 464759   31.025027053  121.439446225    37.2319   6   9   0.0918   0.2421   0.2303   0.0726  -0.1741  -0.0725   0.00    0.0
2280 464760   31.025027048  121.439446240    37.2298   6   9   0.0915   0.2415   0.2295   0.0724  -0.1736  -0.0723   0.00    0.0
2280 464761   31.025027042  121.439446252    37.2276   6   9   0.0912   0.2408   0.2287   0.0722  -0.1731  -0.0721   0.00    0.0
2280 464762   31.025027036  121.439446270    37.2265   6   9   0.0909   0.2401   0.2280   0.0720  -0.1726  -0.0718   0.00    0.0
2280 464763   31.025027031  121.439446282    37.2249   6   9   0.0906   0.2394   0.2272   0.0718  -0.1721  -0.0716   0.00    0.0
2280 464764   31.025027028  121.439446306    37.2235   6   9   0.0903   0.2388   0.2265   0.0716  -0.1716  -0.0714   0.00    0.0
2280 464765   31.025027027  121.439446323    37.2220   6   9   0.0900   0.2381   0.2257   0.0714  -0.1711  -0.0711   0.00    0.0
2280 464766   31.025027027  121.439446355    37.2194   6   9   0.0897   0.2374   0.2250   0.0712  -0.1706  -0.0709   0.00    0.0
2280 464767   31.025027026  121.439446381    37.2167   6   9   0.0894   0.2368   0.2243   0.0710  -0.1701  -0.0707   0.00    0.0
2280 464768   31.025027022  121.439446408    37.2133   6   9   0.0891   0.2361   0.2235   0.0708  -0.1696  -0.0705   0.00    0.0
2280 464769   31.025027016  121.439446429    37.2102   6   9   0.0888   0.2355   0.2228   0.0706  -0.1691  -0.0702   0.00    0.0
2280 464770   31.025027012  121.439446454    37.2069   6   9   0.0885   0.2348   0.2221   0.0704  -0.1686  -0.0700   0.00    0.0
2280 464771   31.025027005  121.439446477    37.2039   6   9   0.0883   0.2342   0.2214   0.0702  -0.1682  -0.0698   0.00    0.0
2280 464772   31.025026997  121.439446500    37.2005   6   9   0.0880   0.2335   0.2206   0.0700  -0.1677  -0.0696   0.00    0.0
2280 464773   31.025026988  121.439446513    37.1973   6   9   0.0877   0.2329   0.2199   0.0698  -0.1672  -0.0693   0.00    0.0
2280 464774   31.025026980  121.439446532    37.1939   6   9   0.0874   0.2322   0.2192   0.0697  -0.1667  -0.0691   0.00    0.0
2280 464775   31.025026974  121.439446551    37.1908   6   9   0.0871   0.2316   0.2185   0.0695  -0.1662  -0.0689   0.00    0.0
2280 464776   31.025026968  121.439446578    37.1871   6   9   0.0869   0.2310   0.2178   0.0693  -0.1658  -0.0687   0.00    0.0
2280 464777   31.025026964  121.439446592    37.1862   6   9   0.0866   0.2303   0.2171   0.0691  -0.1653  -0.0685   0.00    0.0
2280 464778   31.025026961  121.439446606    37.1852   6   9   0.0863   0.2297   0.2164   0.0689  -0.1648  -0.0683   0.00    0.0
2280 464779   31.025026958  121.439446623    37.1844   6   9   0.0860   0.2291   0.2157   0.0687  -0.1644  -0.0680   0.00    0.0
2280 464780   31.025026956  121.439446633    37.1837   6   9   0.0857   0.2285   0.2151   0.0685  -0.1639  -0.0678   0.00    0.0
2280 464781   31.025026948  121.439446643    37.1827   6   9   0.0855   0.2279   0.2144   0.0683  -0.1634  -0.0676   0.00    0.0
2280 464782   31.025026940  121.439446654    37.1823   6   9   0.0852   0.2272   0.2137   0.0681  -0.1630  -0.0674   0.00    0.0
2280 464783   31.025026937  121.439446661    37.1818   6   9   0.0849   0.2266   0.2130   0.0679  -0.1625  -0.0672   0.00    0.0
2280 464784   31.025026935  121.439446672    37.1821   6   9   0.0847   0.2260   0.2123   0.0678  -0.1621  -0.0670   0.00    0.0
2280 464785   31.025026934  121.439446688    37.1828   6   9   0.0844   0.2254   0.2117   0.0676  -0.1616  -0.0668   0.00    0.0
2280 464786   31.025026930  121.439446698    37.1825   6   9   0.0841   0.2248   0.2110   0.0674  -0.1612  -0.0666   0.00    0.0
2280 464787   31.025026925  121.439446707    37.1818   6   9   0.0839   0.2242   0.2103   0.0672  -0.1607  -0.0664   0.00    0.0
2280 464788   31.025026920  121.439446712    37.1812   6   9   0.0836   0.2236   0.2097   0.0670  -0.1603  -0.0662   0.00    0.0
2280 464789   31.025026915  121.439446710    37.1807   6   9   0.0834   0.2230   0.2090   0.0668  -0.1598  -0.0660   0.00    0.0
2280 464790   31.025026909  121.439446721    37.1804   6   9   0.0831   0.2224   0.2084   0.0667  -0.1594  -0.0658   0.00    0.0
2280 464791   31.025026905  121.439446725    37.1799   6   9   0.0828   0.2218   0.2077   0.0665  -0.1589  -0.0655   0.00    0.0
2280 464792   31.025026893  121.439446725    37.1792   6   9   0.0826   0.2212   0.2071   0.0663  -0.1585  -0.0653   0.00    0.0
2280 464793   31.025026883  121.439446735    37.1775   6   9   0.0823   0.2206   0.2064   0.0661  -0.1580  -0.0651   0.00    0.0
2280 464794   31.025026870  121.439446742    37.1757   6   9   0.0821   0.2201   0.2058   0.0659  -0.1576  -0.0649   0.00    0.0
2280 464795   31.025026859  121.439446749    37.1738   6   9   0.0818   0.2195   0.2052   0.0658  -0.1572  -0.0648   0.00    0.0
2280 464796   31.025026847  121.439446757    37.1712   6   9   0.0816   0.2189   0.2045   0.0656  -0.1567  -0.0646   0.00    0.0
2280 464797   31.025026839  121.439446774    37.1687   6   9   0.0813   0.2183   0.2039   0.0654  -0.1563  -0.0644   0.00    0.0
2280 464798   31.025026833  121.439446791    37.1661   6   9   0.0811   0.2177   0.2033   0.0652  -0.1559  -0.0642   0.00    0.0
2280 464799   31.025026829  121.439446809    37.1641   6   9   0.0808   0.2172   0.2027   0.0650  -0.1554  -0.0640   0.00    0.0
2280 464800   31.025026827  121.439446833    37.1612   6   9   0.0806   0.2166   0.2020   0.0649  -0.1550  -0.0638   0.00    0.0
2280 464801   31.025026827  121.439446854    37.1583   6   9   0.0803   0.2160   0.2014   0.0647  -0.1546  -0.0636   0.00    0.0
2280 464802   31.025026825  121.439446872    37.1553   6   9   0.0801   0.2155   0.2008   0.0645  -0.1542  -0.0634   0.00    0.0
2280 464803   31.025026823  121.439446890    37.1523   6   9   0.0799   0.2149   0.2002   0.0644  -0.1538  -0.0632   0.00    0.0
2280 464804   31.025026818  121.439446912    37.1488   6   9   0.0796   0.2143   0.1996   0.0642  -0.1533  -0.0630   0.00    0.0
2280 464805   31.025026812  121.439446938    37.1445   6   9   0.0794   0.2138   0.1990   0.0640  -0.1529  -0.0628   0.00    0.0
2280 464806   31.025026805  121.439446954    37.1410   6   9   0.0792   0.2132   0.1984   0.0638  -0.1525  -0.0626   0.00    0.0
2280 464807   31.025026796  121.439446966    37.1370   6   9   0.0789   0.2127   0.1978   0.0637  -0.1521  -0.0624   0.00    0.0
2280 464808   31.025026789  121.439446984    37.1326   6   9   0.0787   0.2121   0.1972   0.0635  -0.1517  -0.0623   0.00    0.0
2280 464809   31.025026780  121.439446992    37.1281   6   9   0.0784   0.2116   0.1966   0.0633  -0.1513  -0.0621   0.00    0.0
2280 464810   31.025026769  121.439447003    37.1234   6   9   0.0782   0.2110   0.1960   0.0632  -0.1509  -0.0619   0.00    0.0
2280 464811   31.025026760  121.439447017    37.1183   6   9   0.0780   0.2105   0.1954   0.0630  -0.1504  -0.0617   0.00    0.0
2280 464812   31.025026756  121.439447032    37.1158   6   9   0.0778   0.2100   0.1948   0.0628  -0.1500  -0.0615   0.00    0.0
2280 464813   31.025026754  121.439447043    37.1136   6   9   0.0775   0.2094   0.1942   0.0627  -0.1496  -0.0613   0.00    0.0
2280 464814   31.025026751  121.439447056    37.1114   6   9   0.0773   0.2089   0.1937   0.0625  -0.1492  -0.0612   0.00    0.0
