%  GPST Time  latitude(deg) longitude(deg)  height(m)   Q  ns   sdn(m)   sde(m)   sdu(m)  sdne(m)  sdeu(m)  sdun(m) age(s)  ratio
2281 489444   16.262414707  -61.527707876    -9.4579   6   6  22.5334  27.5669  33.0156 -12.7995   8.0463  10.2202   0.00    0.0
2281 489445   16.262420022  -61.527714177    -9.0927   6   6  16.7697  21.1122  25.5552  -9.9781   6.8936   7.9223   0.00    0.0
2281 489446   16.262420573  -61.527715854    -9.0244   6   6  13.9441  17.7563  21.5901  -8.4466   6.0467   6.6940   0.00    0.0
2281 489447   16.262421034  -61.527716870    -9.2571   6   6  12.1856  15.6142  19.0339  -7.4543   5.4412   5.9040   0.00    0.0
2281 489448   16.262420694  -61.527716692    -9.2000   6   6  10.9549  14.0939  17.2098  -6.7453   4.9877   5.3424   0.00    0.0
2281 489449   16.262420437  -61.527717200    -9.1239   6   6  10.0304  12.9422  15.8233  -6.2063   4.6339   4.9175   0.00    0.0
2281 489450   16.262420021  -61.527718371    -9.1806   6   6   9.3021  12.0300  14.7228  -5.7789   4.3492   4.5820   0.00    0.0
2281 489451   16.262419889  -61.527719477    -9.2073   6   6   8.7083  11.2837  13.8212  -5.4291   4.1146   4.3086   0.00    0.0
2281 489452   16.262419864  -61.527719557    -9.2198   6   6   8.2115  10.6579  13.0646  -5.1361   3.9175   4.0805   0.00    0.0
2281 489453   16.262419780  -61.527719195    -9.3062   6   6   7.7872  10.1229  12.4176  -4.8859   3.7493   3.8867   0.00    0.0
2281 489454   16.262383534  -61.527662915    -6.6961   6   8   6.5107   7.6056  10.6975  -1.9473  -3.4457   4.5779   0.00    0.0
2281 489455   16.262372050  -61.527649332    -6.6620   6   8   5.9112   6.7448   9.8417   0.5440  -3.9928   4.3635   0.00    0.0
2281 489456   16.262358907  -61.527628288    -8.9804   6   9   5.4066   5.9167   8.8366   1.9271  -3.4015   3.7893   0.00    0.0
2281 489457   16.262352657  -61.527618895   -10.1327   6   9   5.0619   5.4261   8.1526   2.1843  -3.1027   3.4477   0.00    0.0
2281 489458   16.262348537  -61.527612842   -10.9374   6   9   4.7877   5.0606   7.6124   2.2705  -2.8659   3.1902   0.00    0.0
2281 489459   16.262345659  -61.527609182   -11.4763   6   9   4.5581   4.7698   7.1704   2.2872  -2.6709   2.9874   0.00    0.0
2281 489460   16.262343479  -61.527606742   -11.8713   6   9   4.3592   4.5284   6.7991   2.2704  -2.5060   2.8226   0.00    0.0
2281 489461   16.262341459  -61.527604569   -12.2099   6   9   4.1831   4.3222   6.4810   2.2359  -2.3639   2.6851   0.00    0.0
2281 489462   16.262339826  -61.527602752   -12.4928   6   9   4.0245   4.1423   6.2041   2.1916  -2.2396   2.5684   0.00    0.0
2281 489463   16.262338637  -61.527601133   -12.7716   6   9   3.8800   3.9829   5.9599   2.1420  -2.1295   2.4675   0.00    0.0
2281 489464   16.262337824  -61.527599378   -13.0486   6   9   3.7469   3.8398   5.7421   2.0895  -2.0309   2.3793   0.00    0.0
2281 489465   16.262336829  -61.527598102   -13.3071   6   9   3.6233   3.7102   5.5462   2.0356  -1.9421   2.3011   0.00    0.0
2281 489466   16.262336189  -61.527596833   -13.5351   6   9   3.5079   3.5917   5.3687   1.9813  -1.8613   2.2313   0.00    0.0
2281 489467   16.262335666  -61.527595726   -13.7409   6   9   3.3996   3.4826   5.2066   1.9271  -1.7874   2.1683   0.00    0.0
2281 489468   16.262335160  -61.527594781   -13.9013   6   9   3.2974   3.3817   5.0578   1.8735  -1.7194   2.1111   0.00    0.0
2281 489469   16.262334909  -61.527593793   -14.0479   6   9   3.2007   3.2879   4.9204   1.8206  -1.6566   2.0588   0.00    0.0
2281 489470   16.262334801  -61.527592728   -14.1801   6   9   3.1089   3.2002   4.7931   1.7688  -1.5984   2.0106   0.00    0.0
2281 489471   16.262334572  -61.527591773   -14.3076   6   9   3.0215   3.1181   4.6745   1.7180  -1.5441   1.9660   0.00    0.0
2281 489472   16.262334341  -61.527590963   -14.4261   6   9   2.9381   3.0408   4.5637   1.6683  -1.4933   1.9246   0.00    0.0
2281 489473   16.262334033  -61.527590355   -14.5389   6   9   2.8584   2.9679   4.4599   1.6198  -1.4457   1.8859   0.00    0.0
2281 489474   16.262333621  -61.527589592   -14.6599   6  11   2.6872   2.8470   4.3134   1.4528  -1.5079   1.7190   0.00    0.0
2281 489475   16.262333575  -61.527588725   -14.7798   6  11   2.5495   2.7454   4.1868   1.3201  -1.5349   1.5913   0.00    0.0
2281 489476   16.262333328  -61.527587931   -14.9067   6  11   2.4318   2.6563   4.0726   1.2078  -1.5446   1.4863   0.00    0.0
2281 489477   16.262333229  -61.527587107   -15.0470   6  11   2.3292   2.5768   3.9682   1.1107  -1.5434   1.3988   0.00    0.0
2281 489478   16.262333069  -61.527586322   -15.1900   6  11   2.2383   2.5050   3.8718   1.0254  -1.5349   1.3248   0.00    0.0
2281 489479   16.262332913  -61.527585532   -15.3454   6  11   2.1568   2.4395   3.7818   0.9494  -1.5216   1.2618   0.00    0.0
2281 489480   16.262332619  -61.527584865   -15.4829   6  11   2.0829   2.3791   3.6975   0.8809  -1.5048   1.2076   0.00    0.0
2281 489481   16.262332478  -61.527584258   -15.6045   6  11   2.0153   2.3232   3.6179   0.8186  -1.4857   1.1607   0.00    0.0
2281 489482   16.262332308  -61.527583849   -15.7088   6  11   1.9531   2.2710   3.5425   0.7613  -1.4650   1.1198   0.00    0.0
2281 489483   16.262332152  -61.527583469   -15.8038   6  11   1.8954   2.2220   3.4707   0.7081  -1.4430   1.0841   0.00    0.0
2281 489484   16.262331840  -61.527583268   -15.8592   6  11   1.8416   2.1760   3.4023   0.6586  -1.4203   1.0525   0.00    0.0
2281 489485   16.262331455  -61.527582956   -15.9376   6  11   1.7913   2.1325   3.3367   0.6120  -1.3971   1.0246   0.00    0.0
2281 489486   16.262330875  -61.527582849   -16.0014   6  11   1.7440   2.0913   3.2739   0.5678  -1.3736   0.9998   0.00    0.0
2281 489487   16.262330023  -61.527581065   -16.1419   6  12   1.6982   2.0431   3.2130   0.5375  -1.3459   0.9758   0.00    0.0
2281 489488   16.262329472  -61.527579425   -16.2913   6  12   1.6551   1.9988   3.1544   0.5073  -1.3190   0.9544   0.00    0.0
2281 489489   16.262329401  -61.527579032   -16.3990   6  11   1.6151   1.9638   3.0984   0.4689  -1.2956   0.9366   0.00    0.0
2281 489490   16.262329293  -61.527578708   -16.4675   6  11   1.5771   1.9304   3.0442   0.4317  -1.2722   0.9203   0.00    0.0
2281 489491   16.262329046  -61.527578440   -16.5214   6  11   1.5409   1.8983   2.9918   0.3954  -1.2490   0.9055   0.00    0.0
2281 489492   16.262328898  -61.527578141   -16.5863   6  11   1.5063   1.8675   2.9410   0.3598  -1.2259   0.8919   0.00    0.0
2281 489493   16.262326559  -61.527574004   -17.0951   6  15   1.4552   1.7875   2.8559   0.4145  -1.1213   0.8371   0.00    0.0
2281 489494   16.262324938  -61.527570660   -17.4984   6  15   1.4105   1.7214   2.7824   0.4412  -1.0357   0.7952   0.00    0.0
2281 489495   16.262323544  -61.527567845   -17.8372   6  15   1.3692   1.6630   2.7155   0.4573  -0.9594   0.7597   0.00    0.0
2281 489496   16.262322172  -61.527564642   -18.1486   6  16   1.3306   1.6067   2.6539   0.4703  -0.8901   0.7292   0.00    0.0
2281 489497   16.262321134  -61.527562552   -18.4123   6  15   1.2950   1.5598   2.5968   0.4743  -0.8279   0.7032   0.00    0.0
2281 489498   16.262320272  -61.527560740   -18.6470   6  15   1.2616   1.5172   2.5433   0.4752  -0.7707   0.6806   0.00    0.0
2281 489499   16.262319473  -61.527559252   -18.8437   6  15   1.2302   1.4780   2.4931   0.4740  -0.7177   0.6609   0.00    0.0
2281 489500   16.262318745  -61.527558034   -19.0017   6  15   1.2005   1.4420   2.4456   0.4711  -0.6683   0.6435   0.00    0.0
2281 489501   16.262318101  -61.527556949   -19.1540   6  15   1.1724   1.4085   2.4006   0.4670  -0.6219   0.6281   0.00    0.0
2281 489502   16.262317601  -61.527555922   -19.2996   6  15   1.1457   1.3774   2.3577   0.4621  -0.5780   0.6143   0.00    0.0
2281 489503   16.262316976  -61.527555007   -19.4418   6  16   1.1178   1.3484   2.3166   0.4561  -0.5363   0.5999   0.00    0.0
2281 489504   16.262316384  -61.527554174   -19.5694   6  16   1.0919   1.3211   2.2772   0.4497  -0.4963   0.5873   0.00    0.0
2281 489505   16.262315798  -61.527553403   -19.6893   6  16   1.0673   1.2954   2.2394   0.4430  -0.4577   0.5760   0.00    0.0
2281 489506   16.262315193  -61.527552717   -19.7995   6  16   1.0439   1.2712   2.2031   0.4360  -0.4203   0.5657   0.00    0.0
2281 489507   16.262314659  -61.527552069   -19.8988   6  16   1.0217   1.2483   2.1681   0.4289  -0.3835   0.5564   0.00    0.0
2281 489508   16.262314185  -61.527551389   -20.0130   6  16   1.0004   1.2266   2.1343   0.4218  -0.3471   0.5478   0.00    0.0
2281 489509   16.262313822  -61.527550718   -20.1169   6  16   0.9801   1.2059   2.1017   0.4146  -0.3106   0.5399   0.00    0.0
2281 489510   16.262313474  -61.527550115   -20.2096   6  16   0.9606   1.1863   2.0701   0.4074  -0.2734   0.5325   0.00    0.0
2281 489511   16.262313228  -61.527549431   -20.3369   6  16   0.9419   1.1675   2.0395   0.4002  -0.2347   0.5257   0.00    0.0
2281 489512   16.262312921  -61.527548829   -20.4544   6  16   0.9240   1.1496   2.0098   0.3931  -0.1930   0.5192   0.00    0.0
2281 489513   16.262312684  -61.527548215   -20.5810   6  16   0.9067   1.1324   1.9809   0.3861  -0.1450   0.5132   0.00    0.0
2281 489514   16.262312215  -61.527547963   -20.6202   6  18   0.8888   1.1147   1.9474   0.3780   0.0355   0.5083   0.00    0.0
2281 489515   16.262311769  -61.527547745   -20.6619   6  18   0.8718   1.0980   1.9159   0.3702   0.1428   0.5036   0.00    0.0
2281 489516   16.262311395  -61.527547574   -20.7025   6  18   0.8556   1.0820   1.8856   0.3627   0.1933   0.4989   0.00    0.0
2281 489517   16.262311076  -61.527547408   -20.7541   6  18   0.8399   1.0667   1.8565   0.3555   0.2290   0.4942   0.00    0.0
2281 489518   16.262310749  -61.527547318   -20.7897   6  18   0.8249   1.0520   1.8284   0.3485   0.2566   0.4894   0.00    0.0
2281 489519   16.262310479  -61.527547155   -20.8355   6  18   0.8104   1.0379   1.8014   0.3418   0.2788   0.4847   0.00    0.0
2281 489520   16.262310218  -61.527546980   -20.8748   6  18   0.7964   1.0244   1.7753   0.3352   0.2972   0.4800   0.00    0.0
2281 489521   16.262309994  -61.527546754   -20.9328   6  18   0.7829   1.0113   1.7500   0.3288   0.3127   0.4754   0.00    0.0
2281 489522   16.262309787  -61.527546440   -21.0012   6  18   0.7698   0.9988   1.7256   0.3226   0.3259   0.4708   0.00    0.0
2281 489523   16.262309593  -61.527546126   -21.0704   6  18   0.7572   0.9867   1.7019   0.3166   0.3373   0.4662   0.00    0.0
2281 489524   16.262309437  -61.527545764   -21.1369   6  18   0.7449   0.9749   1.6789   0.3107   0.3470   0.4617   0.00    0.0
2281 489525   16.262309288  -61.527545432   -21.2060   6  18   0.7330   0.9636   1.6566   0.3049   0.3555   0.4573   0.00    0.0
2281 489526   16.262309074  -61.527545152   -21.2673   6  18   0.7215   0.9526   1.6349   0.2992   0.3628   0.4529   0.00    0.0
2281 489527   16.262308965  -61.527544884   -21.3275   6  17   0.7106   0.9420   1.6139   0.2938   0.3692   0.4490   0.00    0.0
2281 489528   16.262308842  -61.527544596   -21.3644   6  18   0.7000   0.9308   1.5934   0.2882   0.3743   0.4451   0.00    0.0
2281 489529   16.262308691  -61.527544491   -21.4047   6  18   0.6894   0.9208   1.5734   0.2829   0.3791   0.4409   0.00    0.0
2281 489530   16.262308557  -61.527544408   -21.4346   6  18   0.6791   0.9111   1.5539   0.2777   0.3833   0.4367   0.00    0.0
2281 489531   16.262308421  -61.527544306   -21.4704   6  18   0.6690   0.9016   1.5349   0.2726   0.3869   0.4325   0.00    0.0
2281 489532   16.262308303  -61.527544199   -21.5047   6  18   0.6592   0.8924   1.5163   0.2676   0.3900   0.4285   0.00    0.0
2281 489533   16.262308155  -61.527544090   -21.5308   6  19   0.6492   0.8833   1.4982   0.2618   0.3927   0.4244   0.00    0.0
2281 489534   16.262308049  -61.527543965   -21.5534   6  19   0.6395   0.8743   1.4805   0.2562   0.3950   0.4205   0.00    0.0
2281 489535   16.262307867  -61.527543888   -21.5692   6  19   0.6300   0.8657   1.4632   0.2507   0.3969   0.4165   0.00    0.0
2281 489536   16.262307781  -61.527543790   -21.5897   6  19   0.6208   0.8572   1.4463   0.2454   0.3985   0.4126   0.00    0.0
2281 489537   16.262307657  -61.527543715   -21.6174   6  19   0.6119   0.8490   1.4298   0.2402   0.3997   0.4088   0.00    0.0
2281 489538   16.262307567  -61.527543583   -21.6556   6  19   0.6032   0.8409   1.4137   0.2352   0.4007   0.4050   0.00    0.0
2281 489539   16.262307481  -61.527543331   -21.6929   6  20   0.5947   0.8324   1.3979   0.2300   0.4012   0.4012   0.00    0.0
2281 489540   16.262307391  -61.527543229   -21.7293   6  19   0.5864   0.8248   1.3824   0.2252   0.4018   0.3975   0.00    0.0
2281 489541   16.262307334  -61.527543110   -21.7636   6  19   0.5783   0.8173   1.3673   0.2205   0.4022   0.3939   0.00    0.0
2281 489542   16.262307280  -61.527542995   -21.8008   6  19   0.5704   0.8100   1.3525   0.2159   0.4024   0.3903   0.00    0.0
2281 489543   16.262307202  -61.527542893   -21.8395   6  19   0.5627   0.8028   1.3380   0.2113   0.4024   0.3867   0.00    0.0
2281 489544   16.262307107  -61.527542785   -21.8886   6  19   0.5552   0.7958   1.3238   0.2069   0.4024   0.3832   0.00    0.0
2281 489545   16.262306996  -61.527542674   -21.9290   6  19   0.5478   0.7890   1.3099   0.2026   0.4021   0.3797   0.00    0.0
2281 489546   16.262306947  -61.527542533   -21.9655   6  18   0.5408   0.7822   1.2963   0.1983   0.4018   0.3765   0.00    0.0
2281 489547   16.262306875  -61.527542383   -22.0094   6  18   0.5339   0.7757   1.2830   0.1941   0.4014   0.3734   0.00    0.0
2281 489548   16.262306768  -61.527542252   -22.0534   6  18   0.5271   0.7692   1.2700   0.1900   0.4008   0.3702   0.00    0.0
2281 489549   16.262306718  -61.527542128   -22.0922   6  18   0.5205   0.7629   1.2572   0.1860   0.4002   0.3671   0.00    0.0
2281 489550   16.262306663  -61.527541991   -22.1321   6  18   0.5140   0.7567   1.2447   0.1820   0.3995   0.3641   0.00    0.0
2281 489551   16.262306651  -61.527541820   -22.1642   6  18   0.5077   0.7506   1.2327   0.1782   0.3988   0.3611   0.00    0.0
2281 489552   16.262306643  -61.527541646   -22.1926   6  18   0.5016   0.7443   1.2209   0.1738   0.3979   0.3582   0.00    0.0
2281 489553   16.262306610  -61.527541572   -22.2301   6  18   0.4954   0.7386   1.2093   0.1696   0.3971   0.3551   0.00    0.0
2281 489554   16.262306585  -61.527541496   -22.2569   6  18   0.4895   0.7330   1.1979   0.1656   0.3963   0.3520   0.00    0.0
2281 489555   16.262306563  -61.527541452   -22.2829   6  18   0.4836   0.7275   1.1867   0.1616   0.3954   0.3491   0.00    0.0
2281 489556   16.262306536  -61.527541427   -22.2975   6  18   0.4779   0.7221   1.1757   0.1576   0.3945   0.3461   0.00    0.0
2281 489557   16.262306526  -61.527541405   -22.3070   6  18   0.4725   0.7168   1.1656   0.1542   0.3940   0.3442   0.00    0.0
2281 489558   16.262306509  -61.527541352   -22.3172   6  18   0.4672   0.7117   1.1558   0.1509   0.3935   0.3423   0.00    0.0
2281 489559   16.262306499  -61.527541263   -22.3343   6  18   0.4621   0.7066   1.1461   0.1477   0.3929   0.3405   0.00    0.0
2281 489560   16.262306459  -61.527541121   -22.3514   6  19   0.4570   0.7014   1.1366   0.1449   0.3924   0.3386   0.00    0.0
2281 489561   16.262306441  -61.527540975   -22.3698   6  18   0.4520   0.6963   1.1273   0.1421   0.3917   0.3369   0.00    0.0
2281 489562   16.262306429  -61.527540857   -22.3819   6  19   0.4471   0.6913   1.1181   0.1394   0.3911   0.3350   0.00    0.0
2281 489563   16.262306382  -61.527540724   -22.3920   6  19   0.4422   0.6864   1.1091   0.1368   0.3904   0.3332   0.00    0.0
2281 489564   16.262306381  -61.527540641   -22.3969   6  19   0.4375   0.6816   1.1002   0.1342   0.3897   0.3313   0.00    0.0
2281 489565   16.262306402  -61.527540575   -22.3966   6  19   0.4328   0.6768   1.0914   0.1316   0.3889   0.3295   0.00    0.0
2281 489566   16.262306434  -61.527540503   -22.3983   6  19   0.4282   0.6721   1.0828   0.1291   0.3882   0.3277   0.00    0.0
2281 489567   16.262306449  -61.527540432   -22.4051   6  19   0.4237   0.6675   1.0743   0.1266   0.3874   0.3259   0.00    0.0
2281 489568   16.262306484  -61.527540361   -22.4017   6  19   0.4193   0.6629   1.0660   0.1241   0.3865   0.3241   0.00    0.0
2281 489569   16.262306521  -61.527540226   -22.4041   6  18   0.4150   0.6585   1.0578   0.1216   0.3858   0.3222   0.00    0.0
2281 489570   16.262306547  -61.527540080   -22.4138   6  18   0.4107   0.6541   1.0497   0.1190   0.3850   0.3204   0.00    0.0
2281 489571   16.262306589  -61.527539957   -22.4228   6  18   0.4066   0.6498   1.0417   0.1166   0.3842   0.3186   0.00    0.0
2281 489572   16.262306605  -61.527539768   -22.4330   6  19   0.4024   0.6453   1.0339   0.1140   0.3832   0.3168   0.00    0.0
2281 489573   16.262306658  -61.527539605   -22.4450   6  19   0.3984   0.6407   1.0262   0.1116   0.3822   0.3151   0.00    0.0
2281 489574   16.262306680  -61.527539447   -22.4617   6  19   0.3945   0.6363   1.0186   0.1093   0.3811   0.3134   0.00    0.0
2281 489575   16.262306690  -61.527539290   -22.4816   6  19   0.3906   0.6319   1.0111   0.1070   0.3801   0.3118   0.00    0.0
2281 489576   16.262306708  -61.527539125   -22.4964   6  19   0.3868   0.6276   1.0037   0.1047   0.3790   0.3101   0.00    0.0
2281 489577   16.262306706  -61.527538954   -22.5114   6  19   0.3830   0.6233   0.9965   0.1024   0.3780   0.3084   0.00    0.0
2281 489578   16.262306698  -61.527538827   -22.5264   6  19   0.3793   0.6191   0.9893   0.1002   0.3769   0.3067   0.00    0.0
2281 489579   16.262306701  -61.527538763   -22.5427   6  18   0.3757   0.6152   0.9823   0.0981   0.3760   0.3051   0.00    0.0
2281 489580   16.262306712  -61.527538652   -22.5564   6  19   0.3721   0.6111   0.9753   0.0959   0.3749   0.3034   0.00    0.0
2281 489581   16.262306710  -61.527538615   -22.5727   6  18   0.3686   0.6073   0.9685   0.0939   0.3739   0.3018   0.00    0.0
2281 489582   16.262306709  -61.527538638   -22.5825   6  17   0.3651   0.6037   0.9617   0.0916   0.3729   0.3002   0.00    0.0
2281 489583   16.262306692  -61.527538664   -22.6032   6  18   0.3617   0.6001   0.9550   0.0893   0.3719   0.2984   0.00    0.0
2281 489584   16.262306655  -61.527538674   -22.6180   6  19   0.3583   0.5963   0.9484   0.0869   0.3709   0.2968   0.00    0.0
2281 489585   16.262306648  -61.527538613   -22.6375   6  20   0.3549   0.5924   0.9419   0.0849   0.3698   0.2951   0.00    0.0
2281 489586   16.262306630  -61.527538575   -22.6631   6  19   0.3517   0.5887   0.9355   0.0827   0.3687   0.2934   0.00    0.0
2281 489587   16.262306644  -61.527538541   -22.6898   6  18   0.3485   0.5851   0.9291   0.0804   0.3676   0.2918   0.00    0.0
2281 489588   16.262306631  -61.527538497   -22.7201   6  19   0.3453   0.5815   0.9229   0.0782   0.3665   0.2901   0.00    0.0
2281 489589   16.262306636  -61.527538420   -22.7473   6  19   0.3421   0.5779   0.9167   0.0760   0.3654   0.2885   0.00    0.0
2281 489590   16.262306639  -61.527538374   -22.7827   6  18   0.3390   0.5746   0.9106   0.0739   0.3645   0.2869   0.00    0.0
2281 489591   16.262306613  -61.527538351   -22.8124   6  18   0.3360   0.5713   0.9047   0.0719   0.3635   0.2854   0.00    0.0
2281 489592   16.262306591  -61.527538329   -22.8499   6  18   0.3331   0.5681   0.8989   0.0699   0.3626   0.2839   0.00    0.0
2281 489593   16.262306579  -61.527538300   -22.8867   6  18   0.3301   0.5649   0.8931   0.0680   0.3617   0.2824   0.00    0.0
2281 489594   16.262306591  -61.527538256   -22.9098   6  18   0.3272   0.5617   0.8875   0.0661   0.3608   0.2809   0.00    0.0
2281 489595   16.262306584  -61.527538198   -22.9365   6  18   0.3244   0.5586   0.8819   0.0642   0.3599   0.2794   0.00    0.0
2281 489596   16.262306581  -61.527538123   -22.9636   6  18   0.3216   0.5555   0.8764   0.0623   0.3590   0.2780   0.00    0.0
2281 489597   16.262306580  -61.527538050   -22.9980   6  18   0.3189   0.5524   0.8709   0.0605   0.3581   0.2766   0.00    0.0
2281 489598   16.262306577  -61.527537961   -23.0266   6  19   0.3161   0.5493   0.8655   0.0590   0.3572   0.2752   0.00    0.0
2281 489599   16.262306589  -61.527537907   -23.0399   6  18   0.3135   0.5462   0.8603   0.0574   0.3563   0.2738   0.00    0.0
2281 489600   16.262306605  -61.527537864   -23.0444   6  18   0.3108   0.5431   0.8551   0.0559   0.3554   0.2725   0.00    0.0
2281 489601   16.262306617  -61.527537853   -23.0465   6  17   0.3082   0.5402   0.8499   0.0541   0.3545   0.2711   0.00    0.0
2281 489602   16.262306635  -61.527537779   -23.0486   6  19   0.3057   0.5370   0.8448   0.0525   0.3536   0.2698   0.00    0.0
2281 489603   16.262306669  -61.527537696   -23.0497   6  19   0.3032   0.5339   0.8398   0.0510   0.3526   0.2684   0.00    0.0
2281 489604   16.262306736  -61.527537623   -23.0595   6  17   0.3007   0.5311   0.8348   0.0492   0.3517   0.2671   0.00    0.0
2281 489605   16.262306770  -61.527537570   -23.0658   6  18   0.2982   0.5282   0.8299   0.0474   0.3508   0.2658   0.00    0.0
2281 489606   16.262306814  -61.527537479   -23.0736   6  17   0.2958   0.5254   0.8250   0.0457   0.3499   0.2644   0.00    0.0
2281 489607   16.262306838  -61.527537367   -23.0819   6  18   0.2934   0.5225   0.8202   0.0438   0.3490   0.2631   0.00    0.0
2281 489608   16.262306858  -61.527537276   -23.0886   6  18   0.2911   0.5197   0.8154   0.0420   0.3481   0.2618   0.00    0.0
2281 489609   16.262306846  -61.527537193   -23.1003   6  18   0.2888   0.5168   0.8107   0.0402   0.3471   0.2606   0.00    0.0
2281 489610   16.262306837  -61.527537165   -23.1095   6  18   0.2865   0.5141   0.8061   0.0385   0.3463   0.2593   0.00    0.0
2281 489611   16.262306823  -61.527537092   -23.1176   6  20   0.2842   0.5113   0.8015   0.0371   0.3453   0.2580   0.00    0.0
2281 489612   16.262306819  -61.527537035   -23.1202   6  20   0.2819   0.5084   0.7969   0.0357   0.3444   0.2567   0.00    0.0
2281 489613   16.262306814  -61.527536988   -23.1206   6  20   0.2797   0.5056   0.7924   0.0342   0.3435   0.2554   0.00    0.0
2281 489614   16.262306823  -61.527536954   -23.1281   6  19   0.2775   0.5030   0.7880   0.0329   0.3427   0.2541   0.00    0.0
2281 489615   16.262306828  -61.527536898   -23.1359   6  20   0.2753   0.5003   0.7836   0.0314   0.3418   0.2529   0.00    0.0
2281 489616   16.262306844  -61.527536865   -23.1424   6  19   0.2732   0.4977   0.7793   0.0301   0.3409   0.2516   0.00    0.0
2281 489617   16.262306852  -61.527536826   -23.1463   6  19   0.2711   0.4951   0.7750   0.0287   0.3401   0.2504   0.00    0.0
2281 489618   16.262306864  -61.527536765   -23.1518   6  19   0.2690   0.4926   0.7707   0.0273   0.3393   0.2491   0.00    0.0
