%  GPST Time  latitude(deg) longitude(deg)  height(m)   Q  ns   sdn(m)   sde(m)   sdu(m)  sdne(m)  sdeu(m)  sdun(m) age(s)  ratio
2262 419640   47.833946482    7.596171483   282.7180   6   5  14.9666  12.6294  47.8327  -8.3666 -10.0616 -16.2629   0.00    0.0
2262 419641   47.833944609    7.596166957   286.5388   6   5  11.1139   9.1074  41.0976  -5.8440  -8.6008 -14.1351   0.00    0.0
2262 419642   47.833955938    7.596163560   282.0959   6   5   9.2931   7.4958  36.5873  -4.7034  -7.6391 -12.6340   0.00    0.0
2262 419643   47.833950116    7.596164375   285.6544   6   5   8.1653   6.5205  33.2959  -4.0278  -6.9413 -11.5210   0.00    0.0
2262 419645   47.833945421    7.596163562   289.9964   6   5   7.3499   5.8482  30.1325  -3.5768  -6.3756 -10.4785   0.00    0.0
2262 419647   47.833943338    7.596163384   292.2071   6   5   6.7390   5.3485  27.7293  -3.2484  -5.9213  -9.6750   0.00    0.0
2262 419648   47.833941151    7.596163603   293.2277   6   5   6.2755   4.9585  26.2091  -2.9919  -5.5699  -9.1427   0.00    0.0
2262 419649   47.833935591    7.596161156   297.6794   6   4   6.0025   4.6612  24.9687  -2.8680  -5.2100  -8.7954   0.00    0.0
2262 419650   47.833930292    7.596160569   301.6755   6   4   5.7627   4.4121  23.8919  -2.7577  -4.9080  -8.4833   0.00    0.0
2262 419651   47.833930909    7.596161177   300.6743   6   5   5.4664   4.1850  22.8979  -2.5958  -4.7045  -8.1150   0.00    0.0
2262 419652   47.833926253    7.596161145   303.1580   6   5   5.2121   3.9898  22.0183  -2.4588  -4.5236  -7.7913   0.00    0.0
2262 419653   47.833926009    7.596160575   303.2261   6   5   4.9905   3.8195  21.2328  -2.3411  -4.3616  -7.5039   0.00    0.0
2262 419654   47.833923580    7.596160715   304.5478   6   5   4.7953   3.6693  20.5257  -2.2386  -4.2154  -7.2464   0.00    0.0
2262 419655   47.833926123    7.596160707   303.1439   6   5   4.6214   3.5355  19.8847  -2.1483  -4.0826  -7.0139   0.00    0.0
2262 419657   47.833924246    7.596161082   304.4768   6   5   4.4579   3.4151  19.1438  -2.0701  -3.9506  -6.7559   0.00    0.0
2262 419658   47.833925584    7.596161058   303.5351   6   5   4.3173   3.3063  18.6201  -1.9980  -3.8395  -6.5664   0.00    0.0
2262 419659   47.833925890    7.596161356   303.2572   6   5   4.1893   3.2073  18.1372  -1.9329  -3.7370  -6.3920   0.00    0.0
2262 419660   47.833925437    7.596161191   303.3106   6   5   4.0722   3.1166  17.6899  -1.8738  -3.6420  -6.2310   0.00    0.0
2262 419661   47.833926497    7.596161422   302.6416   6   5   3.9644   3.0331  17.2740  -1.8197  -3.5537  -6.0816   0.00    0.0
2262 419662   47.833926064    7.596161164   302.9757   6   5   3.8648   2.9560  16.8861  -1.7701  -3.4713  -5.9425   0.00    0.0
2262 419663   47.833927927    7.596160747   302.0239   6   5   3.7723   2.8845  16.5231  -1.7243  -3.3942  -5.8125   0.00    0.0
2262 419664   47.833928469    7.596160854   301.6246   6   5   3.6863   2.8179  16.1824  -1.6819  -3.3218  -5.6908   0.00    0.0
2262 419665   47.833928680    7.596160786   301.4598   6   5   3.6059   2.7556  15.8620  -1.6425  -3.2537  -5.5764   0.00    0.0
2262 419666   47.833927405    7.596160727   302.2637   6   5   3.5305   2.6973  15.5597  -1.6057  -3.1894  -5.4687   0.00    0.0
2262 419667   47.833927740    7.596161044   301.9507   6   5   3.4598   2.6425  15.2741  -1.5714  -3.1286  -5.3670   0.00    0.0
2262 419668   47.833928919    7.596160997   301.1097   6   5   3.3931   2.5909  15.0036  -1.5391  -3.0710  -5.2708   0.00    0.0
2262 419669   47.833928477    7.596161157   301.2396   6   5   3.3302   2.5422  14.7469  -1.5088  -3.0163  -5.1796   0.00    0.0
2262 419670   47.833926320    7.596161010   302.5233   6   5   3.2706   2.4961  14.5028  -1.4802  -2.9643  -5.0930   0.00    0.0
2262 419671   47.833926466    7.596160983   302.5496   6   5   3.2142   2.4524  14.2705  -1.4532  -2.9148  -5.0106   0.00    0.0
2262 419672   47.833925514    7.596160878   303.1912   6   5   3.1606   2.4109  14.0489  -1.4276  -2.8676  -4.9321   0.00    0.0
2262 419673   47.833926235    7.596160808   302.8378   6   5   3.1096   2.3714  13.8373  -1.4034  -2.8224  -4.8572   0.00    0.0
2262 419674   47.833925872    7.596160430   303.1284   6   5   3.0610   2.3338  13.6349  -1.3803  -2.7792  -4.7856   0.00    0.0
2262 419675   47.833925733    7.596160571   303.1834   6   5   3.0146   2.2979  13.4411  -1.3584  -2.7378  -4.7170   0.00    0.0
2262 419676   47.833925659    7.596160687   303.1653   6   5   2.9703   2.2636  13.2552  -1.3375  -2.6981  -4.6514   0.00    0.0
2262 419677   47.833926430    7.596160349   302.8505   6   5   2.9279   2.2308  13.0769  -1.3176  -2.6600  -4.5884   0.00    0.0
2262 419678   47.833927147    7.596160162   302.4820   6   5   2.8872   2.1993  12.9055  -1.2985  -2.6233  -4.5279   0.00    0.0
2262 419679   47.833928276    7.596159937   301.9629   6   5   2.8482   2.1691  12.7406  -1.2803  -2.5881  -4.4698   0.00    0.0
2262 419680   47.833928374    7.596160066   301.9095   6   5   2.8108   2.1401  12.5818  -1.2628  -2.5541  -4.4138   0.00    0.0
2262 419681   47.833928671    7.596159764   301.8591   6   5   2.7748   2.1123  12.4288  -1.2460  -2.5213  -4.3599   0.00    0.0
2262 419682   47.833928534    7.596159674   301.9070   6   5   2.7402   2.0854  12.2813  -1.2299  -2.4897  -4.3079   0.00    0.0
2262 419683   47.833927230    7.596159158   302.9299   6   4   2.7167   2.0611  12.1460  -1.2219  -2.4525  -4.2691   0.00    0.0
2262 419684   47.833927275    7.596159011   302.8675   6   5   2.6842   2.0361  12.0081  -1.2067  -2.4231  -4.2203   0.00    0.0
2262 419685   47.833925728    7.596158938   303.8933   6   5   2.6528   2.0120  11.8747  -1.1921  -2.3948  -4.1731   0.00    0.0
2262 419686   47.833925145    7.596158892   304.2659   6   5   2.6225   1.9888  11.7457  -1.1780  -2.3673  -4.1274   0.00    0.0
2262 419687   47.833925307    7.596158956   304.2523   6   5   2.5932   1.9663  11.6207  -1.1645  -2.3407  -4.0833   0.00    0.0
2262 419688   47.833926127    7.596158867   303.7296   6   5   2.5649   1.9445  11.4996  -1.1513  -2.3149  -4.0405   0.00    0.0
2262 419689   47.833925714    7.596158848   303.9745   6   5   2.5375   1.9234  11.3822  -1.1387  -2.2899  -3.9990   0.00    0.0
2262 419690   47.833926671    7.596158959   303.4188   6   5   2.5110   1.9030  11.2683  -1.1264  -2.2655  -3.9588   0.00    0.0
2262 419691   47.833926545    7.596159246   303.4957   6   5   2.4852   1.8833  11.1577  -1.1146  -2.2419  -3.9197   0.00    0.0
2262 419692   47.833926684    7.596159100   303.4285   6   5   2.4603   1.8641  11.0502  -1.1031  -2.2189  -3.8818   0.00    0.0
2262 419693   47.833926353    7.596159308   303.5526   6   5   2.4361   1.8455  10.9458  -1.0920  -2.1966  -3.8450   0.00    0.0
2262 419694   47.833925888    7.596159561   303.6912   6   5   2.4126   1.8274  10.8443  -1.0812  -2.1749  -3.8092   0.00    0.0
2262 419695   47.833925741    7.596159444   303.7562   6   5   2.3898   1.8098  10.7455  -1.0708  -2.1537  -3.7744   0.00    0.0
2262 419696   47.833925724    7.596159431   303.6933   6   5   2.3676   1.7927  10.6493  -1.0607  -2.1331  -3.7406   0.00    0.0
2262 419697   47.833926126    7.596159540   303.4080   6   5   2.3460   1.7761  10.5557  -1.0508  -2.1130  -3.7076   0.00    0.0
2262 419698   47.833925819    7.596159760   303.5629   6   5   2.3250   1.7600  10.4644  -1.0412  -2.0934  -3.6755   0.00    0.0
2262 419699   47.833925450    7.596159839   303.7946   6   5   2.3045   1.7442  10.3755  -1.0319  -2.0743  -3.6442   0.00    0.0
2262 419700   47.833925445    7.596159851   303.7941   6   5   2.2846   1.7289  10.2887  -1.0229  -2.0556  -3.6137   0.00    0.0
2262 419701   47.833925797    7.596159912   303.5779   6   5   2.2652   1.7139  10.2041  -1.0141  -2.0374  -3.5839   0.00    0.0
2262 419702   47.833924692    7.596160052   304.2197   6   5   2.2463   1.6994  10.1215  -1.0055  -2.0196  -3.5549   0.00    0.0
2262 419703   47.833924082    7.596160055   304.5640   6   5   2.2279   1.6852  10.0409  -0.9971  -2.0023  -3.5265   0.00    0.0
2262 419704   47.833924124    7.596159753   304.5638   6   5   2.2099   1.6713   9.9621  -0.9890  -1.9853  -3.4989   0.00    0.0
2262 419705   47.833925123    7.596160829   303.6053   6   6   2.1825   1.6523   9.7464  -0.9952  -1.9113  -3.4222   0.00    0.0
2262 419706   47.833925924    7.596161862   302.8068   6   6   2.1565   1.6341   9.5448  -1.0000  -1.8421  -3.3505   0.00    0.0
2262 419707   47.833926624    7.596162339   302.2016   6   6   2.1317   1.6168   9.3559  -1.0036  -1.7771  -3.2833   0.00    0.0
2262 419708   47.833927420    7.596163030   301.5095   6   6   2.1080   1.6001   9.1783  -1.0061  -1.7158  -3.2202   0.00    0.0
2262 419709   47.833928076    7.596163602   300.9227   6   6   2.0853   1.5841   9.0110  -1.0079  -1.6580  -3.1607   0.00    0.0
2262 419710   47.833928916    7.596164312   300.1779   6   6   2.0636   1.5688   8.8529  -1.0088  -1.6033  -3.1046   0.00    0.0
2262 419711   47.833929549    7.596164890   299.6390   6   6   2.0427   1.5540   8.7033  -1.0092  -1.5515  -3.0514   0.00    0.0
2262 419712   47.833930041    7.596165494   299.1519   6   6   2.0226   1.5397   8.5614  -1.0090  -1.5022  -3.0010   0.00    0.0
2262 419713   47.833930556    7.596165858   298.7359   6   6   2.0033   1.5258   8.4266  -1.0084  -1.4554  -2.9531   0.00    0.0
2262 419714   47.833930867    7.596166198   298.3637   6   6   1.9846   1.5125   8.2983  -1.0074  -1.4107  -2.9075   0.00    0.0
2262 419715   47.833931211    7.596166529   298.1036   6   6   1.9666   1.4995   8.1760  -1.0060  -1.3680  -2.8641   0.00    0.0
2262 419716   47.833931293    7.596167033   297.8531   6   6   1.9491   1.4870   8.0592  -1.0043  -1.3272  -2.8226   0.00    0.0
2262 419717   47.833931675    7.596167255   297.5575   6   6   1.9322   1.4748   7.9474  -1.0024  -1.2881  -2.7830   0.00    0.0
2262 419718   47.833932097    7.596167407   297.2874   6   6   1.9159   1.4629   7.8405  -1.0003  -1.2506  -2.7450   0.00    0.0
2262 419719   47.833932420    7.596167750   296.9480   6   6   1.9000   1.4514   7.7379  -0.9979  -1.2147  -2.7086   0.00    0.0
2262 419720   47.833932542    7.596168109   296.6808   6   6   1.8846   1.4402   7.6395  -0.9954  -1.1801  -2.6737   0.00    0.0
2262 419721   47.833932798    7.596168497   296.4066   6   6   1.8696   1.4293   7.5449  -0.9927  -1.1468  -2.6401   0.00    0.0
2262 419722   47.833933139    7.596168546   296.1598   6   6   1.8550   1.4187   7.4539  -0.9899  -1.1147  -2.6078   0.00    0.0
2262 419723   47.833933538    7.596168617   295.9200   6   6   1.8408   1.4084   7.3662  -0.9870  -1.0837  -2.5767   0.00    0.0
2262 419724   47.833933970    7.596168825   295.6322   6   6   1.8270   1.3982   7.2818  -0.9840  -1.0538  -2.5468   0.00    0.0
2262 419725   47.833934395    7.596168809   295.4382   6   6   1.8135   1.3884   7.2003  -0.9810  -1.0248  -2.5179   0.00    0.0
2262 419726   47.833934674    7.596168865   295.2516   6   6   1.8004   1.3788   7.1216  -0.9778  -0.9968  -2.4900   0.00    0.0
2262 419727   47.833935021    7.596168983   295.0632   6   6   1.7876   1.3693   7.0455  -0.9746  -0.9697  -2.4630   0.00    0.0
2262 419728   47.833935314    7.596169112   294.8321   6   6   1.7751   1.3601   6.9719  -0.9714  -0.9434  -2.4369   0.00    0.0
2262 419729   47.833935528    7.596169202   294.6368   6   6   1.7629   1.3511   6.9007  -0.9681  -0.9179  -2.4117   0.00    0.0
2262 419730   47.833935744    7.596169267   294.4562   6   6   1.7509   1.3423   6.8318  -0.9648  -0.8931  -2.3873   0.00    0.0
2262 419731   47.833935985    7.596169334   294.2565   6   6   1.7393   1.3337   6.7649  -0.9614  -0.8690  -2.3636   0.00    0.0
2262 419732   47.833936308    7.596169459   294.0412   6   6   1.7279   1.3253   6.7001  -0.9581  -0.8455  -2.3406   0.00    0.0
2262 419733   47.833936311    7.596169590   293.9727   6   6   1.7167   1.3170   6.6371  -0.9547  -0.8227  -2.3183   0.00    0.0
2262 419734   47.833936299    7.596169714   293.8524   6   6   1.7058   1.3089   6.5760  -0.9513  -0.8004  -2.2967   0.00    0.0
2262 419735   47.833936559    7.596169871   293.6953   6   6   1.6951   1.3010   6.5166  -0.9479  -0.7786  -2.2757   0.00    0.0
2262 419736   47.833936595    7.596170016   293.5828   6   6   1.6846   1.2932   6.4589  -0.9445  -0.7574  -2.2552   0.00    0.0
2262 419737   47.833936746    7.596170096   293.4741   6   6   1.6743   1.2855   6.4027  -0.9410  -0.7366  -2.2353   0.00    0.0
2262 419738   47.833936997    7.596170158   293.3144   6   6   1.6642   1.2780   6.3480  -0.9376  -0.7163  -2.2160   0.00    0.0
2262 419739   47.833937210    7.596170234   293.1852   6   6   1.6544   1.2707   6.2948  -0.9342  -0.6964  -2.1972   0.00    0.0
2262 419740   47.833937317    7.596170344   293.1207   6   6   1.6447   1.2634   6.2429  -0.9308  -0.6770  -2.1788   0.00    0.0
2262 419741   47.833937527    7.596170370   293.0228   6   6   1.6352   1.2563   6.1924  -0.9275  -0.6578  -2.1609   0.00    0.0
2262 419742   47.833937659    7.596170472   292.9300   6   6   1.6259   1.2494   6.1431  -0.9241  -0.6391  -2.1435   0.00    0.0
2262 419743   47.833937750    7.596170621   292.8268   6   6   1.6167   1.2425   6.0950  -0.9207  -0.6206  -2.1265   0.00    0.0
2262 419744   47.833937899    7.596170828   292.6811   6   6   1.6077   1.2358   6.0480  -0.9174  -0.6025  -2.1099   0.00    0.0
2262 419745   47.833937871    7.596170942   292.6213   6   6   1.5989   1.2292   6.0022  -0.9140  -0.5847  -2.0937   0.00    0.0
2262 419746   47.833937949    7.596171016   292.5570   6   6   1.5902   1.2227   5.9574  -0.9107  -0.5671  -2.0779   0.00    0.0
2262 419747   47.833938096    7.596171010   292.4660   6   6   1.5817   1.2163   5.9137  -0.9074  -0.5497  -2.0624   0.00    0.0
2262 419748   47.833938091    7.596171185   292.3742   6   6   1.5733   1.2100   5.8710  -0.9042  -0.5326  -2.0473   0.00    0.0
2262 419749   47.833938381    7.596171142   292.2756   6   6   1.5650   1.2038   5.8292  -0.9009  -0.5157  -2.0325   0.00    0.0
2262 419750   47.833938414    7.596171240   292.2271   6   6   1.5569   1.1977   5.7883  -0.8977  -0.4989  -2.0181   0.00    0.0
2262 419751   47.833938669    7.596171210   292.1456   6   6   1.5489   1.1917   5.7483  -0.8944  -0.4823  -2.0039   0.00    0.0
2262 419752   47.833938937    7.596171098   292.0755   6   6   1.5411   1.1858   5.7091  -0.8912  -0.4659  -1.9901   0.00    0.0
2262 419753   47.833939129    7.596171125   291.9634   6   6   1.5334   1.1800   5.6708  -0.8881  -0.4495  -1.9766   0.00    0.0
2262 419754   47.833939225    7.596171231   291.8876   6   6   1.5258   1.1742   5.6332  -0.8849  -0.4332  -1.9633   0.00    0.0
2262 419755   47.833939345    7.596171227   291.8172   6   6   1.5183   1.1686   5.5964  -0.8818  -0.4170  -1.9503   0.00    0.0
2262 419756   47.833939519    7.596171132   291.7621   6   6   1.5109   1.1630   5.5604  -0.8787  -0.4008  -1.9376   0.00    0.0
2262 419757   47.833939574    7.596171257   291.6857   6   6   1.5037   1.1575   5.5250  -0.8756  -0.3846  -1.9251   0.00    0.0
2262 419758   47.833939801    7.596171231   291.6082   6   6   1.4965   1.1521   5.4904  -0.8725  -0.3684  -1.9129   0.00    0.0
2262 419759   47.833939957    7.596171280   291.5266   6   6   1.4895   1.1468   5.4564  -0.8695  -0.3521  -1.9009   0.00    0.0
2262 419760   47.833939986    7.596171429   291.4670   6   6   1.4825   1.1416   5.4231  -0.8665  -0.3356  -1.8891   0.00    0.0
2262 419761   47.833939970    7.596171646   291.4050   6   6   1.4757   1.1364   5.3904  -0.8635  -0.3190  -1.8776   0.00    0.0
2262 419762   47.833939955    7.596171774   291.3560   6   6   1.4690   1.1313   5.3583  -0.8605  -0.3022  -1.8663   0.00    0.0
2262 419763   47.833940084    7.596171757   291.3139   6   6   1.4623   1.1263   5.3267  -0.8576  -0.2850  -1.8551   0.00    0.0
2262 419764   47.833940149    7.596171869   291.2602   6   6   1.4558   1.1213   5.2958  -0.8547  -0.2675  -1.8442   0.00    0.0
2262 419765   47.833940648    7.596172255   290.8404   6   8   1.4465   1.1118   5.2001  -0.8526  -0.0707  -1.8167   0.00    0.0
2262 419766   47.833941161    7.596172446   290.4681   6   8   1.4375   1.1027   5.1100  -0.8502   0.2343  -1.7906   0.00    0.0
2262 419767   47.833941495    7.596172765   290.1691   6   8   1.4287   1.0939   5.0250  -0.8477   0.3301  -1.7659   0.00    0.0
2262 419768   47.833941832    7.596172922   289.8721   6   8   1.4202   1.0854   4.9447  -0.8451   0.3973  -1.7424   0.00    0.0
2262 419769   47.833942145    7.596173164   289.6048   6   8   1.4119   1.0771   4.8686  -0.8423   0.4496  -1.7201   0.00    0.0
2262 419770   47.833942387    7.596173228   289.3896   6   8   1.4038   1.0692   4.7963  -0.8395   0.4923  -1.6988   0.00    0.0
2262 419771   47.833942617    7.596173377   289.1733   6   8   1.3959   1.0615   4.7276  -0.8365   0.5282  -1.6784   0.00    0.0
2262 419772   47.833942818    7.596173398   289.0019   6   8   1.3882   1.0540   4.6621  -0.8335   0.5589  -1.6589   0.00    0.0
2262 419773   47.833943090    7.596173478   288.8162   6   8   1.3806   1.0468   4.5995  -0.8305   0.5855  -1.6401   0.00    0.0
2262 419774   47.833943389    7.596173603   288.6014   6   8   1.3732   1.0397   4.5398  -0.8274   0.6087  -1.6222   0.00    0.0
2262 419775   47.833943559    7.596173582   288.4221   6   8   1.3660   1.0328   4.4826  -0.8242   0.6293  -1.6049   0.00    0.0
2262 419776   47.833943720    7.596173750   288.2667   6   8   1.3589   1.0261   4.4278  -0.8211   0.6475  -1.5882   0.00    0.0
2262 419777   47.833943874    7.596173795   288.1034   6   8   1.3519   1.0196   4.3752  -0.8179   0.6637  -1.5722   0.00    0.0
2262 419778   47.833944024    7.596173841   287.9792   6   8   1.3451   1.0132   4.3246  -0.8147   0.6782  -1.5567   0.00    0.0
2262 419779   47.833944282    7.596173907   287.8128   6   8   1.3384   1.0070   4.2760  -0.8115   0.6913  -1.5417   0.00    0.0
2262 419780   47.833944418    7.596173832   287.6847   6   8   1.3319   1.0009   4.2292  -0.8082   0.7030  -1.5272   0.00    0.0
2262 419781   47.833944596    7.596173830   287.5358   6   8   1.3254   0.9949   4.1840  -0.8050   0.7137  -1.5132   0.00    0.0
2262 419782   47.833944792    7.596173759   287.3932   6   8   1.3191   0.9891   4.1405  -0.8018   0.7233  -1.4996   0.00    0.0
2262 419783   47.833944920    7.596173782   287.2375   6   8   1.3128   0.9834   4.0984  -0.7986   0.7320  -1.4864   0.00    0.0
2262 419784   47.833945073    7.596173829   287.1345   6   8   1.3067   0.9778   4.0578  -0.7954   0.7399  -1.4737   0.00    0.0
2262 419785   47.833945202    7.596173906   286.9878   6   8   1.3007   0.9724   4.0185  -0.7923   0.7470  -1.4612   0.00    0.0
2262 419786   47.833945284    7.596173908   286.9073   6   8   1.2948   0.9670   3.9804  -0.7891   0.7536  -1.4492   0.00    0.0
2262 419787   47.833945465    7.596173977   286.7847   6   8   1.2889   0.9617   3.9436  -0.7859   0.7595  -1.4374   0.00    0.0
2262 419788   47.833945623    7.596173922   286.6972   6   8   1.2832   0.9566   3.9078  -0.7828   0.7649  -1.4260   0.00    0.0
2262 419789   47.833945740    7.596173924   286.6225   6   8   1.2775   0.9515   3.8731  -0.7797   0.7697  -1.4149   0.00    0.0
2262 419790   47.833945875    7.596173908   286.5317   6   8   1.2719   0.9466   3.8394  -0.7766   0.7742  -1.4040   0.00    0.0
2262 419791   47.833945973    7.596173878   286.4304   6   8   1.2665   0.9417   3.8067  -0.7735   0.7782  -1.3934   0.00    0.0
2262 419792   47.833946091    7.596173899   286.3487   6   8   1.2610   0.9369   3.7749  -0.7705   0.7819  -1.3831   0.00    0.0
2262 419793   47.833946111    7.596173951   286.2804   6   8   1.2557   0.9322   3.7440  -0.7674   0.7852  -1.3730   0.00    0.0
2262 419794   47.833946236    7.596173875   286.2117   6   8   1.2505   0.9275   3.7139  -0.7644   0.7882  -1.3632   0.00    0.0
2262 419795   47.833946431    7.596173793   286.1368   6   8   1.2453   0.9230   3.6846  -0.7614   0.7909  -1.3536   0.00    0.0
2262 419796   47.833946539    7.596173839   286.0551   6   8   1.2402   0.9185   3.6561  -0.7585   0.7933  -1.3442   0.00    0.0
2262 419797   47.833946600    7.596173817   285.9887   6   8   1.2351   0.9141   3.6283  -0.7555   0.7955  -1.3350   0.00    0.0
2262 419798   47.833946594    7.596173830   285.9388   6   8   1.2301   0.9098   3.6011  -0.7526   0.7974  -1.3260   0.00    0.0
2262 419799   47.833946669    7.596173754   285.8800   6   8   1.2252   0.9055   3.5747  -0.7497   0.7991  -1.3172   0.00    0.0
2262 419800   47.833946715    7.596173736   285.8249   6   8   1.2204   0.9013   3.5489  -0.7469   0.8007  -1.3086   0.00    0.0
2262 419801   47.833946850    7.596173703   285.7455   6   8   1.2156   0.8972   3.5236  -0.7440   0.8020  -1.3002   0.00    0.0
2262 419802   47.833946896    7.596173636   285.6797   6   8   1.2109   0.8931   3.4990  -0.7412   0.8032  -1.2919   0.00    0.0
2262 419803   47.833946936    7.596173603   285.6293   6   8   1.2062   0.8891   3.4749  -0.7384   0.8042  -1.2838   0.00    0.0
2262 419804   47.833946986    7.596173545   285.5579   6   8   1.2016   0.8851   3.4514  -0.7356   0.8051  -1.2759   0.00    0.0
2262 419805   47.833947042    7.596173616   285.4731   6   8   1.1970   0.8812   3.4284  -0.7329   0.8058  -1.2681   0.00    0.0
2262 419806   47.833947054    7.596173514   285.4480   6   8   1.1926   0.8774   3.4059  -0.7302   0.8064  -1.2605   0.00    0.0
2262 419807   47.833947157    7.596173592   285.4030   6   8   1.1881   0.8736   3.3839  -0.7275   0.8069  -1.2530   0.00    0.0
2262 419808   47.833947214    7.596173630   285.3457   6   8   1.1837   0.8699   3.3623  -0.7248   0.8073  -1.2456   0.00    0.0
2262 419809   47.833947198    7.596173718   285.3074   6   8   1.1794   0.8662   3.3412  -0.7222   0.8075  -1.2384   0.00    0.0
2262 419810   47.833947185    7.596173717   285.2722   6   8   1.1751   0.8626   3.3205  -0.7195   0.8077  -1.2313   0.00    0.0
2262 419811   47.833947168    7.596173669   285.2419   6   8   1.1709   0.8590   3.3002  -0.7169   0.8078  -1.2243   0.00    0.0
2262 419812   47.833947123    7.596173747   285.2189   6   8   1.1667   0.8554   3.2804  -0.7144   0.8077  -1.2175   0.00    0.0
2262 419813   47.833947180    7.596173785   285.1649   6   8   1.1625   0.8520   3.2609  -0.7118   0.8076  -1.2107   0.00    0.0
2262 419814   47.833947195    7.596173803   285.1257   6   8   1.1584   0.8485   3.2418  -0.7093   0.8075  -1.2041   0.00    0.0
2262 419815   47.833947230    7.596173750   285.0891   6   8   1.1544   0.8451   3.2230  -0.7068   0.8072  -1.1976   0.00    0.0
2262 419816   47.833947273    7.596173731   285.0435   6   8   1.1504   0.8418   3.2046  -0.7043   0.8069  -1.1912   0.00    0.0
2262 419817   47.833947250    7.596173707   285.0311   6   8   1.1464   0.8384   3.1866  -0.7018   0.8065  -1.1849   0.00    0.0
2262 419818   47.833947299    7.596173720   284.9936   6   8   1.1425   0.8352   3.1689  -0.6994   0.8061  -1.1787   0.00    0.0
2262 419819   47.833947369    7.596173668   284.9649   6   8   1.1386   0.8319   3.1515  -0.6970   0.8056  -1.1726   0.00    0.0
2262 419820   47.833947370    7.596173719   284.9473   6   9   1.1346   0.8283   3.1338  -0.6942   0.8061  -1.1671   0.00    0.0
2262 419821   47.833947335    7.596173810   284.9175   6   9   1.1307   0.8248   3.1164  -0.6915   0.8064  -1.1617   0.00    0.0
2262 419822   47.833947321    7.596173843   284.8967   6   9   1.1268   0.8213   3.0993  -0.6888   0.8067  -1.1564   0.00    0.0
2262 419823   47.833947292    7.596173931   284.8773   6   9   1.1229   0.8179   3.0826  -0.6861   0.8068  -1.1511   0.00    0.0
2262 419824   47.833947361    7.596173969   284.8333   6   9   1.1191   0.8145   3.0661  -0.6835   0.8069  -1.1459   0.00    0.0
2262 419825   47.833947382    7.596174047   284.7895   6   9   1.1153   0.8112   3.0500  -0.6809   0.8069  -1.1408   0.00    0.0
2262 419826   47.833947461    7.596173994   284.7483   6   9   1.1115   0.8079   3.0341  -0.6783   0.8069  -1.1358   0.00    0.0
2262 419827   47.833947514    7.596173908   284.7441   6   9   1.1078   0.8046   3.0185  -0.6758   0.8067  -1.1308   0.00    0.0
2262 419828   47.833947478    7.596174082   284.6965   6   9   1.1041   0.8014   3.0031  -0.6732   0.8066  -1.1258   0.00    0.0
2262 419829   47.833947504    7.596173980   284.6718   6   9   1.1005   0.7982   2.9881  -0.6707   0.8063  -1.1210   0.00    0.0
2262 419830   47.833947491    7.596173937   284.6696   6   9   1.0969   0.7951   2.9732  -0.6683   0.8060  -1.1162   0.00    0.0
2262 419831   47.833947537    7.596173875   284.6546   6   9   1.0933   0.7920   2.9586  -0.6658   0.8056  -1.1114   0.00    0.0
2262 419832   47.833947475    7.596173960   284.6458   6   9   1.0898   0.7889   2.9443  -0.6634   0.8052  -1.1068   0.00    0.0
2262 419833   47.833947548    7.596173856   284.6421   6   9   1.0863   0.7859   2.9302  -0.6610   0.8047  -1.1021   0.00    0.0
2262 419834   47.833947604    7.596173741   284.6318   6   9   1.0829   0.7830   2.9163  -0.6586   0.8042  -1.0976   0.00    0.0
2262 419835   47.833947662    7.596173708   284.5997   6   9   1.0794   0.7800   2.9026  -0.6563   0.8037  -1.0930   0.00    0.0
2262 419836   47.833947690    7.596173666   284.5952   6   9   1.0760   0.7771   2.8891  -0.6540   0.8031  -1.0886   0.00    0.0
2262 419837   47.833947765    7.596173576   284.5858   6   9   1.0727   0.7742   2.8759  -0.6517   0.8025  -1.0842   0.00    0.0
2262 419838   47.833947722    7.596173513   284.5870   6   9   1.0693   0.7714   2.8628  -0.6494   0.8018  -1.0798   0.00    0.0
2262 419839   47.833947751    7.596173503   284.5851   6   9   1.0660   0.7686   2.8499  -0.6471   0.8011  -1.0755   0.00    0.0
2262 419840   47.833947768    7.596173364   284.5904   6   9   1.0628   0.7658   2.8372  -0.6449   0.8004  -1.0712   0.00    0.0
2262 419841   47.833947795    7.596173396   284.5619   6   9   1.0595   0.7631   2.8248  -0.6427   0.7996  -1.0670   0.00    0.0
2262 419842   47.833947864    7.596173395   284.5394   6   9   1.0563   0.7604   2.8124  -0.6405   0.7988  -1.0629   0.00    0.0
2262 419843   47.833947907    7.596173402   284.5089   6   9   1.0531   0.7577   2.8003  -0.6383   0.7980  -1.0588   0.00    0.0
2262 419844   47.833947889    7.596173381   284.4853   6   9   1.0500   0.7551   2.7883  -0.6362   0.7971  -1.0547   0.00    0.0
2262 419845   47.833947915    7.596173298   284.4862   6   9   1.0469   0.7525   2.7765  -0.6340   0.7963  -1.0507   0.00    0.0
2262 419846   47.833947936    7.596173195   284.4627   6   9   1.0438   0.7499   2.7649  -0.6319   0.7954  -1.0467   0.00    0.0
2262 419847   47.833947948    7.596173233   284.4389   6   9   1.0407   0.7473   2.7534  -0.6299   0.7945  -1.0428   0.00    0.0
2262 419848   47.833947946    7.596173238   284.4186   6   9   1.0377   0.7448   2.7421  -0.6278   0.7936  -1.0389   0.00    0.0
2262 419849   47.833948004    7.596173134   284.4032   6   9   1.0347   0.7423   2.7309  -0.6257   0.7926  -1.0350   0.00    0.0
2262 419850   47.833948069    7.596173009   284.3841   6   9   1.0317   0.7398   2.7199  -0.6237   0.7917  -1.0312   0.00    0.0
2262 419851   47.833948027    7.596173035   284.3690   6   9   1.0287   0.7374   2.7090  -0.6217   0.7907  -1.0274   0.00    0.0
2262 419852   47.833947931    7.596173111   284.3538   6   9   1.0258   0.7349   2.6983  -0.6197   0.7897  -1.0237   0.00    0.0
2262 419853   47.833947963    7.596173091   284.3283   6   9   1.0229   0.7325   2.6877  -0.6177   0.7887  -1.0200   0.00    0.0
2262 419854   47.833947947    7.596173130   284.3115   6   9   1.0200   0.7302   2.6772  -0.6158   0.7876  -1.0163   0.00    0.0
2262 419855   47.833947874    7.596173149   284.3051   6   9   1.0171   0.7278   2.6669  -0.6138   0.7866  -1.0127   0.00    0.0
2262 419856   47.833947861    7.596173067   284.3082   6   9   1.0143   0.7255   2.6567  -0.6119   0.7856  -1.0091   0.00    0.0
2262 419857   47.833947785    7.596173128   284.3117   6   9   1.0115   0.7232   2.6466  -0.6100   0.7845  -1.0056   0.00    0.0
2262 419858   47.833947812    7.596173081   284.2911   6   9   1.0087   0.7209   2.6367  -0.6081   0.7834  -1.0021   0.00    0.0
2262 419859   47.833947799    7.596173036   284.2881   6   9   1.0059   0.7187   2.6268  -0.6063   0.7823  -0.9986   0.00    0.0
2262 419860   47.833947731    7.596173072   284.2865   6   9   1.0032   0.7164   2.6171  -0.6044   0.7813  -0.9952   0.00    0.0
2262 419861   47.833947702    7.596173015   284.2887   6   9   1.0005   0.7142   2.6075  -0.6026   0.7802  -0.9918   0.00    0.0
2262 419862   47.833947678    7.596173009   284.2807   6   9   0.9978   0.7120   2.5980  -0.6008   0.7791  -0.9884   0.00    0.0
2262 419863   47.833947650    7.596173037   284.2646   6   9   0.9951   0.7099   2.5887  -0.5989   0.7779  -0.9851   0.00    0.0
2262 419864   47.833947648    7.596173030   284.2472   6   9   0.9924   0.7077   2.5794  -0.5972   0.7768  -0.9817   0.00    0.0
2262 419865   47.833947660    7.596173025   284.2343   6   9   0.9898   0.7056   2.5703  -0.5954   0.7757  -0.9785   0.00    0.0
2262 419866   47.833947633    7.596173046   284.2174   6   9   0.9872   0.7035   2.5612  -0.5936   0.7746  -0.9752   0.00    0.0
2262 419867   47.833947639    7.596173010   284.2108   6   9   0.9846   0.7014   2.5523  -0.5919   0.7734  -0.9720   0.00    0.0
2262 419868   47.833947634    7.596173080   284.2004   6   9   0.9820   0.6993   2.5434  -0.5902   0.7723  -0.9688   0.00    0.0
2262 419869   47.833947653    7.596173056   284.1950   6   9   0.9795   0.6973   2.5347  -0.5884   0.7711  -0.9657   0.00    0.0
2262 419870   47.833947635    7.596173098   284.1727   6   9   0.9770   0.6952   2.5260  -0.5867   0.7700  -0.9625   0.00    0.0
2262 419871   47.833947664    7.596173109   284.1548   6   9   0.9745   0.6932   2.5175  -0.5851   0.7688  -0.9594   0.00    0.0
2262 419872   47.833947644    7.596173147   284.1512   6   9   0.9720   0.6912   2.5090  -0.5834   0.7677  -0.9564   0.00    0.0
2262 419873   47.833947635    7.596173205   284.1308   6   9   0.9695   0.6892   2.5006  -0.5817   0.7665  -0.9533   0.00    0.0
2262 419874   47.833947575    7.596173293   284.1153   6   9   0.9670   0.6873   2.4924  -0.5801   0.7654  -0.9503   0.00    0.0
2262 419875   47.833947535    7.596173301   284.1138   6   9   0.9646   0.6853   2.4842  -0.5784   0.7642  -0.9473   0.00    0.0
2262 419876   47.833947465    7.596173273   284.1221   6   9   0.9622   0.6834   2.4761  -0.5768   0.7630  -0.9444   0.00    0.0
2262 419877   47.833947493    7.596173289   284.1028   6   9   0.9598   0.6815   2.4681  -0.5752   0.7619  -0.9414   0.00    0.0
2262 419878   47.833947425    7.596173322   284.1002   6   9   0.9574   0.6796   2.4601  -0.5736   0.7607  -0.9385   0.00    0.0
2262 419879   47.833947412    7.596173311   284.1077   6   9   0.9551   0.6778   2.4523  -0.5721   0.7595  -0.9356   0.00    0.0
2262 419880   47.833947291    7.596173372   284.1135   6  10   0.9522   0.6759   2.4445  -0.5703   0.7583  -0.9325   0.00    0.0
2262 419881   47.833947183    7.596173506   284.0948   6  10   0.9493   0.6740   2.4367  -0.5686   0.7571  -0.9295   0.00    0.0
2262 419882   47.833947112    7.596173549   284.0772   6  10   0.9464   0.6722   2.4291  -0.5669   0.7559  -0.9264   0.00    0.0
2262 419883   47.833947028    7.596173600   284.0736   6  10   0.9436   0.6703   2.4215  -0.5652   0.7546  -0.9234   0.00    0.0
2262 419884   47.833946982    7.596173631   284.0710   6  10   0.9408   0.6685   2.4140  -0.5636   0.7534  -0.9205   0.00    0.0
2262 419885   47.833946983    7.596173685   284.0586   6  10   0.9380   0.6667   2.4066  -0.5619   0.7522  -0.9175   0.00    0.0
2262 419886   47.833946978    7.596173733   284.0357   6  10   0.9352   0.6649   2.3993  -0.5603   0.7510  -0.9146   0.00    0.0
2262 419887   47.833946789    7.596173788   284.0326   6  10   0.9325   0.6631   2.3920  -0.5586   0.7498  -0.9117   0.00    0.0
2262 419888   47.833946755    7.596173828   284.0302   6  10   0.9298   0.6614   2.3848  -0.5570   0.7486  -0.9088   0.00    0.0
2262 419889   47.833946749    7.596173853   284.0178   6  10   0.9271   0.6596   2.3777  -0.5554   0.7474  -0.9060   0.00    0.0
2262 419890   47.833946798    7.596173793   284.0181   6  10   0.9244   0.6579   2.3706  -0.5538   0.7461  -0.9032   0.00    0.0
2262 419891   47.833946638    7.596173765   284.0186   6  10   0.9218   0.6562   2.3636  -0.5523   0.7449  -0.9004   0.00    0.0
2262 419892   47.833946530    7.596173767   284.0191   6  10   0.9191   0.6545   2.3567  -0.5507   0.7437  -0.8976   0.00    0.0
2262 419893   47.833946533    7.596173818   284.0071   6  10   0.9165   0.6528   2.3498  -0.5492   0.7425  -0.8949   0.00    0.0
2262 419894   47.833946558    7.596173727   284.0157   6  10   0.9140   0.6511   2.3430  -0.5476   0.7413  -0.8922   0.00    0.0
2262 419895   47.833946413    7.596173757   284.0114   6  10   0.9114   0.6495   2.3363  -0.5461   0.7401  -0.8895   0.00    0.0
2262 419896   47.833946417    7.596173753   284.0080   6  10   0.9089   0.6478   2.3296  -0.5446   0.7390  -0.8869   0.00    0.0
2262 419897   47.833946286    7.596173813   284.0072   6  10   0.9064   0.6462   2.3230  -0.5431   0.7378  -0.8842   0.00    0.0
2262 419898   47.833946179    7.596173812   283.9913   6  10   0.9039   0.6446   2.3164  -0.5416   0.7366  -0.8816   0.00    0.0
2262 419899   47.833946140    7.596173817   283.9763   6  10   0.9014   0.6430   2.3100  -0.5402   0.7354  -0.8790   0.00    0.0
2262 419900   47.833946129    7.596173712   283.9671   6  10   0.8990   0.6414   2.3035  -0.5387   0.7342  -0.8765   0.00    0.0
2262 419901   47.833946091    7.596173725   283.9718   6  10   0.8965   0.6398   2.2971  -0.5373   0.7330  -0.8739   0.00    0.0
2262 419902   47.833946035    7.596173722   283.9655   6  10   0.8941   0.6382   2.2908  -0.5358   0.7319  -0.8714   0.00    0.0
2262 419903   47.833945928    7.596173696   283.9740   6  10   0.8917   0.6367   2.2846  -0.5344   0.7307  -0.8689   0.00    0.0
2262 419904   47.833945861    7.596173722   283.9718   6  10   0.8894   0.6351   2.2784  -0.5330   0.7295  -0.8664   0.00    0.0
2262 419905   47.833945932    7.596173662   283.9620   6  10   0.8870   0.6336   2.2722  -0.5316   0.7284  -0.8639   0.00    0.0
2262 419906   47.833945933    7.596173591   283.9527   6  10   0.8847   0.6321   2.2661  -0.5302   0.7272  -0.8615   0.00    0.0
2262 419907   47.833945917    7.596173549   283.9550   6  10   0.8824   0.6305   2.2601  -0.5288   0.7260  -0.8591   0.00    0.0
2262 419908   47.833945893    7.596173564   283.9554   6  10   0.8801   0.6290   2.2541  -0.5274   0.7249  -0.8567   0.00    0.0
2262 419909   47.833945881    7.596173542   283.9471   6  10   0.8778   0.6276   2.2481  -0.5261   0.7237  -0.8543   0.00    0.0
2262 419910   47.833945896    7.596173519   283.9358   6  10   0.8755   0.6261   2.2422  -0.5247   0.7226  -0.8519   0.00    0.0
2262 419911   47.833945918    7.596173489   283.9375   6  10   0.8733   0.6246   2.2364  -0.5234   0.7214  -0.8496   0.00    0.0
2262 419912   47.833945901    7.596173478   283.9338   6  10   0.8711   0.6232   2.2306  -0.5221   0.7203  -0.8473   0.00    0.0
2262 419913   47.833945906    7.596173469   283.9244   6  10   0.8689   0.6217   2.2249  -0.5208   0.7192  -0.8450   0.00    0.0
2262 419914   47.833945899    7.596173429   283.9079   6  10   0.8667   0.6203   2.2192  -0.5195   0.7180  -0.8427   0.00    0.0
2262 419915   47.833945868    7.596173452   283.8985   6  10   0.8645   0.6188   2.2135  -0.5182   0.7169  -0.8404   0.00    0.0
2262 419916   47.833945891    7.596173463   283.8873   6  10   0.8623   0.6174   2.2079  -0.5169   0.7158  -0.8382   0.00    0.0
2262 419917   47.833945917    7.596173437   283.8803   6  10   0.8602   0.6160   2.2023  -0.5156   0.7147  -0.8360   0.00    0.0
2262 419918   47.833945946    7.596173343   283.8707   6  10   0.8581   0.6146   2.1968  -0.5143   0.7135  -0.8337   0.00    0.0
2262 419919   47.833945947    7.596173255   283.8722   6  10   0.8560   0.6132   2.1914  -0.5131   0.7124  -0.8315   0.00    0.0
2262 419920   47.833945941    7.596173215   283.8665   6  10   0.8539   0.6119   2.1859  -0.5118   0.7113  -0.8294   0.00    0.0
2262 419921   47.833945939    7.596173223   283.8535   6  10   0.8518   0.6105   2.1805  -0.5106   0.7102  -0.8272   0.00    0.0
2262 419922   47.833945932    7.596173241   283.8527   6  10   0.8497   0.6091   2.1752  -0.5094   0.7091  -0.8251   0.00    0.0
2262 419923   47.833945889    7.596173190   283.8547   6  10   0.8477   0.6078   2.1699  -0.5081   0.7080  -0.8229   0.00    0.0
2262 419924   47.833945830    7.596173122   283.8519   6  10   0.8456   0.6065   2.1647  -0.5069   0.7069  -0.8208   0.00    0.0
2262 419925   47.833945861    7.596173079   283.8485   6  10   0.8436   0.6051   2.1594  -0.5057   0.7058  -0.8187   0.00    0.0
2262 419926   47.833945852    7.596173106   283.8355   6  10   0.8416   0.6038   2.1543  -0.5045   0.7047  -0.8166   0.00    0.0
2262 419927   47.833945859    7.596173089   283.8203   6  10   0.8396   0.6025   2.1491  -0.5033   0.7037  -0.8146   0.00    0.0
2262 419928   47.833945807    7.596173058   283.8231   6  10   0.8376   0.6012   2.1440  -0.5022   0.7026  -0.8125   0.00    0.0
2262 419929   47.833945731    7.596173050   283.8125   6  10   0.8357   0.5999   2.1390  -0.5010   0.7015  -0.8105   0.00    0.0
2262 419930   47.833945657    7.596173037   283.8131   6  10   0.8337   0.5986   2.1340  -0.4998   0.7004  -0.8085   0.00    0.0
2262 419931   47.833945646    7.596172998   283.8150   6  10   0.8318   0.5973   2.1290  -0.4987   0.6994  -0.8065   0.00    0.0
2262 419932   47.833945617    7.596172939   283.8182   6  10   0.8299   0.5961   2.1240  -0.4975   0.6983  -0.8045   0.00    0.0
2262 419933   47.833945608    7.596172953   283.8051   6  10   0.8280   0.5948   2.1191  -0.4964   0.6972  -0.8025   0.00    0.0
2262 419934   47.833945632    7.596172909   283.7917   6  10   0.8261   0.5936   2.1142  -0.4953   0.6962  -0.8006   0.00    0.0
2262 419935   47.833945641    7.596172912   283.7786   6  10   0.8242   0.5923   2.1094  -0.4941   0.6951  -0.7986   0.00    0.0
2262 419936   47.833945598    7.596172932   283.7595   6  10   0.8223   0.5911   2.1046  -0.4930   0.6941  -0.7967   0.00    0.0
2262 419937   47.833945616    7.596172860   283.7475   6  10   0.8205   0.5899   2.0998  -0.4919   0.6930  -0.7948   0.00    0.0
2262 419938   47.833945671    7.596172832   283.7519   6  10   0.8186   0.5886   2.0951  -0.4908   0.6920  -0.7929   0.00    0.0
2262 419939   47.833945667    7.596172809   283.7542   6  10   0.8168   0.5874   2.0904  -0.4897   0.6909  -0.7910   0.00    0.0
2262 419940   47.833945599    7.596172756   283.7529   6  10   0.8150   0.5862   2.0858  -0.4887   0.6899  -0.7891   0.00    0.0
2262 419941   47.833945644    7.596172719   283.7425   6  10   0.8132   0.5850   2.0811  -0.4876   0.6889  -0.7872   0.00    0.0
2262 419942   47.833945641    7.596172702   283.7376   6  10   0.8114   0.5838   2.0765  -0.4865   0.6879  -0.7854   0.00    0.0
2262 419943   47.833945628    7.596172646   283.7315   6  10   0.8096   0.5827   2.0720  -0.4854   0.6868  -0.7835   0.00    0.0
2262 419944   47.833945623    7.596172633   283.7226   6  10   0.8078   0.5815   2.0674  -0.4844   0.6858  -0.7817   0.00    0.0
2262 419945   47.833945581    7.596172592   283.7015   6  10   0.8061   0.5803   2.0629  -0.4833   0.6848  -0.7799   0.00    0.0
2262 419946   47.833945596    7.596172530   283.7003   6  10   0.8043   0.5792   2.0585  -0.4823   0.6838  -0.7781   0.00    0.0
2262 419947   47.833945651    7.596172483   283.6895   6  10   0.8026   0.5780   2.0540  -0.4813   0.6828  -0.7763   0.00    0.0
2262 419948   47.833945612    7.596172471   283.6766   6  10   0.8009   0.5769   2.0496  -0.4802   0.6818  -0.7745   0.00    0.0
2262 419949   47.833945678    7.596172408   283.6736   6  10   0.7992   0.5757   2.0453  -0.4792   0.6808  -0.7728   0.00    0.0
2262 419950   47.833945658    7.596172388   283.6664   6  10   0.7974   0.5746   2.0409  -0.4782   0.6798  -0.7710   0.00    0.0
2262 419951   47.833945666    7.596172445   283.6498   6  10   0.7958   0.5735   2.0366  -0.4772   0.6788  -0.7693   0.00    0.0
2262 419952   47.833945616    7.596172450   283.6445   6  10   0.7941   0.5724   2.0323  -0.4762   0.6778  -0.7675   0.00    0.0
2262 419953   47.833945660    7.596172382   283.6372   6  10   0.7924   0.5713   2.0281  -0.4752   0.6768  -0.7658   0.00    0.0
2262 419954   47.833945640    7.596172312   283.6416   6  10   0.7907   0.5702   2.0238  -0.4742   0.6758  -0.7641   0.00    0.0
2262 419955   47.833945505    7.596172327   283.6416   6  10   0.7891   0.5691   2.0196  -0.4732   0.6749  -0.7624   0.00    0.0
2262 419956   47.833945493    7.596172274   283.6339   6  10   0.7875   0.5680   2.0155  -0.4722   0.6739  -0.7607   0.00    0.0
2262 419957   47.833945483    7.596172292   283.6239   6  10   0.7858   0.5669   2.0113  -0.4713   0.6729  -0.7591   0.00    0.0
2262 419958   47.833945429    7.596172288   283.6185   6  10   0.7842   0.5658   2.0072  -0.4703   0.6720  -0.7574   0.00    0.0
2262 419959   47.833945421    7.596172233   283.6151   6  10   0.7826   0.5647   2.0031  -0.4694   0.6710  -0.7558   0.00    0.0
2262 419960   47.833945494    7.596172205   283.6155   6  10   0.7810   0.5637   1.9990  -0.4684   0.6700  -0.7541   0.00    0.0
2262 419961   47.833945448    7.596172141   283.6252   6  10   0.7794   0.5626   1.9950  -0.4675   0.6691  -0.7525   0.00    0.0
2262 419962   47.833945409    7.596172124   283.6212   6  10   0.7778   0.5616   1.9910  -0.4665   0.6681  -0.7509   0.00    0.0
2262 419963   47.833945383    7.596172110   283.6117   6  10   0.7763   0.5605   1.9870  -0.4656   0.6672  -0.7493   0.00    0.0
2262 419964   47.833945368    7.596172087   283.6097   6  10   0.7747   0.5595   1.9830  -0.4646   0.6662  -0.7477   0.00    0.0
2262 419965   47.833945413    7.596172079   283.6018   6  10   0.7732   0.5584   1.9791  -0.4637   0.6653  -0.7461   0.00    0.0
2262 419966   47.833945466    7.596171984   283.5979   6  10   0.7716   0.5574   1.9752  -0.4628   0.6644  -0.7445   0.00    0.0
2262 419967   47.833945434    7.596172010   283.5913   6  10   0.7701   0.5564   1.9713  -0.4619   0.6634  -0.7429   0.00    0.0
2262 419968   47.833945387    7.596172006   283.5973   6  10   0.7686   0.5554   1.9674  -0.4610   0.6625  -0.7414   0.00    0.0
2262 419969   47.833945419    7.596171995   283.5958   6  10   0.7671   0.5544   1.9636  -0.4601   0.6616  -0.7398   0.00    0.0
2262 419970   47.833945377    7.596171971   283.5975   6  10   0.7656   0.5534   1.9598  -0.4592   0.6606  -0.7383   0.00    0.0
2262 419971   47.833945417    7.596171901   283.5917   6  10   0.7641   0.5524   1.9560  -0.4583   0.6597  -0.7367   0.00    0.0
2262 419972   47.833945454    7.596171868   283.5893   6  10   0.7626   0.5514   1.9522  -0.4574   0.6588  -0.7352   0.00    0.0
2262 419973   47.833945523    7.596171841   283.5811   6  10   0.7611   0.5504   1.9485  -0.4565   0.6579  -0.7337   0.00    0.0
2262 419974   47.833945517    7.596171850   283.5818   6  10   0.7596   0.5494   1.9448  -0.4556   0.6570  -0.7322   0.00    0.0
2262 419975   47.833945539    7.596171811   283.5866   6  10   0.7582   0.5484   1.9411  -0.4548   0.6561  -0.7307   0.00    0.0
2262 419976   47.833945596    7.596171782   283.5843   6  10   0.7567   0.5475   1.9374  -0.4539   0.6552  -0.7292   0.00    0.0
2262 419977   47.833945604    7.596171745   283.5766   6  10   0.7553   0.5465   1.9338  -0.4531   0.6543  -0.7277   0.00    0.0
2262 419978   47.833945554    7.596171789   283.5716   6  10   0.7538   0.5455   1.9301  -0.4522   0.6534  -0.7263   0.00    0.0
2262 419979   47.833945581    7.596171696   283.5765   6  10   0.7524   0.5446   1.9265  -0.4513   0.6525  -0.7248   0.00    0.0
2262 419980   47.833945557    7.596171686   283.5730   6  10   0.7510   0.5436   1.9229  -0.4505   0.6516  -0.7234   0.00    0.0
2262 419981   47.833945558    7.596171661   283.5786   6  10   0.7496   0.5427   1.9194  -0.4497   0.6507  -0.7219   0.00    0.0
2262 419982   47.833945606    7.596171649   283.5791   6  10   0.7482   0.5417   1.9158  -0.4488   0.6499  -0.7205   0.00    0.0
2262 419983   47.833945636    7.596171651   283.5686   6  10   0.7468   0.5408   1.9123  -0.4480   0.6490  -0.7191   0.00    0.0
2262 419984   47.833945614    7.596171634   283.5720   6  10   0.7454   0.5399   1.9088  -0.4472   0.6481  -0.7177   0.00    0.0
2262 419985   47.833945661    7.596171578   283.5731   6  10   0.7440   0.5389   1.9053  -0.4463   0.6472  -0.7162   0.00    0.0
2262 419986   47.833945651    7.596171492   283.5792   6  10   0.7427   0.5380   1.9019  -0.4455   0.6464  -0.7148   0.00    0.0
2262 419987   47.833945761    7.596171428   283.5724   6  10   0.7413   0.5371   1.8984  -0.4447   0.6455  -0.7135   0.00    0.0
2262 419988   47.833945768    7.596171432   283.5692   6  10   0.7399   0.5362   1.8950  -0.4439   0.6446  -0.7121   0.00    0.0
2262 419989   47.833945755    7.596171380   283.5650   6  10   0.7386   0.5353   1.8916  -0.4431   0.6438  -0.7107   0.00    0.0
2262 419990   47.833945710    7.596171325   283.5669   6  10   0.7372   0.5344   1.8882  -0.4423   0.6429  -0.7093   0.00    0.0
2262 419991   47.833945724    7.596171294   283.5535   6  10   0.7359   0.5335   1.8849  -0.4415   0.6421  -0.7080   0.00    0.0
2262 419992   47.833945712    7.596171251   283.5541   6  10   0.7346   0.5326   1.8815  -0.4407   0.6412  -0.7066   0.00    0.0
2262 419993   47.833945791    7.596171224   283.5550   6  10   0.7333   0.5317   1.8782  -0.4399   0.6404  -0.7053   0.00    0.0
2262 419994   47.833945746    7.596171256   283.5539   6  10   0.7320   0.5308   1.8749  -0.4391   0.6395  -0.7039   0.00    0.0
2262 419995   47.833945748    7.596171250   283.5554   6  10   0.7307   0.5300   1.8716  -0.4384   0.6387  -0.7026   0.00    0.0
2262 419996   47.833945773    7.596171192   283.5558   6  10   0.7294   0.5291   1.8683  -0.4376   0.6379  -0.7013   0.00    0.0
2262 419997   47.833945785    7.596171159   283.5520   6  10   0.7281   0.5282   1.8651  -0.4368   0.6370  -0.7000   0.00    0.0
2262 419998   47.833945766    7.596171110   283.5485   6  10   0.7268   0.5273   1.8619  -0.4361   0.6362  -0.6986   0.00    0.0
2262 419999   47.833945798    7.596171076   283.5447   6  10   0.7255   0.5265   1.8587  -0.4353   0.6354  -0.6973   0.00    0.0
2262 420000   47.833945784    7.596171099   283.5394   6  11   0.7242   0.5256   1.8554  -0.4345   0.6346  -0.6960   0.00    0.0
2262 420001   47.833945809    7.596171081   283.5413   6  11   0.7230   0.5247   1.8522  -0.4338   0.6338  -0.6947   0.00    0.0
2262 420002   47.833945766    7.596171086   283.5480   6  11   0.7217   0.5238   1.8491  -0.4331   0.6331  -0.6935   0.00    0.0
2262 420003   47.833945794    7.596171085   283.5500   6  11   0.7205   0.5229   1.8459  -0.4323   0.6323  -0.6922   0.00    0.0
2262 420004   47.833945809    7.596171070   283.5525   6  11   0.7192   0.5220   1.8427  -0.4316   0.6315  -0.6909   0.00    0.0
2262 420005   47.833945793    7.596171068   283.5527   6  11   0.7180   0.5211   1.8396  -0.4309   0.6308  -0.6896   0.00    0.0
2262 420006   47.833945783    7.596171074   283.5466   6  11   0.7167   0.5202   1.8365  -0.4302   0.6300  -0.6884   0.00    0.0
2262 420007   47.833945856    7.596171063   283.5361   6  11   0.7155   0.5193   1.8334  -0.4294   0.6293  -0.6871   0.00    0.0
2262 420008   47.833945841    7.596171071   283.5396   6  11   0.7143   0.5185   1.8303  -0.4287   0.6285  -0.6859   0.00    0.0
2262 420009   47.833945826    7.596171094   283.5479   6  11   0.7131   0.5176   1.8273  -0.4280   0.6278  -0.6846   0.00    0.0
2262 420010   47.833945782    7.596171069   283.5515   6  12   0.7112   0.5164   1.8226  -0.4266   0.6259  -0.6817   0.00    0.0
2262 420011   47.833945788    7.596171051   283.5471   6  12   0.7094   0.5152   1.8180  -0.4253   0.6240  -0.6788   0.00    0.0
2262 420012   47.833945766    7.596171044   283.5420   6  12   0.7076   0.5140   1.8135  -0.4239   0.6222  -0.6759   0.00    0.0
2262 420013   47.833945729    7.596171026   283.5345   6  12   0.7058   0.5129   1.8089  -0.4226   0.6204  -0.6731   0.00    0.0
2262 420014   47.833945736    7.596170980   283.5299   6  12   0.7040   0.5117   1.8044  -0.4213   0.6186  -0.6702   0.00    0.0
2262 420015   47.833945726    7.596170990   283.5265   6  12   0.7022   0.5106   1.8000  -0.4200   0.6168  -0.6674   0.00    0.0
2262 420016   47.833945685    7.596170986   283.5232   6  12   0.7004   0.5094   1.7956  -0.4187   0.6150  -0.6647   0.00    0.0
2262 420017   47.833945678    7.596170991   283.5203   6  12   0.6987   0.5083   1.7912  -0.4174   0.6132  -0.6619   0.00    0.0
2262 420018   47.833945672    7.596171023   283.5002   6  12   0.6969   0.5071   1.7869  -0.4161   0.6115  -0.6592   0.00    0.0
2262 420019   47.833945692    7.596171042   283.4929   6  12   0.6952   0.5060   1.7826  -0.4148   0.6098  -0.6565   0.00    0.0
2262 420020   47.833945686    7.596171090   283.4808   6  12   0.6935   0.5049   1.7783  -0.4136   0.6081  -0.6538   0.00    0.0
2262 420021   47.833945654    7.596171104   283.4727   6  12   0.6918   0.5038   1.7741  -0.4124   0.6064  -0.6512   0.00    0.0
2262 420022   47.833945674    7.596171069   283.4698   6  12   0.6901   0.5027   1.7699  -0.4111   0.6047  -0.6486   0.00    0.0
2262 420023   47.833945718    7.596171080   283.4688   6  12   0.6885   0.5016   1.7657  -0.4099   0.6030  -0.6460   0.00    0.0
2262 420024   47.833945676    7.596171124   283.4670   6  12   0.6868   0.5005   1.7616  -0.4087   0.6014  -0.6434   0.00    0.0
2262 420025   47.833945664    7.596171147   283.4687   6  12   0.6852   0.4995   1.7575  -0.4075   0.5997  -0.6409   0.00    0.0
2262 420026   47.833945707    7.596171147   283.4615   6  12   0.6835   0.4984   1.7534  -0.4063   0.5981  -0.6383   0.00    0.0
2262 420027   47.833945747    7.596171125   283.4629   6  12   0.6819   0.4973   1.7494  -0.4051   0.5965  -0.6358   0.00    0.0
2262 420028   47.833945770    7.596171117   283.4574   6  12   0.6803   0.4963   1.7454  -0.4039   0.5949  -0.6334   0.00    0.0
2262 420029   47.833945829    7.596171114   283.4485   6  12   0.6787   0.4953   1.7414  -0.4028   0.5933  -0.6309   0.00    0.0
2262 420030   47.833945915    7.596171105   283.4448   6  12   0.6771   0.4942   1.7374  -0.4016   0.5918  -0.6285   0.00    0.0
2262 420031   47.833945914    7.596171152   283.4347   6  12   0.6756   0.4932   1.7335  -0.4005   0.5902  -0.6260   0.00    0.0
2262 420032   47.833945952    7.596171157   283.4249   6  12   0.6740   0.4922   1.7296  -0.3993   0.5887  -0.6236   0.00    0.0
2262 420033   47.833945981    7.596171150   283.4189   6  12   0.6725   0.4911   1.7258  -0.3982   0.5872  -0.6213   0.00    0.0
2262 420034   47.833946002    7.596171141   283.4167   6  12   0.6709   0.4901   1.7220  -0.3971   0.5857  -0.6189   0.00    0.0
2262 420035   47.833945979    7.596171132   283.4236   6  12   0.6694   0.4891   1.7182  -0.3960   0.5842  -0.6166   0.00    0.0
2262 420036   47.833945980    7.596171094   283.4297   6  12   0.6679   0.4881   1.7144  -0.3949   0.5827  -0.6143   0.00    0.0
2262 420037   47.833946018    7.596171072   283.4253   6  12   0.6664   0.4871   1.7107  -0.3938   0.5812  -0.6120   0.00    0.0
2262 420038   47.833945969    7.596171078   283.4223   6  12   0.6649   0.4862   1.7070  -0.3927   0.5797  -0.6097   0.00    0.0
2262 420039   47.833945987    7.596171079   283.4185   6  12   0.6634   0.4852   1.7033  -0.3916   0.5783  -0.6074   0.00    0.0
2262 420040   47.833945985    7.596171071   283.4122   6  12   0.6619   0.4842   1.6996  -0.3906   0.5768  -0.6052   0.00    0.0
2262 420041   47.833946040    7.596171055   283.4064   6  12   0.6605   0.4832   1.6960  -0.3895   0.5754  -0.6030   0.00    0.0
2262 420042   47.833946098    7.596171027   283.4044   6  12   0.6590   0.4823   1.6924  -0.3884   0.5740  -0.6008   0.00    0.0
2262 420043   47.833946140    7.596171014   283.3943   6  12   0.6576   0.4813   1.6888  -0.3874   0.5726  -0.5986   0.00    0.0
2262 420044   47.833946164    7.596171012   283.3897   6  12   0.6562   0.4804   1.6853  -0.3864   0.5712  -0.5964   0.00    0.0
2262 420045   47.833946166    7.596170988   283.3892   6  12   0.6547   0.4794   1.6818  -0.3853   0.5698  -0.5943   0.00    0.0
2262 420046   47.833946177    7.596170967   283.3864   6  12   0.6533   0.4785   1.6783  -0.3843   0.5684  -0.5922   0.00    0.0
2262 420047   47.833946157    7.596170988   283.3825   6  12   0.6519   0.4776   1.6748  -0.3833   0.5671  -0.5901   0.00    0.0
2262 420048   47.833946243    7.596170971   283.3849   6  12   0.6505   0.4766   1.6713  -0.3823   0.5657  -0.5880   0.00    0.0
2262 420049   47.833946269    7.596170958   283.3837   6  12   0.6492   0.4757   1.6679  -0.3813   0.5644  -0.5859   0.00    0.0
2262 420050   47.833946313    7.596170938   283.3792   6  12   0.6478   0.4748   1.6645  -0.3803   0.5630  -0.5838   0.00    0.0
2262 420051   47.833946375    7.596170925   283.3790   6  12   0.6464   0.4739   1.6611  -0.3793   0.5617  -0.5818   0.00    0.0
2262 420052   47.833946388    7.596170918   283.3743   6  12   0.6451   0.4730   1.6578  -0.3783   0.5604  -0.5797   0.00    0.0
2262 420053   47.833946425    7.596170904   283.3703   6  12   0.6437   0.4721   1.6545  -0.3774   0.5591  -0.5777   0.00    0.0
2262 420054   47.833946462    7.596170887   283.3695   6  12   0.6424   0.4712   1.6511  -0.3764   0.5578  -0.5757   0.00    0.0
2262 420055   47.833946488    7.596170870   283.3712   6  12   0.6411   0.4703   1.6479  -0.3755   0.5565  -0.5737   0.00    0.0
2262 420056   47.833946524    7.596170895   283.3631   6  12   0.6398   0.4694   1.6446  -0.3745   0.5553  -0.5718   0.00    0.0
2262 420057   47.833946600    7.596170899   283.3582   6  12   0.6385   0.4686   1.6414  -0.3736   0.5540  -0.5698   0.00    0.0
2262 420058   47.833946636    7.596170918   283.3574   6  12   0.6372   0.4677   1.6381  -0.3726   0.5528  -0.5679   0.00    0.0
2262 420059   47.833946664    7.596170894   283.3548   6  12   0.6359   0.4668   1.6349  -0.3717   0.5515  -0.5660   0.00    0.0
2262 420060   47.833946665    7.596170923   283.3609   6  13   0.6346   0.4659   1.6307  -0.3708   0.5499  -0.5641   0.00    0.0
2262 420061   47.833946678    7.596170930   283.3519   6  13   0.6333   0.4650   1.6266  -0.3699   0.5484  -0.5622   0.00    0.0
2262 420062   47.833946717    7.596170939   283.3504   6  13   0.6320   0.4641   1.6224  -0.3689   0.5468  -0.5603   0.00    0.0
2262 420063   47.833946717    7.596170963   283.3531   6  13   0.6308   0.4632   1.6183  -0.3680   0.5453  -0.5584   0.00    0.0
2262 420064   47.833946703    7.596170949   283.3456   6  13   0.6295   0.4623   1.6143  -0.3671   0.5437  -0.5565   0.00    0.0
2262 420065   47.833946753    7.596170942   283.3397   6  13   0.6283   0.4615   1.6103  -0.3662   0.5422  -0.5547   0.00    0.0
2262 420066   47.833946784    7.596170960   283.3383   6  13   0.6271   0.4606   1.6063  -0.3654   0.5407  -0.5529   0.00    0.0
2262 420067   47.833946794    7.596170979   283.3422   6  13   0.6258   0.4597   1.6023  -0.3645   0.5392  -0.5511   0.00    0.0
2262 420068   47.833946804    7.596170975   283.3458   6  13   0.6246   0.4588   1.5983  -0.3636   0.5377  -0.5493   0.00    0.0
2262 420069   47.833946804    7.596171008   283.3556   6  13   0.6234   0.4580   1.5944  -0.3627   0.5362  -0.5475   0.00    0.0
2262 420070   47.833946787    7.596171010   283.3547   6  13   0.6222   0.4571   1.5906  -0.3619   0.5348  -0.5458   0.00    0.0
2262 420071   47.833946803    7.596171003   283.3603   6  13   0.6210   0.4563   1.5867  -0.3610   0.5333  -0.5440   0.00    0.0
2262 420072   47.833946847    7.596171038   283.3645   6  13   0.6198   0.4554   1.5829  -0.3602   0.5319  -0.5423   0.00    0.0
2262 420073   47.833946800    7.596171047   283.3695   6  13   0.6186   0.4546   1.5791  -0.3593   0.5305  -0.5406   0.00    0.0
2262 420074   47.833946816    7.596171003   283.3675   6  13   0.6174   0.4538   1.5754  -0.3585   0.5291  -0.5389   0.00    0.0
2262 420075   47.833946881    7.596170970   283.3720   6  13   0.6163   0.4529   1.5716  -0.3577   0.5277  -0.5372   0.00    0.0
2262 420076   47.833946939    7.596170951   283.3797   6  13   0.6151   0.4521   1.5679  -0.3568   0.5263  -0.5355   0.00    0.0
2262 420077   47.833946916    7.596170955   283.3809   6  13   0.6140   0.4513   1.5643  -0.3560   0.5249  -0.5338   0.00    0.0
2262 420078   47.833946906    7.596170984   283.3802   6  13   0.6128   0.4505   1.5606  -0.3552   0.5235  -0.5322   0.00    0.0
2262 420079   47.833946935    7.596170958   283.3810   6  13   0.6117   0.4497   1.5570  -0.3544   0.5222  -0.5306   0.00    0.0
2262 420080   47.833946866    7.596170978   283.3938   6  13   0.6105   0.4488   1.5534  -0.3536   0.5208  -0.5289   0.00    0.0
2262 420081   47.833946818    7.596170971   283.4020   6  13   0.6094   0.4480   1.5499  -0.3528   0.5195  -0.5273   0.00    0.0
2262 420082   47.833946774    7.596171067   283.4014   6  13   0.6083   0.4472   1.5463  -0.3520   0.5181  -0.5257   0.00    0.0
2262 420083   47.833946793    7.596171068   283.3975   6  13   0.6072   0.4465   1.5428  -0.3512   0.5168  -0.5241   0.00    0.0
2262 420084   47.833946787    7.596171091   283.3943   6  13   0.6061   0.4457   1.5393  -0.3504   0.5155  -0.5226   0.00    0.0
2262 420085   47.833946819    7.596171111   283.4095   6  13   0.6050   0.4449   1.5359  -0.3496   0.5142  -0.5210   0.00    0.0
2262 420086   47.833946838    7.596171137   283.4102   6  13   0.6039   0.4441   1.5324  -0.3489   0.5129  -0.5195   0.00    0.0
2262 420087   47.833946864    7.596171140   283.4086   6  13   0.6028   0.4433   1.5290  -0.3481   0.5117  -0.5179   0.00    0.0
2262 420088   47.833946882    7.596171126   283.4131   6  13   0.6017   0.4426   1.5257  -0.3473   0.5104  -0.5164   0.00    0.0
2262 420089   47.833946876    7.596171128   283.4145   6  13   0.6006   0.4418   1.5223  -0.3466   0.5091  -0.5149   0.00    0.0
2262 420090   47.833946934    7.596171158   283.4114   6  13   0.5995   0.4410   1.5190  -0.3458   0.5079  -0.5134   0.00    0.0
2262 420091   47.833946961    7.596171160   283.4104   6  13   0.5985   0.4403   1.5156  -0.3451   0.5066  -0.5119   0.00    0.0
2262 420092   47.833946952    7.596171191   283.4085   6  13   0.5974   0.4395   1.5124  -0.3443   0.5054  -0.5104   0.00    0.0
2262 420093   47.833946994    7.596171226   283.4054   6  13   0.5964   0.4388   1.5091  -0.3436   0.5042  -0.5090   0.00    0.0
2262 420094   47.833946986    7.596171244   283.3968   6  13   0.5953   0.4380   1.5058  -0.3429   0.5030  -0.5075   0.00    0.0
2262 420095   47.833947000    7.596171234   283.4010   6  13   0.5943   0.4373   1.5026  -0.3421   0.5018  -0.5061   0.00    0.0
2262 420096   47.833946999    7.596171248   283.4018   6  13   0.5932   0.4365   1.4994  -0.3414   0.5006  -0.5046   0.00    0.0
2262 420097   47.833946992    7.596171265   283.4080   6  13   0.5922   0.4358   1.4962  -0.3407   0.4994  -0.5032   0.00    0.0
2262 420098   47.833946982    7.596171280   283.4113   6  13   0.5912   0.4351   1.4931  -0.3400   0.4982  -0.5018   0.00    0.0
2262 420099   47.833946995    7.596171292   283.4151   6  13   0.5902   0.4343   1.4900  -0.3393   0.4970  -0.5004   0.00    0.0
2262 420100   47.833947047    7.596171333   283.4156   6  13   0.5891   0.4336   1.4868  -0.3385   0.4959  -0.4990   0.00    0.0
2262 420101   47.833947025    7.596171334   283.4192   6  13   0.5881   0.4329   1.4838  -0.3378   0.4947  -0.4976   0.00    0.0
2262 420102   47.833947063    7.596171325   283.4183   6  13   0.5871   0.4322   1.4807  -0.3371   0.4936  -0.4963   0.00    0.0
2262 420103   47.833947048    7.596171324   283.4179   6  13   0.5861   0.4315   1.4776  -0.3364   0.4924  -0.4949   0.00    0.0
2262 420104   47.833947006    7.596171378   283.4165   6  13   0.5851   0.4308   1.4746  -0.3358   0.4913  -0.4935   0.00    0.0
2262 420105   47.833946988    7.596171397   283.4138   6  13   0.5842   0.4301   1.4716  -0.3351   0.4902  -0.4922   0.00    0.0
2262 420106   47.833946942    7.596171427   283.4161   6  13   0.5832   0.4294   1.4686  -0.3344   0.4890  -0.4909   0.00    0.0
