%  GPST Time  latitude(deg) longitude(deg)  height(m)   Q  ns   sdn(m)   sde(m)   sdu(m)  sdne(m)  sdeu(m)  sdun(m) age(s)  ratio
2261 241980   47.833907451    7.596228609   279.1413   6   6  23.5003  20.2852  24.1562 -20.0528  -3.8153   7.9616   0.00    0.0
2261 241981   47.833913063    7.596221069   280.5994   6   6  17.7028  15.2294  17.8323 -15.2263  -3.2638   6.1639   0.00    0.0
2261 241982   47.833922900    7.596204046   281.3699   6   6  14.7923  12.7109  14.7854 -12.7570  -2.8411   5.2010   0.00    0.0
2261 241983   47.833930688    7.596194412   281.3564   6   6  12.9644  11.1339  12.9069 -11.1957  -2.5411   4.5812   0.00    0.0
2261 241984   47.833929357    7.596195297   281.5827   6   6  11.6803  10.0278  11.6011 -10.0949  -2.3174   4.1402   0.00    0.0
2261 241985   47.833928785    7.596195950   282.1582   6   6  10.7146   9.1967  10.6260  -9.2653  -2.1431   3.8057   0.00    0.0
2261 241986   47.833930455    7.596195056   281.9888   6   6   9.9543   8.5429   9.8621  -8.6112  -2.0027   3.5410   0.00    0.0
2261 241987   47.833929962    7.596196824   282.0988   6   6   9.3355   8.0111   9.2428  -8.0782  -1.8864   3.3246   0.00    0.0
2261 241988   47.833930374    7.596195429   282.1921   6   6   8.8192   7.5674   8.7275  -7.6332  -1.7882   3.1435   0.00    0.0
2261 241989   47.833929993    7.596195758   282.2484   6   6   8.3798   7.1901   8.2901  -7.2542  -1.7038   2.9891   0.00    0.0
2261 241990   47.833929971    7.596195107   282.2672   6   6   8.0000   6.8639   7.9128  -6.9264  -1.6303   2.8553   0.00    0.0
2261 241991   47.833930571    7.596193433   282.1617   6   6   7.6673   6.5784   7.5829  -6.6392  -1.5655   2.7379   0.00    0.0
2261 241992   47.833929822    7.596194739   282.2899   6   6   7.3728   6.3256   7.2913  -6.3849  -1.5079   2.6339   0.00    0.0
2261 241993   47.833930746    7.596193637   282.3573   6   6   7.1098   6.0998   7.0312  -6.1577  -1.4561   2.5408   0.00    0.0
2261 241994   47.833931283    7.596193302   282.4554   6   6   6.8728   5.8966   6.7972  -5.9530  -1.4094   2.4570   0.00    0.0
2261 241995   47.833932218    7.596191868   282.5172   6   6   6.6580   5.7123   6.5853  -5.7673  -1.3668   2.3809   0.00    0.0
2261 241996   47.833932643    7.596191941   282.5312   6   6   6.4620   5.5442   6.3922  -5.5979  -1.3279   2.3114   0.00    0.0
2261 241997   47.833932777    7.596191556   282.5968   6   6   6.2823   5.3900   6.2152  -5.4425  -1.2921   2.2476   0.00    0.0
2261 241998   47.833932457    7.596192151   282.4980   6   6   6.1167   5.2480   6.0523  -5.2993  -1.2590   2.1888   0.00    0.0
2261 241999   47.833932831    7.596192162   282.3674   6   6   5.9635   5.1166   5.9017  -5.1668  -1.2284   2.1344   0.00    0.0
2261 242000   47.833934017    7.596190638   282.2967   6   6   5.8212   4.9946   5.7619  -5.0437  -1.1999   2.0838   0.00    0.0
2261 242001   47.833934499    7.596190847   282.1531   6   6   5.6885   4.8808   5.6316  -4.9289  -1.1732   2.0366   0.00    0.0
2261 242002   47.833934830    7.596190093   282.1762   6   6   5.5644   4.7744   5.5100  -4.8216  -1.1483   1.9925   0.00    0.0
2261 242003   47.833934392    7.596190654   282.1429   6   6   5.4481   4.6747   5.3959  -4.7209  -1.1249   1.9511   0.00    0.0
2261 242004   47.833935139    7.596190124   282.0509   6   6   5.3387   4.5809   5.2887  -4.6263  -1.1028   1.9122   0.00    0.0
2261 242005   47.833934862    7.596190309   282.0373   6   6   5.2355   4.4925   5.1878  -4.5370  -1.0820   1.8754   0.00    0.0
2261 242006   47.833934797    7.596190696   282.0241   6   6   5.1381   4.4090   5.0925  -4.4527  -1.0624   1.8408   0.00    0.0
2261 242007   47.833935229    7.596190102   282.0099   6   6   5.0459   4.3300   5.0023  -4.3729  -1.0437   1.8079   0.00    0.0
2261 242008   47.833935839    7.596189550   281.9539   6   6   4.9584   4.2550   4.9168  -4.2972  -1.0260   1.7767   0.00    0.0
2261 242009   47.833936564    7.596188629   281.9437   6   6   4.8753   4.1838   4.8356  -4.2253  -1.0092   1.7471   0.00    0.0
2261 242010   47.833937008    7.596188129   281.9739   6   6   4.7962   4.1160   4.7584  -4.1568  -0.9931   1.7189   0.00    0.0
2261 242011   47.833937895    7.596187265   281.9341   6   6   4.7207   4.0514   4.6848  -4.0915  -0.9778   1.6920   0.00    0.0
2261 242012   47.833938142    7.596187077   281.9369   6   6   4.6487   3.9897   4.6145  -4.0291  -0.9632   1.6663   0.00    0.0
2261 242013   47.833938589    7.596187053   281.8797   6   6   4.5799   3.9307   4.5474  -3.9695  -0.9492   1.6418   0.00    0.0
2261 242014   47.833938648    7.596186891   281.8567   6   6   4.5139   3.8742   4.4832  -3.9125  -0.9358   1.6182   0.00    0.0
2261 242015   47.833938934    7.596186634   281.8141   6   6   4.4508   3.8201   4.4216  -3.8577  -0.9230   1.5957   0.00    0.0
2261 242016   47.833939078    7.596186783   281.7485   6   6   4.3901   3.7681   4.3626  -3.8052  -0.9107   1.5740   0.00    0.0
2261 242017   47.833939490    7.596186216   281.7712   6   6   4.3319   3.7182   4.3059  -3.7548  -0.8988   1.5533   0.00    0.0
2261 242018   47.833939256    7.596186559   281.7352   6   6   4.2758   3.6703   4.2514  -3.7063  -0.8874   1.5333   0.00    0.0
2261 242019   47.833939794    7.596185740   281.7100   6   6   4.2219   3.6241   4.1990  -3.6596  -0.8764   1.5140   0.00    0.0
2261 242020   47.833940916    7.596184415   281.6951   6   6   4.1699   3.5796   4.1485  -3.6146  -0.8658   1.4954   0.00    0.0
2261 242021   47.833941315    7.596183989   281.6916   6   6   4.1198   3.5366   4.0998  -3.5712  -0.8556   1.4775   0.00    0.0
2261 242022   47.833941681    7.596183640   281.6645   6   6   4.0714   3.4952   4.0528  -3.5293  -0.8457   1.4602   0.00    0.0
2261 242023   47.833941938    7.596183176   281.6798   6   6   4.0247   3.4552   4.0074  -3.4888  -0.8361   1.4435   0.00    0.0
2261 242024   47.833941899    7.596183358   281.7058   6   6   3.9795   3.4165   3.9636  -3.4497  -0.8269   1.4274   0.00    0.0
2261 242025   47.833941994    7.596183129   281.7431   6   6   3.9357   3.3790   3.9212  -3.4118  -0.8180   1.4118   0.00    0.0
2261 242026   47.833942403    7.596182412   281.7598   6   6   3.8934   3.3428   3.8801  -3.3751  -0.8093   1.3966   0.00    0.0
2261 242027   47.833943362    7.596181277   281.7699   6   6   3.8524   3.3076   3.8404  -3.3396  -0.8009   1.3820   0.00    0.0
2261 242028   47.833943594    7.596181074   281.7638   6   6   3.8126   3.2736   3.8018  -3.3052  -0.7928   1.3678   0.00    0.0
2261 242029   47.833943260    7.596181644   281.7742   6   6   3.7740   3.2406   3.7645  -3.2717  -0.7849   1.3540   0.00    0.0
2261 242030   47.833943353    7.596181473   281.8039   6   6   3.7365   3.2085   3.7282  -3.2393  -0.7772   1.3406   0.00    0.0
2261 242031   47.833943374    7.596181249   281.8121   6   6   3.7002   3.1773   3.6930  -3.2078  -0.7698   1.3276   0.00    0.0
2261 242032   47.833943633    7.596180865   281.8105   6   6   3.6648   3.1471   3.6588  -3.1771  -0.7625   1.3149   0.00    0.0
2261 242033   47.833943969    7.596180270   281.8418   6   6   3.6304   3.1176   3.6256  -3.1474  -0.7555   1.3026   0.00    0.0
2261 242034   47.833944399    7.596179542   281.8353   6   6   3.5969   3.0890   3.5932  -3.1184  -0.7486   1.2906   0.00    0.0
2261 242035   47.833944538    7.596179299   281.8268   6   6   3.5644   3.0611   3.5618  -3.0902  -0.7420   1.2790   0.00    0.0
2261 242036   47.833945135    7.596178379   281.8351   6   6   3.5327   3.0340   3.5311  -3.0627  -0.7354   1.2677   0.00    0.0
2261 242037   47.833945435    7.596177939   281.8472   6   6   3.5018   3.0075   3.5013  -3.0359  -0.7291   1.2566   0.00    0.0
2261 242038   47.833945831    7.596177488   281.8468   6   6   3.4717   2.9818   3.4723  -3.0099  -0.7229   1.2458   0.00    0.0
2261 242039   47.833946702    7.596176434   281.8525   6   7   3.3666   2.8972   3.4431  -2.9126  -0.6849   1.2130   0.00    0.0
2261 242040   47.833947403    7.596175516   281.8663   6   7   3.2707   2.8200   3.4147  -2.8239  -0.6499   1.1830   0.00    0.0
2261 242041   47.833947590    7.596175157   281.8486   6   7   3.1827   2.7491   3.3871  -2.7425  -0.6176   1.1555   0.00    0.0
2261 242042   47.833947234    7.596175556   281.8689   6   7   3.1016   2.6837   3.3603  -2.6674  -0.5875   1.1300   0.00    0.0
2261 242043   47.833947369    7.596175352   281.8774   6   7   3.0264   2.6231   3.3341  -2.5980  -0.5594   1.1064   0.00    0.0
2261 242044   47.833947715    7.596174755   281.9027   6   7   2.9566   2.5668   3.3086  -2.5335  -0.5331   1.0844   0.00    0.0
2261 242045   47.833947593    7.596174734   281.9192   6   8   2.8804   2.5019   3.2709  -2.4606  -0.4320   1.0288   0.00    0.0
2261 242046   47.833947654    7.596174432   281.9463   6   8   2.8101   2.4421   3.2349  -2.3935  -0.3191   0.9776   0.00    0.0
2261 242047   47.833947228    7.596174916   281.9332   6   8   2.7451   2.3869   3.2003  -2.3314  -0.1668   0.9302   0.00    0.0
2261 242048   47.833947304    7.596174755   281.9216   6   8   2.6847   2.3355   3.1672  -2.2739   0.1924   0.8861   0.00    0.0
2261 242049   47.833947017    7.596174981   281.9134   6   8   2.6284   2.2877   3.1352  -2.2202   0.3068   0.8450   0.00    0.0
2261 242050   47.833947183    7.596174863   281.9255   6   8   2.5757   2.2429   3.1044  -2.1701   0.3801   0.8066   0.00    0.0
2261 242051   47.833947272    7.596174649   281.9207   6   8   2.5262   2.2009   3.0747  -2.1232   0.4348   0.7705   0.00    0.0
2261 242052   47.833947029    7.596174760   281.9228   6   8   2.4797   2.1614   3.0459  -2.0791   0.4782   0.7365   0.00    0.0
2261 242053   47.833946850    7.596174867   281.9356   6   8   2.4358   2.1242   3.0181  -2.0375   0.5137   0.7045   0.00    0.0
2261 242054   47.833946880    7.596174891   281.9237   6   8   2.3943   2.0889   2.9911  -1.9983   0.5433   0.6742   0.00    0.0
2261 242055   47.833946625    7.596175141   281.9243   6   8   2.3550   2.0556   2.9650  -1.9612   0.5685   0.6455   0.00    0.0
2261 242056   47.833946542    7.596175314   281.9365   6   8   2.3176   2.0239   2.9396  -1.9260   0.5901   0.6182   0.00    0.0
2261 242057   47.833946453    7.596175296   281.9646   6   8   2.2821   1.9938   2.9150  -1.8926   0.6088   0.5922   0.00    0.0
2261 242058   47.833946367    7.596175424   281.9817   6   8   2.2483   1.9651   2.8910  -1.8609   0.6250   0.5674   0.00    0.0
2261 242059   47.833945911    7.596176062   281.9802   6   8   2.2160   1.9378   2.8677  -1.8306   0.6392   0.5437   0.00    0.0
2261 242060   47.833945987    7.596175954   281.9741   6   8   2.1852   1.9116   2.8450  -1.8017   0.6517   0.5210   0.00    0.0
2261 242061   47.833945668    7.596176218   282.0059   6   8   2.1556   1.8866   2.8229  -1.7741   0.6626   0.4992   0.00    0.0
2261 242062   47.833945553    7.596176369   281.9980   6   8   2.1273   1.8626   2.8013  -1.7477   0.6723   0.4783   0.00    0.0
2261 242063   47.833945607    7.596176331   282.0089   6   8   2.1002   1.8396   2.7803  -1.7224   0.6809   0.4581   0.00    0.0
2261 242064   47.833945841    7.596176093   282.0046   6   8   2.0741   1.8175   2.7598  -1.6982   0.6884   0.4387   0.00    0.0
2261 242065   47.833945910    7.596175934   281.9948   6   8   2.0490   1.7962   2.7398  -1.6749   0.6951   0.4198   0.00    0.0
2261 242066   47.833945708    7.596176139   281.9932   6   8   2.0248   1.7757   2.7202  -1.6525   0.7010   0.4016   0.00    0.0
2261 242067   47.833945717    7.596176113   282.0152   6   8   2.0016   1.7560   2.7011  -1.6310   0.7063   0.3839   0.00    0.0
2261 242068   47.833945813    7.596176029   282.0084   6   8   1.9791   1.7370   2.6824  -1.6103   0.7109   0.3667   0.00    0.0
2261 242069   47.833945661    7.596176276   282.0069   6   8   1.9574   1.7186   2.6642  -1.5903   0.7149   0.3500   0.00    0.0
2261 242070   47.833945265    7.596176745   282.0140   6   8   1.9365   1.7008   2.6463  -1.5710   0.7185   0.3336   0.00    0.0
2261 242071   47.833945503    7.596176391   282.0011   6   8   1.9162   1.6837   2.6288  -1.5524   0.7216   0.3176   0.00    0.0
2261 242072   47.833945515    7.596176330   282.0046   6   8   1.8966   1.6670   2.6117  -1.5344   0.7244   0.3019   0.00    0.0
2261 242073   47.833945429    7.596176309   282.0082   6   8   1.8776   1.6509   2.5949  -1.5170   0.7267   0.2864   0.00    0.0
2261 242074   47.833945354    7.596176537   281.9959   6   8   1.8592   1.6353   2.5785  -1.5002   0.7288   0.2712   0.00    0.0
2261 242075   47.833945490    7.596176362   281.9900   6   8   1.8414   1.6202   2.5624  -1.4839   0.7305   0.2561   0.00    0.0
2261 242076   47.833945438    7.596176441   281.9875   6   8   1.8241   1.6055   2.5466  -1.4681   0.7320   0.2411   0.00    0.0
2261 242077   47.833945319    7.596176673   281.9722   6   8   1.8072   1.5912   2.5312  -1.4528   0.7332   0.2261   0.00    0.0
2261 242078   47.833945272    7.596176884   281.9621   6   8   1.7909   1.5773   2.5160  -1.4380   0.7342   0.2111   0.00    0.0
2261 242079   47.833945353    7.596176875   281.9523   6   8   1.7750   1.5638   2.5011  -1.4236   0.7349   0.1959   0.00    0.0
2261 242080   47.833945549    7.596176603   281.9390   6   8   1.7595   1.5507   2.4865  -1.4096   0.7355   0.1805   0.00    0.0
2261 242081   47.833945445    7.596176766   281.9324   6   8   1.7445   1.5379   2.4721  -1.3960   0.7360   0.1648   0.00    0.0
2261 242082   47.833945639    7.596176463   281.9143   6   8   1.7298   1.5255   2.4581  -1.3828   0.7362   0.1484   0.00    0.0
2261 242083   47.833945796    7.596176345   281.9257   6   8   1.7156   1.5133   2.4442  -1.3699   0.7363   0.1312   0.00    0.0
2261 242084   47.833945988    7.596176237   281.9280   6   8   1.7016   1.5015   2.4306  -1.3574   0.7363   0.1125   0.00    0.0
2261 242085   47.833946039    7.596176135   281.9126   6   8   1.6881   1.4900   2.4173  -1.3452   0.7361   0.0915   0.00    0.0
2261 242086   47.833946073    7.596176052   281.9177   6   8   1.6748   1.4787   2.4042  -1.3333   0.7359   0.0658   0.00    0.0
2261 242087   47.833946136    7.596176051   281.9113   6   8   1.6619   1.4677   2.3913  -1.3217   0.7355   0.0228   0.00    0.0
2261 242088   47.833946211    7.596175979   281.9036   6   8   1.6493   1.4570   2.3786  -1.3105   0.7350  -0.0555   0.00    0.0
2261 242089   47.833946338    7.596175978   281.8857   6   8   1.6370   1.4465   2.3661  -1.2994   0.7345  -0.0805   0.00    0.0
2261 242090   47.833946399    7.596175884   281.8865   6   8   1.6249   1.4363   2.3539  -1.2887   0.7338  -0.0984   0.00    0.0
2261 242091   47.833946507    7.596175770   281.8820   6   8   1.6132   1.4263   2.3418  -1.2782   0.7331  -0.1128   0.00    0.0
2261 242092   47.833946568    7.596175685   281.8782   6   8   1.6016   1.4165   2.3299  -1.2680   0.7324  -0.1249   0.00    0.0
2261 242093   47.833946560    7.596175702   281.8871   6   8   1.5904   1.4069   2.3183  -1.2580   0.7315  -0.1353   0.00    0.0
2261 242094   47.833946741    7.596175508   281.8901   6   8   1.5794   1.3975   2.3068  -1.2482   0.7306  -0.1445   0.00    0.0
2261 242095   47.833946827    7.596175467   281.8737   6   8   1.5686   1.3883   2.2954  -1.2387   0.7296  -0.1527   0.00    0.0
2261 242096   47.833946807    7.596175479   281.8884   6   8   1.5580   1.3793   2.2843  -1.2293   0.7286  -0.1600   0.00    0.0
2261 242097   47.833946714    7.596175598   281.8952   6   8   1.5477   1.3705   2.2733  -1.2202   0.7276  -0.1667   0.00    0.0
2261 242098   47.833946612    7.596175707   281.8940   6   8   1.5375   1.3619   2.2625  -1.2113   0.7265  -0.1728   0.00    0.0
2261 242099   47.833946629    7.596175707   281.8896   6   8   1.5276   1.3534   2.2519  -1.2025   0.7253  -0.1784   0.00    0.0
2261 242100   47.833946545    7.596175855   281.8903   6   9   1.5131   1.3423   2.2403  -1.1895   0.7282  -0.2045   0.00    0.0
2261 242101   47.833946447    7.596175938   281.8854   6   9   1.4990   1.3315   2.2290  -1.1769   0.7308  -0.2263   0.00    0.0
2261 242102   47.833946507    7.596175857   281.8788   6   9   1.4853   1.3209   2.2179  -1.1648   0.7331  -0.2449   0.00    0.0
2261 242103   47.833946472    7.596176032   281.8740   6   9   1.4720   1.3107   2.2070  -1.1529   0.7351  -0.2612   0.00    0.0
2261 242104   47.833946468    7.596176083   281.8861   6   9   1.4591   1.3008   2.1963  -1.1415   0.7369  -0.2757   0.00    0.0
2261 242105   47.833946435    7.596176136   281.8945   6   9   1.4466   1.2911   2.1857  -1.1303   0.7384  -0.2886   0.00    0.0
2261 242106   47.833946560    7.596176049   281.9091   6   9   1.4344   1.2817   2.1754  -1.1195   0.7398  -0.3002   0.00    0.0
2261 242107   47.833946587    7.596176094   281.9225   6   9   1.4225   1.2725   2.1652  -1.1090   0.7409  -0.3107   0.00    0.0
2261 242108   47.833946584    7.596176101   281.9328   6   9   1.4110   1.2636   2.1551  -1.0988   0.7419  -0.3203   0.00    0.0
2261 242109   47.833946679    7.596176084   281.9341   6   9   1.3997   1.2548   2.1452  -1.0889   0.7428  -0.3290   0.00    0.0
2261 242110   47.833946570    7.596176229   281.9540   6   9   1.3887   1.2463   2.1355  -1.0792   0.7434  -0.3371   0.00    0.0
2261 242111   47.833946555    7.596176249   281.9739   6   9   1.3781   1.2380   2.1259  -1.0698   0.7440  -0.3445   0.00    0.0
2261 242112   47.833946609    7.596176192   281.9882   6   9   1.3676   1.2299   2.1165  -1.0606   0.7444  -0.3513   0.00    0.0
2261 242113   47.833946607    7.596176209   281.9951   6   9   1.3575   1.2219   2.1072  -1.0517   0.7447  -0.3576   0.00    0.0
2261 242114   47.833946514    7.596176383   282.0064   6   9   1.3475   1.2142   2.0980  -1.0429   0.7449  -0.3634   0.00    0.0
2261 242115   47.833946522    7.596176398   282.0201   6   9   1.3378   1.2066   2.0890  -1.0344   0.7449  -0.3688   0.00    0.0
2261 242116   47.833946552    7.596176435   282.0255   6   9   1.3283   1.1992   2.0801  -1.0261   0.7449  -0.3738   0.00    0.0
2261 242117   47.833946577    7.596176428   282.0432   6   9   1.3191   1.1919   2.0714  -1.0180   0.7448  -0.3785   0.00    0.0
2261 242118   47.833946546    7.596176439   282.0441   6   9   1.3100   1.1848   2.0627  -1.0101   0.7446  -0.3828   0.00    0.0
2261 242119   47.833946480    7.596176571   282.0671   6   9   1.3011   1.1778   2.0542  -1.0024   0.7443  -0.3869   0.00    0.0
2261 242120   47.833946615    7.596176439   282.0708   6   9   1.2925   1.1710   2.0458  -0.9948   0.7440  -0.3906   0.00    0.0
2261 242121   47.833946520    7.596176502   282.0823   6   9   1.2840   1.1643   2.0375  -0.9874   0.7436  -0.3942   0.00    0.0
2261 242122   47.833946457    7.596176594   282.0865   6   9   1.2757   1.1577   2.0293  -0.9802   0.7431  -0.3974   0.00    0.0
2261 242123   47.833946489    7.596176603   282.0995   6   9   1.2675   1.1513   2.0212  -0.9731   0.7426  -0.4005   0.00    0.0
2261 242124   47.833946497    7.596176577   282.1094   6   9   1.2595   1.1450   2.0133  -0.9662   0.7420  -0.4034   0.00    0.0
2261 242125   47.833946443    7.596176669   282.1192   6   9   1.2517   1.1388   2.0054  -0.9594   0.7413  -0.4060   0.00    0.0
2261 242126   47.833946286    7.596176804   282.1369   6   9   1.2441   1.1327   1.9976  -0.9528   0.7407  -0.4085   0.00    0.0
2261 242127   47.833946259    7.596176831   282.1337   6   9   1.2365   1.1267   1.9900  -0.9463   0.7399  -0.4109   0.00    0.0
2261 242128   47.833946202    7.596176898   282.1432   6   9   1.2292   1.1209   1.9824  -0.9400   0.7392  -0.4130   0.00    0.0
2261 242129   47.833946207    7.596177008   282.1501   6   9   1.2219   1.1151   1.9749  -0.9337   0.7383  -0.4151   0.00    0.0
2261 242130   47.833946264    7.596176977   282.1420   6   9   1.2148   1.1094   1.9675  -0.9276   0.7375  -0.4170   0.00    0.0
2261 242131   47.833946301    7.596176961   282.1327   6   9   1.2079   1.1039   1.9602  -0.9216   0.7366  -0.4187   0.00    0.0
2261 242132   47.833946209    7.596177064   282.1464   6   9   1.2010   1.0984   1.9530  -0.9158   0.7357  -0.4204   0.00    0.0
2261 242133   47.833946253    7.596177033   282.1516   6   9   1.1943   1.0930   1.9459  -0.9100   0.7348  -0.4219   0.00    0.0
2261 242134   47.833946221    7.596177076   282.1620   6   9   1.1877   1.0878   1.9389  -0.9043   0.7338  -0.4234   0.00    0.0
2261 242135   47.833946292    7.596177008   282.1642   6   9   1.1812   1.0826   1.9319  -0.8988   0.7328  -0.4247   0.00    0.0
2261 242136   47.833946229    7.596177112   282.1672   6   9   1.1749   1.0774   1.9251  -0.8934   0.7318  -0.4259   0.00    0.0
2261 242137   47.833946211    7.596177151   282.1681   6   9   1.1686   1.0724   1.9183  -0.8880   0.7307  -0.4271   0.00    0.0
2261 242138   47.833946170    7.596177177   282.1695   6   9   1.1624   1.0675   1.9116  -0.8828   0.7297  -0.4282   0.00    0.0
2261 242139   47.833946177    7.596177253   282.1554   6   9   1.1564   1.0626   1.9049  -0.8776   0.7286  -0.4292   0.00    0.0
2261 242140   47.833946156    7.596177371   282.1426   6   9   1.1504   1.0578   1.8984  -0.8725   0.7275  -0.4301   0.00    0.0
2261 242141   47.833946126    7.596177422   282.1421   6   9   1.1446   1.0531   1.8919  -0.8675   0.7264  -0.4309   0.00    0.0
2261 242142   47.833946096    7.596177485   282.1359   6   9   1.1388   1.0484   1.8855  -0.8627   0.7252  -0.4317   0.00    0.0
2261 242143   47.833946135    7.596177461   282.1272   6   9   1.1331   1.0438   1.8791  -0.8578   0.7241  -0.4324   0.00    0.0
2261 242144   47.833946058    7.596177503   282.1190   6   9   1.1276   1.0393   1.8729  -0.8531   0.7229  -0.4331   0.00    0.0
2261 242145   47.833946078    7.596177460   282.1138   6   9   1.1221   1.0348   1.8666  -0.8485   0.7217  -0.4337   0.00    0.0
2261 242146   47.833946130    7.596177373   282.1081   6   9   1.1167   1.0304   1.8605  -0.8439   0.7206  -0.4342   0.00    0.0
2261 242147   47.833946027    7.596177473   282.0946   6   9   1.1113   1.0261   1.8544  -0.8394   0.7194  -0.4347   0.00    0.0
2261 242148   47.833946082    7.596177408   282.0861   6   9   1.1061   1.0218   1.8484  -0.8350   0.7182  -0.4351   0.00    0.0
2261 242149   47.833945994    7.596177507   282.0775   6   9   1.1009   1.0176   1.8425  -0.8306   0.7169  -0.4355   0.00    0.0
2261 242150   47.833946000    7.596177502   282.0687   6   9   1.0958   1.0135   1.8366  -0.8263   0.7157  -0.4359   0.00    0.0
2261 242151   47.833945982    7.596177488   282.0600   6   9   1.0908   1.0094   1.8308  -0.8221   0.7145  -0.4362   0.00    0.0
2261 242152   47.833945931    7.596177528   282.0480   6   9   1.0858   1.0053   1.8250  -0.8179   0.7133  -0.4365   0.00    0.0
2261 242153   47.833945901    7.596177602   282.0382   6   9   1.0810   1.0013   1.8193  -0.8138   0.7120  -0.4367   0.00    0.0
2261 242154   47.833945841    7.596177649   282.0338   6   9   1.0761   0.9974   1.8136  -0.8098   0.7108  -0.4369   0.00    0.0
2261 242155   47.833945906    7.596177589   282.0342   6   9   1.0714   0.9935   1.8080  -0.8058   0.7095  -0.4371   0.00    0.0
2261 242156   47.833945896    7.596177650   282.0261   6   9   1.0667   0.9897   1.8025  -0.8019   0.7082  -0.4372   0.00    0.0
2261 242157   47.833945910    7.596177616   282.0155   6   9   1.0621   0.9859   1.7970  -0.7981   0.7070  -0.4373   0.00    0.0
2261 242158   47.833945897    7.596177676   282.0078   6   9   1.0576   0.9822   1.7916  -0.7943   0.7057  -0.4374   0.00    0.0
2261 242159   47.833945907    7.596177662   282.0021   6   9   1.0531   0.9785   1.7862  -0.7905   0.7045  -0.4374   0.00    0.0
2261 242160   47.833945965    7.596177636   281.9933   6  10   1.0482   0.9741   1.7808  -0.7861   0.7037  -0.4381   0.00    0.0
2261 242161   47.833945982    7.596177568   281.9859   6  10   1.0433   0.9697   1.7754  -0.7817   0.7029  -0.4387   0.00    0.0
2261 242162   47.833945985    7.596177506   281.9825   6  10   1.0385   0.9655   1.7701  -0.7774   0.7021  -0.4393   0.00    0.0
2261 242163   47.833946065    7.596177417   281.9702   6  10   1.0338   0.9613   1.7649  -0.7731   0.7013  -0.4399   0.00    0.0
2261 242164   47.833946051    7.596177429   281.9605   6  10   1.0292   0.9572   1.7596  -0.7689   0.7005  -0.4404   0.00    0.0
2261 242165   47.833946034    7.596177482   281.9539   6  10   1.0247   0.9531   1.7545  -0.7648   0.6996  -0.4408   0.00    0.0
2261 242166   47.833945952    7.596177509   281.9552   6  10   1.0202   0.9491   1.7494  -0.7608   0.6987  -0.4412   0.00    0.0
2261 242167   47.833945981    7.596177457   281.9444   6  10   1.0157   0.9451   1.7443  -0.7568   0.6979  -0.4416   0.00    0.0
2261 242168   47.833945988    7.596177452   281.9410   6  10   1.0114   0.9412   1.7393  -0.7529   0.6970  -0.4419   0.00    0.0
2261 242169   47.833945993    7.596177428   281.9333   6  10   1.0071   0.9373   1.7344  -0.7491   0.6960  -0.4422   0.00    0.0
2261 242170   47.833946014    7.596177347   281.9225   6  10   1.0028   0.9335   1.7294  -0.7453   0.6951  -0.4424   0.00    0.0
2261 242171   47.833946038    7.596177269   281.9104   6  10   0.9986   0.9298   1.7246  -0.7415   0.6942  -0.4426   0.00    0.0
2261 242172   47.833946000    7.596177277   281.9096   6  10   0.9945   0.9261   1.7198  -0.7379   0.6932  -0.4428   0.00    0.0
2261 242173   47.833946005    7.596177242   281.9052   6  10   0.9904   0.9225   1.7150  -0.7342   0.6923  -0.4429   0.00    0.0
2261 242174   47.833946030    7.596177208   281.9011   6  10   0.9864   0.9189   1.7102  -0.7307   0.6913  -0.4430   0.00    0.0
2261 242175   47.833946120    7.596177101   281.8906   6  10   0.9824   0.9153   1.7055  -0.7271   0.6903  -0.4431   0.00    0.0
2261 242176   47.833946137    7.596177083   281.8839   6  10   0.9785   0.9118   1.7009  -0.7237   0.6893  -0.4432   0.00    0.0
2261 242177   47.833946128    7.596177112   281.8820   6  10   0.9747   0.9083   1.6963  -0.7203   0.6883  -0.4432   0.00    0.0
2261 242178   47.833946112    7.596177120   281.8779   6  10   0.9708   0.9049   1.6917  -0.7169   0.6873  -0.4432   0.00    0.0
2261 242179   47.833946139    7.596177110   281.8732   6  10   0.9671   0.9016   1.6872  -0.7136   0.6863  -0.4432   0.00    0.0
2261 242180   47.833946167    7.596177079   281.8665   6  10   0.9634   0.8982   1.6827  -0.7103   0.6853  -0.4431   0.00    0.0
2261 242181   47.833946228    7.596176992   281.8574   6  10   0.9597   0.8949   1.6783  -0.7071   0.6843  -0.4430   0.00    0.0
2261 242182   47.833946240    7.596176979   281.8479   6  10   0.9561   0.8917   1.6739  -0.7039   0.6832  -0.4429   0.00    0.0
2261 242183   47.833946244    7.596176937   281.8494   6  10   0.9525   0.8885   1.6695  -0.7008   0.6822  -0.4428   0.00    0.0
2261 242184   47.833946245    7.596176940   281.8388   6  10   0.9489   0.8853   1.6652  -0.6977   0.6812  -0.4427   0.00    0.0
2261 242185   47.833946300    7.596176841   281.8351   6  10   0.9454   0.8822   1.6609  -0.6946   0.6801  -0.4426   0.00    0.0
2261 242186   47.833946293    7.596176853   281.8332   6  10   0.9420   0.8791   1.6566  -0.6916   0.6791  -0.4424   0.00    0.0
2261 242187   47.833946303    7.596176830   281.8311   6  10   0.9386   0.8760   1.6524  -0.6886   0.6780  -0.4422   0.00    0.0
2261 242188   47.833946324    7.596176808   281.8294   6  10   0.9352   0.8730   1.6482  -0.6857   0.6770  -0.4420   0.00    0.0
2261 242189   47.833946395    7.596176725   281.8258   6  10   0.9319   0.8700   1.6441  -0.6828   0.6759  -0.4418   0.00    0.0
2261 242190   47.833946457    7.596176684   281.8145   6  10   0.9286   0.8670   1.6400  -0.6799   0.6749  -0.4416   0.00    0.0
2261 242191   47.833946485    7.596176631   281.8073   6  10   0.9253   0.8641   1.6359  -0.6771   0.6738  -0.4413   0.00    0.0
2261 242192   47.833946502    7.596176523   281.8015   6  10   0.9221   0.8612   1.6318  -0.6743   0.6727  -0.4410   0.00    0.0
2261 242193   47.833946496    7.596176490   281.7981   6  10   0.9189   0.8583   1.6278  -0.6716   0.6717  -0.4408   0.00    0.0
2261 242194   47.833946499    7.596176438   281.7935   6  10   0.9157   0.8555   1.6238  -0.6688   0.6706  -0.4405   0.00    0.0
2261 242195   47.833946483    7.596176438   281.7904   6  10   0.9126   0.8527   1.6199  -0.6662   0.6695  -0.4402   0.00    0.0
2261 242196   47.833946498    7.596176406   281.7880   6  10   0.9095   0.8500   1.6160  -0.6635   0.6685  -0.4399   0.00    0.0
2261 242197   47.833946543    7.596176341   281.7869   6  10   0.9065   0.8472   1.6121  -0.6609   0.6674  -0.4396   0.00    0.0
2261 242198   47.833946562    7.596176315   281.7760   6  10   0.9035   0.8445   1.6082  -0.6583   0.6663  -0.4392   0.00    0.0
2261 242199   47.833946541    7.596176326   281.7708   6  10   0.9005   0.8418   1.6044  -0.6558   0.6653  -0.4389   0.00    0.0
2261 242200   47.833946516    7.596176340   281.7713   6  10   0.8975   0.8392   1.6006  -0.6532   0.6642  -0.4385   0.00    0.0
2261 242201   47.833946551    7.596176270   281.7677   6  10   0.8946   0.8365   1.5968  -0.6507   0.6631  -0.4382   0.00    0.0
2261 242202   47.833946568    7.596176235   281.7625   6  10   0.8917   0.8339   1.5931  -0.6483   0.6621  -0.4378   0.00    0.0
2261 242203   47.833946601    7.596176174   281.7546   6  10   0.8889   0.8314   1.5894  -0.6458   0.6610  -0.4374   0.00    0.0
2261 242204   47.833946648    7.596176148   281.7498   6  10   0.8860   0.8288   1.5857  -0.6434   0.6599  -0.4371   0.00    0.0
2261 242205   47.833946679    7.596176124   281.7445   6  10   0.8832   0.8263   1.5821  -0.6410   0.6588  -0.4367   0.00    0.0
2261 242206   47.833946662    7.596176158   281.7347   6  10   0.8805   0.8238   1.5784  -0.6387   0.6578  -0.4363   0.00    0.0
2261 242207   47.833946721    7.596176055   281.7299   6  10   0.8777   0.8213   1.5748  -0.6363   0.6567  -0.4359   0.00    0.0
2261 242208   47.833946725    7.596176048   281.7315   6  10   0.8750   0.8189   1.5713  -0.6340   0.6556  -0.4355   0.00    0.0
2261 242209   47.833946734    7.596176036   281.7266   6  10   0.8723   0.8165   1.5677  -0.6318   0.6546  -0.4350   0.00    0.0
2261 242210   47.833946734    7.596176053   281.7142   6  10   0.8696   0.8141   1.5642  -0.6295   0.6535  -0.4346   0.00    0.0
2261 242211   47.833946757    7.596176009   281.7080   6  10   0.8670   0.8117   1.5607  -0.6273   0.6524  -0.4342   0.00    0.0
2261 242212   47.833946815    7.596175938   281.6966   6  10   0.8644   0.8093   1.5572  -0.6251   0.6514  -0.4337   0.00    0.0
2261 242213   47.833946793    7.596175997   281.6846   6  10   0.8618   0.8070   1.5538  -0.6229   0.6503  -0.4333   0.00    0.0
2261 242214   47.833946863    7.596175980   281.6736   6  10   0.8592   0.8047   1.5504  -0.6208   0.6493  -0.4329   0.00    0.0
2261 242215   47.833946889    7.596175981   281.6624   6  10   0.8567   0.8024   1.5470  -0.6186   0.6482  -0.4324   0.00    0.0
2261 242216   47.833946914    7.596175933   281.6529   6  10   0.8542   0.8002   1.5436  -0.6165   0.6472  -0.4319   0.00    0.0
2261 242217   47.833946923    7.596175954   281.6414   6  10   0.8517   0.7979   1.5403  -0.6144   0.6461  -0.4315   0.00    0.0
2261 242218   47.833946957    7.596175948   281.6302   6  10   0.8492   0.7957   1.5370  -0.6124   0.6450  -0.4310   0.00    0.0
2261 242219   47.833946997    7.596175936   281.6198   6  10   0.8468   0.7935   1.5337  -0.6103   0.6440  -0.4305   0.00    0.0
2261 242220   47.833947021    7.596175936   281.6127   6  10   0.8444   0.7913   1.5304  -0.6083   0.6429  -0.4301   0.00    0.0
2261 242221   47.833947048    7.596175938   281.6058   6  10   0.8420   0.7891   1.5272  -0.6063   0.6419  -0.4296   0.00    0.0
2261 242222   47.833947112    7.596175878   281.5958   6  10   0.8396   0.7870   1.5239  -0.6043   0.6409  -0.4291   0.00    0.0
2261 242223   47.833947132    7.596175867   281.5907   6  10   0.8372   0.7849   1.5207  -0.6023   0.6398  -0.4286   0.00    0.0
2261 242224   47.833947185    7.596175821   281.5723   6  10   0.8349   0.7828   1.5175  -0.6004   0.6388  -0.4281   0.00    0.0
2261 242225   47.833947239    7.596175767   281.5661   6  10   0.8326   0.7807   1.5144  -0.5985   0.6377  -0.4277   0.00    0.0
2261 242226   47.833947284    7.596175733   281.5587   6  10   0.8303   0.7786   1.5112  -0.5966   0.6367  -0.4272   0.00    0.0
2261 242227   47.833947335    7.596175684   281.5469   6  10   0.8280   0.7765   1.5081  -0.5947   0.6357  -0.4267   0.00    0.0
2261 242228   47.833947358    7.596175648   281.5367   6  10   0.8257   0.7745   1.5050  -0.5928   0.6347  -0.4262   0.00    0.0
2261 242229   47.833947396    7.596175635   281.5317   6  10   0.8235   0.7725   1.5020  -0.5910   0.6336  -0.4257   0.00    0.0
2261 242230   47.833947385    7.596175645   281.5287   6  11   0.8200   0.7698   1.4989  -0.5878   0.6326  -0.4251   0.00    0.0
2261 242231   47.833947400    7.596175656   281.5246   6  11   0.8165   0.7671   1.4959  -0.5847   0.6315  -0.4246   0.00    0.0
2261 242232   47.833947433    7.596175614   281.5177   6  11   0.8131   0.7644   1.4929  -0.5817   0.6305  -0.4240   0.00    0.0
2261 242233   47.833947450    7.596175616   281.4999   6  11   0.8097   0.7618   1.4899  -0.5787   0.6295  -0.4235   0.00    0.0
2261 242234   47.833947494    7.596175563   281.4950   6  11   0.8064   0.7592   1.4869  -0.5757   0.6284  -0.4229   0.00    0.0
2261 242235   47.833947527    7.596175542   281.4848   6  11   0.8031   0.7566   1.4839  -0.5728   0.6274  -0.4223   0.00    0.0
2261 242236   47.833947605    7.596175485   281.4723   6  11   0.7999   0.7541   1.4810  -0.5699   0.6263  -0.4218   0.00    0.0
2261 242237   47.833947644    7.596175437   281.4635   6  11   0.7967   0.7516   1.4781  -0.5671   0.6253  -0.4212   0.00    0.0
2261 242238   47.833947644    7.596175445   281.4585   6  11   0.7935   0.7491   1.4752  -0.5643   0.6243  -0.4206   0.00    0.0
2261 242239   47.833947659    7.596175424   281.4482   6  11   0.7904   0.7467   1.4723  -0.5615   0.6233  -0.4201   0.00    0.0
2261 242240   47.833947653    7.596175424   281.4360   6  11   0.7873   0.7443   1.4694  -0.5588   0.6222  -0.4195   0.00    0.0
2261 242241   47.833947713    7.596175369   281.4277   6  11   0.7843   0.7419   1.4666  -0.5561   0.6212  -0.4189   0.00    0.0
2261 242242   47.833947730    7.596175326   281.4276   6  11   0.7813   0.7396   1.4638  -0.5535   0.6202  -0.4183   0.00    0.0
2261 242243   47.833947807    7.596175321   281.4196   6  11   0.7783   0.7372   1.4610  -0.5508   0.6192  -0.4177   0.00    0.0
2261 242244   47.833947839    7.596175307   281.4155   6  11   0.7754   0.7349   1.4582  -0.5483   0.6182  -0.4172   0.00    0.0
2261 242245   47.833947877    7.596175292   281.4092   6  11   0.7725   0.7326   1.4554  -0.5457   0.6172  -0.4166   0.00    0.0
2261 242246   47.833947850    7.596175342   281.4088   6  11   0.7696   0.7304   1.4527  -0.5432   0.6162  -0.4160   0.00    0.0
2261 242247   47.833947900    7.596175354   281.4009   6  11   0.7668   0.7282   1.4499  -0.5407   0.6152  -0.4154   0.00    0.0
2261 242248   47.833947907    7.596175370   281.3989   6  11   0.7640   0.7260   1.4472  -0.5383   0.6142  -0.4148   0.00    0.0
2261 242249   47.833947925    7.596175340   281.3938   6  11   0.7612   0.7238   1.4445  -0.5359   0.6132  -0.4143   0.00    0.0
2261 242250   47.833947912    7.596175388   281.3957   6  11   0.7585   0.7216   1.4418  -0.5335   0.6122  -0.4137   0.00    0.0
2261 242251   47.833947946    7.596175385   281.3874   6  11   0.7558   0.7195   1.4391  -0.5311   0.6112  -0.4131   0.00    0.0
2261 242252   47.833947928    7.596175433   281.3817   6  11   0.7531   0.7174   1.4365  -0.5288   0.6102  -0.4125   0.00    0.0
2261 242253   47.833947959    7.596175451   281.3727   6  11   0.7505   0.7153   1.4338  -0.5265   0.6092  -0.4119   0.00    0.0
2261 242254   47.833947952    7.596175498   281.3688   6  11   0.7479   0.7132   1.4312  -0.5242   0.6082  -0.4113   0.00    0.0
2261 242255   47.833947959    7.596175505   281.3695   6  11   0.7453   0.7112   1.4286  -0.5220   0.6072  -0.4108   0.00    0.0
2261 242256   47.833948019    7.596175471   281.3602   6  11   0.7428   0.7091   1.4260  -0.5197   0.6063  -0.4102   0.00    0.0
2261 242257   47.833947968    7.596175557   281.3686   6  11   0.7403   0.7071   1.4235  -0.5176   0.6053  -0.4096   0.00    0.0
2261 242258   47.833948007    7.596175518   281.3679   6  11   0.7378   0.7052   1.4209  -0.5154   0.6043  -0.4090   0.00    0.0
2261 242259   47.833947985    7.596175562   281.3705   6  11   0.7353   0.7032   1.4183  -0.5133   0.6034  -0.4084   0.00    0.0
2261 242260   47.833948028    7.596175538   281.3715   6  11   0.7329   0.7012   1.4158  -0.5111   0.6024  -0.4078   0.00    0.0
2261 242261   47.833948046    7.596175522   281.3728   6  11   0.7305   0.6993   1.4133  -0.5090   0.6014  -0.4073   0.00    0.0
2261 242262   47.833948093    7.596175476   281.3666   6  11   0.7281   0.6974   1.4108  -0.5070   0.6005  -0.4067   0.00    0.0
2261 242263   47.833948089    7.596175498   281.3668   6  11   0.7257   0.6955   1.4083  -0.5049   0.5995  -0.4061   0.00    0.0
2261 242264   47.833948132    7.596175470   281.3626   6  11   0.7234   0.6936   1.4058  -0.5029   0.5986  -0.4055   0.00    0.0
2261 242265   47.833948068    7.596175555   281.3693   6  11   0.7210   0.6918   1.4034  -0.5009   0.5977  -0.4050   0.00    0.0
2261 242266   47.833948040    7.596175612   281.3707   6  11   0.7188   0.6899   1.4009  -0.4990   0.5967  -0.4044   0.00    0.0
2261 242267   47.833948037    7.596175605   281.3687   6  11   0.7165   0.6881   1.3985  -0.4970   0.5958  -0.4038   0.00    0.0
2261 242268   47.833948020    7.596175611   281.3708   6  11   0.7142   0.6863   1.3961  -0.4951   0.5948  -0.4032   0.00    0.0
2261 242269   47.833948037    7.596175595   281.3695   6  11   0.7120   0.6845   1.3937  -0.4932   0.5939  -0.4026   0.00    0.0
2261 242270   47.833948002    7.596175636   281.3729   6  11   0.7098   0.6828   1.3913  -0.4913   0.5930  -0.4021   0.00    0.0
2261 242271   47.833948022    7.596175657   281.3692   6  11   0.7076   0.6810   1.3889  -0.4894   0.5921  -0.4015   0.00    0.0
2261 242272   47.833947985    7.596175713   281.3747   6  11   0.7055   0.6793   1.3866  -0.4876   0.5911  -0.4009   0.00    0.0
2261 242273   47.833947985    7.596175730   281.3804   6  11   0.7034   0.6775   1.3842  -0.4857   0.5902  -0.4004   0.00    0.0
2261 242274   47.833947955    7.596175777   281.3867   6  11   0.7012   0.6758   1.3819  -0.4839   0.5893  -0.3998   0.00    0.0
2261 242275   47.833947945    7.596175816   281.3930   6  11   0.6991   0.6741   1.3796  -0.4821   0.5884  -0.3992   0.00    0.0
2261 242276   47.833947920    7.596175841   281.3960   6  11   0.6971   0.6725   1.3773  -0.4804   0.5875  -0.3987   0.00    0.0
2261 242277   47.833947927    7.596175874   281.3972   6  11   0.6950   0.6708   1.3750  -0.4786   0.5866  -0.3981   0.00    0.0
2261 242278   47.833947921    7.596175877   281.3957   6  11   0.6930   0.6691   1.3727  -0.4769   0.5857  -0.3975   0.00    0.0
2261 242279   47.833947938    7.596175914   281.3914   6  11   0.6910   0.6675   1.3704  -0.4752   0.5848  -0.3970   0.00    0.0
2261 242280   47.833947904    7.596175987   281.3956   6  11   0.6890   0.6659   1.3682  -0.4735   0.5839  -0.3964   0.00    0.0
2261 242281   47.833947912    7.596176007   281.3991   6  11   0.6870   0.6643   1.3659  -0.4718   0.5830  -0.3958   0.00    0.0
2261 242282   47.833947916    7.596176040   281.4023   6  11   0.6850   0.6627   1.3637  -0.4701   0.5821  -0.3953   0.00    0.0
2261 242283   47.833947925    7.596176082   281.4067   6  11   0.6831   0.6611   1.3615  -0.4685   0.5812  -0.3947   0.00    0.0
2261 242284   47.833947906    7.596176133   281.4077   6  11   0.6812   0.6595   1.3593  -0.4668   0.5803  -0.3942   0.00    0.0
2261 242285   47.833947891    7.596176188   281.4124   6  11   0.6792   0.6580   1.3571  -0.4652   0.5795  -0.3936   0.00    0.0
2261 242286   47.833947884    7.596176253   281.4160   6  11   0.6774   0.6564   1.3549  -0.4636   0.5786  -0.3931   0.00    0.0
2261 242287   47.833947886    7.596176310   281.4138   6  11   0.6755   0.6549   1.3527  -0.4621   0.5777  -0.3925   0.00    0.0
2261 242288   47.833947905    7.596176348   281.4097   6  11   0.6736   0.6534   1.3505  -0.4605   0.5769  -0.3920   0.00    0.0
2261 242289   47.833947898    7.596176380   281.4113   6  11   0.6718   0.6518   1.3484  -0.4589   0.5760  -0.3914   0.00    0.0
2261 242290   47.833947895    7.596176425   281.4145   6  11   0.6700   0.6504   1.3462  -0.4574   0.5751  -0.3909   0.00    0.0
2261 242291   47.833947857    7.596176501   281.4158   6  11   0.6681   0.6489   1.3441  -0.4559   0.5743  -0.3903   0.00    0.0
2261 242292   47.833947867    7.596176531   281.4196   6  11   0.6664   0.6474   1.3420  -0.4544   0.5734  -0.3898   0.00    0.0
2261 242293   47.833947865    7.596176574   281.4221   6  11   0.6646   0.6459   1.3399  -0.4529   0.5726  -0.3892   0.00    0.0
2261 242294   47.833947868    7.596176599   281.4235   6  11   0.6628   0.6445   1.3378  -0.4514   0.5717  -0.3887   0.00    0.0
2261 242295   47.833947842    7.596176657   281.4226   6  11   0.6611   0.6430   1.3357  -0.4499   0.5709  -0.3882   0.00    0.0
2261 242296   47.833947870    7.596176653   281.4194   6  11   0.6593   0.6416   1.3336  -0.4485   0.5700  -0.3876   0.00    0.0
2261 242297   47.833947871    7.596176710   281.4217   6  11   0.6576   0.6402   1.3316  -0.4470   0.5692  -0.3871   0.00    0.0
2261 242298   47.833947857    7.596176766   281.4257   6  11   0.6559   0.6388   1.3295  -0.4456   0.5684  -0.3866   0.00    0.0
2261 242299   47.833947853    7.596176795   281.4285   6  11   0.6542   0.6374   1.3275  -0.4442   0.5675  -0.3860   0.00    0.0
2261 242300   47.833947833    7.596176827   281.4258   6  11   0.6525   0.6360   1.3255  -0.4428   0.5667  -0.3855   0.00    0.0
2261 242301   47.833947827    7.596176880   281.4206   6  11   0.6509   0.6346   1.3234  -0.4414   0.5659  -0.3850   0.00    0.0
2261 242302   47.833947787    7.596176958   281.4216   6  11   0.6492   0.6333   1.3214  -0.4400   0.5650  -0.3844   0.00    0.0
2261 242303   47.833947775    7.596177014   281.4226   6  11   0.6476   0.6319   1.3194  -0.4387   0.5642  -0.3839   0.00    0.0
2261 242304   47.833947778    7.596177044   281.4213   6  11   0.6460   0.6306   1.3174  -0.4373   0.5634  -0.3834   0.00    0.0
2261 242305   47.833947778    7.596177092   281.4202   6  11   0.6443   0.6292   1.3154  -0.4360   0.5626  -0.3829   0.00    0.0
2261 242306   47.833947755    7.596177154   281.4222   6  11   0.6427   0.6279   1.3135  -0.4347   0.5618  -0.3823   0.00    0.0
2261 242307   47.833947740    7.596177179   281.4256   6  11   0.6412   0.6266   1.3115  -0.4334   0.5610  -0.3818   0.00    0.0
2261 242308   47.833947737    7.596177237   281.4276   6  11   0.6396   0.6253   1.3096  -0.4321   0.5602  -0.3813   0.00    0.0
2261 242309   47.833947700    7.596177305   281.4354   6  11   0.6380   0.6240   1.3076  -0.4308   0.5594  -0.3808   0.00    0.0
2261 242310   47.833947684    7.596177366   281.4364   6  11   0.6365   0.6227   1.3057  -0.4295   0.5586  -0.3803   0.00    0.0
2261 242311   47.833947659    7.596177412   281.4415   6  11   0.6349   0.6214   1.3038  -0.4282   0.5578  -0.3798   0.00    0.0
2261 242312   47.833947636    7.596177469   281.4455   6  11   0.6334   0.6201   1.3019  -0.4270   0.5570  -0.3792   0.00    0.0
2261 242313   47.833947609    7.596177514   281.4473   6  11   0.6319   0.6189   1.2999  -0.4257   0.5562  -0.3787   0.00    0.0
2261 242314   47.833947574    7.596177585   281.4501   6  11   0.6304   0.6176   1.2981  -0.4245   0.5554  -0.3782   0.00    0.0
2261 242315   47.833947569    7.596177628   281.4514   6  11   0.6289   0.6164   1.2962  -0.4233   0.5546  -0.3777   0.00    0.0
2261 242316   47.833947557    7.596177668   281.4523   6  11   0.6274   0.6151   1.2943  -0.4220   0.5538  -0.3772   0.00    0.0
2261 242317   47.833947554    7.596177697   281.4508   6  11   0.6260   0.6139   1.2924  -0.4208   0.5531  -0.3767   0.00    0.0
2261 242318   47.833947539    7.596177724   281.4542   6  11   0.6245   0.6127   1.2906  -0.4196   0.5523  -0.3762   0.00    0.0
2261 242319   47.833947552    7.596177708   281.4562   6  11   0.6230   0.6115   1.2887  -0.4185   0.5515  -0.3757   0.00    0.0
2261 242320   47.833947539    7.596177729   281.4577   6  11   0.6216   0.6103   1.2869  -0.4173   0.5508  -0.3752   0.00    0.0
2261 242321   47.833947505    7.596177783   281.4599   6  11   0.6202   0.6091   1.2850  -0.4161   0.5500  -0.3747   0.00    0.0
2261 242322   47.833947468    7.596177838   281.4664   6  11   0.6188   0.6079   1.2832  -0.4150   0.5492  -0.3742   0.00    0.0
2261 242323   47.833947459    7.596177895   281.4688   6  11   0.6174   0.6067   1.2814  -0.4138   0.5485  -0.3737   0.00    0.0
2261 242324   47.833947450    7.596177909   281.4701   6  11   0.6160   0.6055   1.2796  -0.4127   0.5477  -0.3732   0.00    0.0
2261 242325   47.833947456    7.596177919   281.4702   6  11   0.6146   0.6044   1.2778  -0.4115   0.5470  -0.3728   0.00    0.0
2261 242326   47.833947440    7.596177891   281.4721   6  11   0.6132   0.6032   1.2760  -0.4104   0.5462  -0.3723   0.00    0.0
2261 242327   47.833947448    7.596177900   281.4767   6  11   0.6118   0.6021   1.2742  -0.4093   0.5455  -0.3718   0.00    0.0
2261 242328   47.833947421    7.596177907   281.4813   6  11   0.6105   0.6009   1.2725  -0.4082   0.5447  -0.3713   0.00    0.0
2261 242329   47.833947399    7.596177938   281.4842   6  11   0.6091   0.5998   1.2707  -0.4071   0.5440  -0.3708   0.00    0.0
2261 242330   47.833947375    7.596177956   281.4840   6  11   0.6078   0.5987   1.2689  -0.4060   0.5432  -0.3703   0.00    0.0
2261 242331   47.833947353    7.596177971   281.4836   6  11   0.6065   0.5975   1.2672  -0.4050   0.5425  -0.3699   0.00    0.0
2261 242332   47.833947358    7.596177960   281.4799   6  11   0.6052   0.5964   1.2655  -0.4039   0.5418  -0.3694   0.00    0.0
2261 242333   47.833947329    7.596177996   281.4831   6  11   0.6038   0.5953   1.2637  -0.4028   0.5410  -0.3689   0.00    0.0
2261 242334   47.833947328    7.596178001   281.4816   6  11   0.6025   0.5942   1.2620  -0.4018   0.5403  -0.3684   0.00    0.0
2261 242335   47.833947298    7.596178043   281.4816   6  11   0.6013   0.5931   1.2603  -0.4007   0.5396  -0.3680   0.00    0.0
2261 242336   47.833947288    7.596178055   281.4814   6  11   0.6000   0.5920   1.2586  -0.3997   0.5388  -0.3675   0.00    0.0
2261 242337   47.833947248    7.596178075   281.4824   6  11   0.5987   0.5909   1.2569  -0.3987   0.5381  -0.3670   0.00    0.0
2261 242338   47.833947246    7.596178082   281.4795   6  11   0.5974   0.5899   1.2552  -0.3977   0.5374  -0.3665   0.00    0.0
2261 242339   47.833947221    7.596178107   281.4817   6  11   0.5962   0.5888   1.2535  -0.3966   0.5367  -0.3661   0.00    0.0
2261 242340   47.833947190    7.596178115   281.4808   6  11   0.5949   0.5877   1.2518  -0.3956   0.5360  -0.3656   0.00    0.0
2261 242341   47.833947183    7.596178115   281.4764   6  11   0.5937   0.5867   1.2501  -0.3946   0.5353  -0.3651   0.00    0.0
2261 242342   47.833947160    7.596178132   281.4760   6  11   0.5924   0.5856   1.2485  -0.3937   0.5346  -0.3647   0.00    0.0
2261 242343   47.833947128    7.596178159   281.4764   6  11   0.5912   0.5846   1.2468  -0.3927   0.5338  -0.3642   0.00    0.0
2261 242344   47.833947111    7.596178160   281.4739   6  11   0.5900   0.5836   1.2452  -0.3917   0.5331  -0.3638   0.00    0.0
2261 242345   47.833947083    7.596178191   281.4732   6  11   0.5888   0.5825   1.2435  -0.3907   0.5324  -0.3633   0.00    0.0
2261 242346   47.833947072    7.596178191   281.4685   6  11   0.5876   0.5815   1.2419  -0.3898   0.5317  -0.3629   0.00    0.0
2261 242347   47.833947037    7.596178205   281.4676   6  11   0.5864   0.5805   1.2403  -0.3888   0.5311  -0.3624   0.00    0.0
2261 242348   47.833947029    7.596178197   281.4672   6  11   0.5852   0.5795   1.2387  -0.3879   0.5304  -0.3619   0.00    0.0
2261 242349   47.833947030    7.596178170   281.4646   6  11   0.5840   0.5785   1.2370  -0.3869   0.5297  -0.3615   0.00    0.0
2261 242350   47.833947025    7.596178166   281.4614   6  11   0.5829   0.5775   1.2354  -0.3860   0.5290  -0.3610   0.00    0.0
2261 242351   47.833947031    7.596178148   281.4592   6  11   0.5817   0.5765   1.2338  -0.3851   0.5283  -0.3606   0.00    0.0
2261 242352   47.833947019    7.596178181   281.4584   6  11   0.5806   0.5755   1.2322  -0.3841   0.5276  -0.3602   0.00    0.0
2261 242353   47.833947014    7.596178182   281.4574   6  11   0.5794   0.5745   1.2307  -0.3832   0.5269  -0.3597   0.00    0.0
2261 242354   47.833946976    7.596178240   281.4577   6  11   0.5783   0.5735   1.2291  -0.3823   0.5263  -0.3593   0.00    0.0
2261 242355   47.833946992    7.596178232   281.4567   6  11   0.5771   0.5726   1.2275  -0.3814   0.5256  -0.3588   0.00    0.0
2261 242356   47.833946965    7.596178246   281.4573   6  11   0.5760   0.5716   1.2259  -0.3805   0.5249  -0.3584   0.00    0.0
2261 242357   47.833946942    7.596178260   281.4526   6  11   0.5749   0.5706   1.2244  -0.3796   0.5242  -0.3579   0.00    0.0
2261 242358   47.833946935    7.596178247   281.4486   6  11   0.5738   0.5697   1.2228  -0.3788   0.5236  -0.3575   0.00    0.0
2261 242359   47.833946928    7.596178234   281.4473   6  11   0.5727   0.5687   1.2213  -0.3779   0.5229  -0.3571   0.00    0.0
2261 242360   47.833946933    7.596178220   281.4463   6  11   0.5716   0.5678   1.2198  -0.3770   0.5222  -0.3566   0.00    0.0
2261 242361   47.833946936    7.596178214   281.4491   6  11   0.5705   0.5668   1.2182  -0.3762   0.5216  -0.3562   0.00    0.0
2261 242362   47.833946936    7.596178205   281.4491   6  11   0.5694   0.5659   1.2167  -0.3753   0.5209  -0.3558   0.00    0.0
2261 242363   47.833946903    7.596178204   281.4503   6  11   0.5683   0.5650   1.2152  -0.3744   0.5203  -0.3553   0.00    0.0
2261 242364   47.833946913    7.596178195   281.4479   6  11   0.5672   0.5640   1.2137  -0.3736   0.5196  -0.3549   0.00    0.0
2261 242365   47.833946930    7.596178165   281.4476   6  11   0.5662   0.5631   1.2122  -0.3728   0.5190  -0.3545   0.00    0.0
2261 242366   47.833946933    7.596178177   281.4467   6  11   0.5651   0.5622   1.2107  -0.3719   0.5183  -0.3541   0.00    0.0
2261 242367   47.833946945    7.596178174   281.4462   6  11   0.5640   0.5613   1.2092  -0.3711   0.5177  -0.3536   0.00    0.0
2261 242368   47.833946938    7.596178148   281.4492   6  11   0.5630   0.5604   1.2077  -0.3703   0.5170  -0.3532   0.00    0.0
2261 242369   47.833946945    7.596178138   281.4495   6  11   0.5620   0.5595   1.2062  -0.3695   0.5164  -0.3528   0.00    0.0
2261 242370   47.833946937    7.596178145   281.4490   6  11   0.5609   0.5586   1.2047  -0.3686   0.5157  -0.3524   0.00    0.0
2261 242371   47.833946952    7.596178131   281.4464   6  11   0.5599   0.5577   1.2033  -0.3678   0.5151  -0.3520   0.00    0.0
2261 242372   47.833946979    7.596178100   281.4478   6  11   0.5589   0.5568   1.2018  -0.3670   0.5145  -0.3515   0.00    0.0
2261 242373   47.833946982    7.596178078   281.4479   6  11   0.5578   0.5559   1.2003  -0.3662   0.5138  -0.3511   0.00    0.0
2261 242374   47.833946958    7.596178069   281.4505   6  11   0.5568   0.5551   1.1989  -0.3654   0.5132  -0.3507   0.00    0.0
2261 242375   47.833946963    7.596178061   281.4475   6  11   0.5558   0.5542   1.1974  -0.3647   0.5126  -0.3503   0.00    0.0
2261 242376   47.833946962    7.596178070   281.4447   6  11   0.5548   0.5533   1.1960  -0.3639   0.5119  -0.3499   0.00    0.0
2261 242377   47.833946959    7.596178070   281.4448   6  11   0.5538   0.5524   1.1946  -0.3631   0.5113  -0.3495   0.00    0.0
2261 242378   47.833946968    7.596178055   281.4429   6  11   0.5528   0.5516   1.1931  -0.3623   0.5107  -0.3491   0.00    0.0
2261 242379   47.833946944    7.596178076   281.4420   6  11   0.5519   0.5507   1.1917  -0.3616   0.5101  -0.3487   0.00    0.0
2261 242380   47.833946949    7.596178077   281.4419   6  11   0.5509   0.5499   1.1903  -0.3608   0.5094  -0.3483   0.00    0.0
2261 242381   47.833946944    7.596178045   281.4414   6  11   0.5499   0.5490   1.1889  -0.3600   0.5088  -0.3479   0.00    0.0
2261 242382   47.833946953    7.596178023   281.4411   6  11   0.5489   0.5482   1.1875  -0.3593   0.5082  -0.3475   0.00    0.0
2261 242383   47.833946959    7.596178002   281.4446   6  11   0.5480   0.5474   1.1861  -0.3585   0.5076  -0.3471   0.00    0.0
2261 242384   47.833946984    7.596177984   281.4458   6  11   0.5470   0.5465   1.1847  -0.3578   0.5070  -0.3467   0.00    0.0
2261 242385   47.833946981    7.596177966   281.4459   6  11   0.5461   0.5457   1.1833  -0.3571   0.5064  -0.3463   0.00    0.0
2261 242386   47.833946990    7.596177949   281.4476   6  11   0.5451   0.5449   1.1819  -0.3563   0.5058  -0.3459   0.00    0.0
2261 242387   47.833946982    7.596177952   281.4505   6  11   0.5442   0.5440   1.1806  -0.3556   0.5052  -0.3455   0.00    0.0
2261 242388   47.833946982    7.596177937   281.4483   6  11   0.5432   0.5432   1.1792  -0.3549   0.5046  -0.3451   0.00    0.0
2261 242389   47.833946984    7.596177931   281.4459   6  11   0.5423   0.5424   1.1778  -0.3542   0.5040  -0.3447   0.00    0.0
2261 242390   47.833946990    7.596177923   281.4457   6  11   0.5414   0.5416   1.1765  -0.3534   0.5034  -0.3443   0.00    0.0
2261 242391   47.833946999    7.596177897   281.4467   6  11   0.5405   0.5408   1.1751  -0.3527   0.5028  -0.3439   0.00    0.0
2261 242392   47.833946998    7.596177898   281.4517   6  11   0.5395   0.5400   1.1737  -0.3520   0.5022  -0.3435   0.00    0.0
2261 242393   47.833947000    7.596177884   281.4559   6  11   0.5386   0.5392   1.1724  -0.3513   0.5016  -0.3431   0.00    0.0
2261 242394   47.833946989    7.596177887   281.4574   6  11   0.5377   0.5384   1.1711  -0.3506   0.5010  -0.3427   0.00    0.0
2261 242395   47.833946966    7.596177883   281.4598   6  11   0.5368   0.5376   1.1697  -0.3499   0.5004  -0.3423   0.00    0.0
2261 242396   47.833946976    7.596177850   281.4600   6  11   0.5359   0.5368   1.1684  -0.3492   0.4998  -0.3420   0.00    0.0
2261 242397   47.833946968    7.596177850   281.4613   6  11   0.5350   0.5360   1.1671  -0.3486   0.4992  -0.3416   0.00    0.0
2261 242398   47.833946978    7.596177833   281.4622   6  11   0.5342   0.5353   1.1658  -0.3479   0.4987  -0.3412   0.00    0.0
2261 242399   47.833946984    7.596177815   281.4638   6  11   0.5333   0.5345   1.1644  -0.3472   0.4981  -0.3408   0.00    0.0
2261 242400   47.833946995    7.596177789   281.4632   6  11   0.5324   0.5337   1.1631  -0.3465   0.4975  -0.3404   0.00    0.0
2261 242401   47.833946987    7.596177766   281.4622   6  11   0.5315   0.5330   1.1618  -0.3459   0.4969  -0.3401   0.00    0.0
2261 242402   47.833946993    7.596177763   281.4631   6  11   0.5306   0.5322   1.1605  -0.3452   0.4963  -0.3397   0.00    0.0
2261 242403   47.833947010    7.596177731   281.4640   6  11   0.5298   0.5314   1.1592  -0.3445   0.4958  -0.3393   0.00    0.0
2261 242404   47.833947009    7.596177730   281.4657   6  11   0.5289   0.5307   1.1579  -0.3439   0.4952  -0.3389   0.00    0.0
2261 242405   47.833947012    7.596177723   281.4695   6  11   0.5281   0.5299   1.1567  -0.3432   0.4946  -0.3386   0.00    0.0
2261 242406   47.833946987    7.596177735   281.4732   6  11   0.5272   0.5292   1.1554  -0.3426   0.4941  -0.3382   0.00    0.0
2261 242407   47.833946966    7.596177729   281.4735   6  11   0.5264   0.5284   1.1541  -0.3419   0.4935  -0.3378   0.00    0.0
2261 242408   47.833946958    7.596177714   281.4740   6  11   0.5255   0.5277   1.1528  -0.3413   0.4929  -0.3375   0.00    0.0
2261 242409   47.833946932    7.596177726   281.4764   6  11   0.5247   0.5269   1.1516  -0.3406   0.4924  -0.3371   0.00    0.0
2261 242410   47.833946896    7.596177728   281.4764   6  11   0.5238   0.5262   1.1503  -0.3400   0.4918  -0.3367   0.00    0.0
2261 242411   47.833946910    7.596177712   281.4740   6  11   0.5230   0.5255   1.1490  -0.3394   0.4913  -0.3364   0.00    0.0
2261 242412   47.833946902    7.596177703   281.4737   6  11   0.5222   0.5247   1.1478  -0.3387   0.4907  -0.3360   0.00    0.0
2261 242413   47.833946877    7.596177722   281.4756   6  11   0.5214   0.5240   1.1465  -0.3381   0.4902  -0.3356   0.00    0.0
2261 242414   47.833946877    7.596177710   281.4777   6  11   0.5206   0.5233   1.1453  -0.3375   0.4896  -0.3353   0.00    0.0
2261 242415   47.833946861    7.596177704   281.4801   6  11   0.5197   0.5226   1.1441  -0.3369   0.4891  -0.3349   0.00    0.0
2261 242416   47.833946831    7.596177735   281.4820   6  11   0.5189   0.5219   1.1428  -0.3363   0.4885  -0.3346   0.00    0.0
2261 242417   47.833946796    7.596177759   281.4854   6  11   0.5181   0.5211   1.1416  -0.3357   0.4880  -0.3342   0.00    0.0
2261 242418   47.833946776    7.596177756   281.4888   6  11   0.5173   0.5204   1.1404  -0.3350   0.4874  -0.3338   0.00    0.0
2261 242419   47.833946762    7.596177761   281.4888   6  11   0.5165   0.5197   1.1392  -0.3344   0.4869  -0.3335   0.00    0.0
2261 242420   47.833946764    7.596177761   281.4870   6  11   0.5157   0.5190   1.1379  -0.3338   0.4863  -0.3331   0.00    0.0
2261 242421   47.833946754    7.596177758   281.4852   6  11   0.5149   0.5183   1.1367  -0.3332   0.4858  -0.3328   0.00    0.0
2261 242422   47.833946740    7.596177752   281.4867   6  11   0.5141   0.5176   1.1355  -0.3327   0.4852  -0.3324   0.00    0.0
2261 242423   47.833946722    7.596177742   281.4895   6  11   0.5134   0.5169   1.1343  -0.3321   0.4847  -0.3321   0.00    0.0
2261 242424   47.833946719    7.596177745   281.4896   6  11   0.5126   0.5162   1.1331  -0.3315   0.4842  -0.3317   0.00    0.0
2261 242425   47.833946688    7.596177761   281.4943   6  11   0.5118   0.5155   1.1319  -0.3309   0.4836  -0.3314   0.00    0.0
2261 242426   47.833946684    7.596177744   281.4951   6  11   0.5110   0.5149   1.1307  -0.3303   0.4831  -0.3310   0.00    0.0
2261 242427   47.833946673    7.596177748   281.4957   6  11   0.5103   0.5142   1.1296  -0.3297   0.4826  -0.3307   0.00    0.0
2261 242428   47.833946662    7.596177738   281.4937   6  11   0.5095   0.5135   1.1284  -0.3292   0.4821  -0.3303   0.00    0.0
2261 242429   47.833946648    7.596177711   281.4923   6  11   0.5087   0.5128   1.1272  -0.3286   0.4815  -0.3300   0.00    0.0
2261 242430   47.833946642    7.596177716   281.4911   6  11   0.5080   0.5121   1.1260  -0.3280   0.4810  -0.3296   0.00    0.0
2261 242431   47.833946633    7.596177720   281.4925   6  11   0.5072   0.5115   1.1249  -0.3275   0.4805  -0.3293   0.00    0.0
2261 242432   47.833946624    7.596177706   281.4931   6  11   0.5065   0.5108   1.1237  -0.3269   0.4800  -0.3290   0.00    0.0
2261 242433   47.833946624    7.596177699   281.4912   6  11   0.5057   0.5101   1.1225  -0.3263   0.4794  -0.3286   0.00    0.0
2261 242434   47.833946628    7.596177682   281.4876   6  11   0.5050   0.5095   1.1214  -0.3258   0.4789  -0.3283   0.00    0.0
2261 242435   47.833946626    7.596177650   281.4864   6  11   0.5043   0.5088   1.1202  -0.3252   0.4784  -0.3279   0.00    0.0
2261 242436   47.833946623    7.596177623   281.4845   6  11   0.5035   0.5082   1.1191  -0.3247   0.4779  -0.3276   0.00    0.0
2261 242437   47.833946621    7.596177603   281.4820   6  11   0.5028   0.5075   1.1179  -0.3241   0.4774  -0.3273   0.00    0.0
2261 242438   47.833946634    7.596177604   281.4786   6  11   0.5021   0.5069   1.1168  -0.3236   0.4769  -0.3269   0.00    0.0
2261 242439   47.833946644    7.596177589   281.4751   6  11   0.5013   0.5062   1.1156  -0.3230   0.4764  -0.3266   0.00    0.0
2261 242440   47.833946638    7.596177600   281.4739   6  11   0.5006   0.5056   1.1145  -0.3225   0.4759  -0.3263   0.00    0.0
2261 242441   47.833946664    7.596177562   281.4674   6  11   0.4999   0.5049   1.1134  -0.3220   0.4753  -0.3259   0.00    0.0
2261 242442   47.833946668    7.596177550   281.4639   6  11   0.4992   0.5043   1.1123  -0.3214   0.4748  -0.3256   0.00    0.0
2261 242443   47.833946682    7.596177548   281.4597   6  11   0.4985   0.5036   1.1111  -0.3209   0.4743  -0.3253   0.00    0.0
