%  GPST Time  latitude(deg) longitude(deg)  height(m)   Q  ns   sdn(m)   sde(m)   sdu(m)  sdne(m)  sdeu(m)  sdun(m) age(s)  ratio
2261 116569   45.955800047  -78.071376679   203.5847   6  13   8.0465   7.1417  15.4415  -1.8854  -2.9280  -1.5351   0.00    0.0
2261 116570   45.955799686  -78.071376661   203.4606   6  13   5.7998   5.1387  11.2399  -1.3837  -2.1673  -1.1577   0.00    0.0
2261 116571   45.955799765  -78.071376660   203.5632   6  13   4.7653   4.2203   9.2641  -1.1442  -1.7944  -0.9727   0.00    0.0
2261 116572   45.955799324  -78.071377152   203.5903   6  13   4.1385   3.6652   8.0552  -0.9972  -1.5618  -0.8610   0.00    0.0
2261 116573   45.955798491  -78.071377612   203.5994   6  13   3.7065   3.2834   7.2162  -0.8952  -1.3981  -0.7865   0.00    0.0
2261 116574   45.955797810  -78.071377937   203.5650   6  13   3.3853   3.0001   6.5886  -0.8191  -1.2739  -0.7337   0.00    0.0
2261 116575   45.955797404  -78.071377864   203.5526   6  13   3.1341   2.7789   6.0951  -0.7595  -1.1751  -0.6950   0.00    0.0
2261 116576   45.955797254  -78.071377695   203.5322   6  13   2.9305   2.6001   5.6927  -0.7111  -1.0934  -0.6660   0.00    0.0
2261 116577   45.955797106  -78.071377463   203.5261   6  13   2.7609   2.4515   5.3558  -0.6707  -1.0240  -0.6439   0.00    0.0
2261 116578   45.955796978  -78.071377147   203.5153   6  13   2.6166   2.3255   5.0675  -0.6364  -0.9638  -0.6269   0.00    0.0
2261 116579   45.955796721  -78.071376683   203.4166   6  13   2.4919   2.2167   4.8167  -0.6068  -0.9107  -0.6138   0.00    0.0
2261 116580   45.955796290  -78.071376100   203.3346   6  13   2.3824   2.1217   4.5954  -0.5808  -0.8630  -0.6036   0.00    0.0
2261 116581   45.955795865  -78.071375569   203.2769   6  13   2.2853   2.0376   4.3979  -0.5578  -0.8197  -0.5958   0.00    0.0
2261 116582   45.955795437  -78.071375030   203.1950   6  13   2.1983   1.9625   4.2198  -0.5372  -0.7801  -0.5897   0.00    0.0
2261 116583   45.955795050  -78.071374501   203.1338   6  13   2.1196   1.8948   4.0579  -0.5187  -0.7434  -0.5850   0.00    0.0
2261 116584   45.955795191  -78.071374028   203.0694   6  13   2.0480   1.8335   3.9097  -0.5019  -0.7093  -0.5813   0.00    0.0
2261 116585   45.955795357  -78.071373533   203.0003   6  13   1.9824   1.7775   3.7732  -0.4866  -0.6772  -0.5785   0.00    0.0
2261 116586   45.955795605  -78.071373132   202.9242   6  13   1.9220   1.7261   3.6467  -0.4725  -0.6470  -0.5763   0.00    0.0
2261 116587   45.955795923  -78.071372870   202.8805   6  13   1.8660   1.6787   3.5290  -0.4596  -0.6183  -0.5746   0.00    0.0
2261 116588   45.955796132  -78.071372802   202.8487   6  13   1.8139   1.6347   3.4189  -0.4476  -0.5910  -0.5733   0.00    0.0
2261 116589   45.955796316  -78.071372813   202.8224   6  13   1.7653   1.5939   3.3157  -0.4365  -0.5649  -0.5722   0.00    0.0
2261 116590   45.955796408  -78.071372841   202.7903   6  13   1.7197   1.5557   3.2185  -0.4261  -0.5398  -0.5712   0.00    0.0
2261 116591   45.955796450  -78.071373034   202.7400   6  13   1.6768   1.5200   3.1267  -0.4165  -0.5156  -0.5704   0.00    0.0
2261 116592   45.955796365  -78.071373272   202.6884   6  13   1.6363   1.4864   3.0399  -0.4075  -0.4923  -0.5696   0.00    0.0
2261 116593   45.955796248  -78.071373551   202.6440   6  13   1.5981   1.4548   2.9575  -0.3990  -0.4696  -0.5689   0.00    0.0
2261 116594   45.955796223  -78.071373863   202.6164   6  13   1.5618   1.4249   2.8792  -0.3910  -0.4476  -0.5681   0.00    0.0
2261 116595   45.955796286  -78.071374202   202.5658   6  13   1.5273   1.3966   2.8045  -0.3836  -0.4261  -0.5672   0.00    0.0
2261 116596   45.955796489  -78.071374479   202.5170   6  13   1.4944   1.3698   2.7334  -0.3765  -0.4052  -0.5663   0.00    0.0
2261 116597   45.955796761  -78.071374720   202.4621   6  13   1.4630   1.3443   2.6653  -0.3698  -0.3846  -0.5652   0.00    0.0
2261 116598   45.955797109  -78.071374860   202.4128   6  13   1.4330   1.3200   2.6003  -0.3635  -0.3644  -0.5641   0.00    0.0
2261 116599   45.955797297  -78.071374921   202.3955   6  13   1.4043   1.2968   2.5379  -0.3576  -0.3444  -0.5629   0.00    0.0
2261 116600   45.955797471  -78.071374934   202.3842   6  13   1.3768   1.2746   2.4781  -0.3520  -0.3247  -0.5615   0.00    0.0
2261 116601   45.955797601  -78.071374896   202.3728   6  13   1.3503   1.2534   2.4207  -0.3466  -0.3051  -0.5600   0.00    0.0
2261 116602   45.955797781  -78.071374864   202.3623   6  13   1.3248   1.2331   2.3655  -0.3415  -0.2856  -0.5584   0.00    0.0
2261 116603   45.955797984  -78.071374808   202.3521   6  13   1.3003   1.2136   2.3124  -0.3367  -0.2660  -0.5566   0.00    0.0
2261 116604   45.955798224  -78.071374765   202.3358   6  13   1.2767   1.1948   2.2614  -0.3321  -0.2463  -0.5547   0.00    0.0
2261 116605   45.955798486  -78.071374755   202.3040   6  13   1.2539   1.1768   2.2122  -0.3277  -0.2263  -0.5527   0.00    0.0
2261 116606   45.955798725  -78.071374711   202.2537   6  13   1.2318   1.1594   2.1647  -0.3235  -0.2058  -0.5506   0.00    0.0
2261 116607   45.955798923  -78.071374697   202.2017   6  13   1.2105   1.1426   2.1190  -0.3196  -0.1845  -0.5484   0.00    0.0
2261 116608   45.955799093  -78.071374730   202.1410   6  13   1.1898   1.1264   2.0748  -0.3158  -0.1620  -0.5460   0.00    0.0
2261 116609   45.955799161  -78.071374799   202.0849   6  13   1.1698   1.1108   2.0322  -0.3121  -0.1377  -0.5436   0.00    0.0
2261 116610   45.955799164  -78.071374961   202.0482   6  13   1.1504   1.0957   1.9910  -0.3086  -0.1102  -0.5410   0.00    0.0
2261 116611   45.955799233  -78.071375210   202.0212   6  13   1.1316   1.0810   1.9512  -0.3053  -0.0758  -0.5383   0.00    0.0
2261 116612   45.955799304  -78.071375511   201.9969   6  13   1.1133   1.0669   1.9128  -0.3021   0.0159  -0.5356   0.00    0.0
2261 116613   45.955799342  -78.071375834   201.9719   6  13   1.0956   1.0531   1.8756  -0.2990   0.0766  -0.5327   0.00    0.0
2261 116614   45.955799379  -78.071376142   201.9426   6  13   1.0783   1.0398   1.8395  -0.2961   0.1055  -0.5298   0.00    0.0
2261 116615   45.955799448  -78.071376457   201.8989   6  13   1.0616   1.0268   1.8047  -0.2933   0.1267  -0.5268   0.00    0.0
2261 116616   45.955799505  -78.071376778   201.8482   6  13   1.0452   1.0142   1.7709  -0.2905   0.1437  -0.5237   0.00    0.0
2261 116617   45.955799558  -78.071377028   201.7987   6  13   1.0293   1.0020   1.7382  -0.2879   0.1580  -0.5206   0.00    0.0
2261 116618   45.955799565  -78.071377178   201.7468   6  13   1.0138   0.9901   1.7065  -0.2854   0.1703  -0.5174   0.00    0.0
2261 116619   45.955799421  -78.071377259   201.7197   6  13   0.9987   0.9785   1.6758  -0.2829   0.1811  -0.5141   0.00    0.0
2261 116620   45.955799294  -78.071377288   201.6957   6  13   0.9840   0.9672   1.6461  -0.2806   0.1906  -0.5108   0.00    0.0
2261 116621   45.955799191  -78.071377249   201.6807   6  13   0.9696   0.9562   1.6172  -0.2783   0.1990  -0.5075   0.00    0.0
2261 116622   45.955799152  -78.071377200   201.6663   6  13   0.9556   0.9454   1.5892  -0.2761   0.2066  -0.5041   0.00    0.0
2261 116623   45.955799138  -78.071377135   201.6527   6  13   0.9419   0.9350   1.5620  -0.2739   0.2135  -0.5006   0.00    0.0
2261 116624   45.955799147  -78.071377108   201.6320   6  13   0.9285   0.9247   1.5356  -0.2719   0.2197  -0.4972   0.00    0.0
2261 116625   45.955799184  -78.071377032   201.6177   6  13   0.9154   0.9148   1.5100  -0.2698   0.2253  -0.4937   0.00    0.0
2261 116626   45.955799198  -78.071376884   201.6079   6  13   0.9027   0.9050   1.4851  -0.2679   0.2304  -0.4901   0.00    0.0
2261 116627   45.955799204  -78.071376748   201.6121   6  13   0.8902   0.8955   1.4610  -0.2660   0.2351  -0.4866   0.00    0.0
2261 116628   45.955799222  -78.071376613   201.6191   6  13   0.8780   0.8861   1.4375  -0.2641   0.2393  -0.4830   0.00    0.0
2261 116629   45.955799224  -78.071376473   201.6107   6  13   0.8660   0.8770   1.4147  -0.2623   0.2432  -0.4795   0.00    0.0
2261 116630   45.955799237  -78.071376364   201.6119   6  13   0.8543   0.8681   1.3925  -0.2605   0.2467  -0.4759   0.00    0.0
2261 116631   45.955799238  -78.071376335   201.6219   6  13   0.8429   0.8593   1.3710  -0.2588   0.2500  -0.4723   0.00    0.0
2261 116632   45.955799215  -78.071376313   201.6183   6  13   0.8317   0.8507   1.3500  -0.2571   0.2529  -0.4687   0.00    0.0
2261 116633   45.955799207  -78.071376302   201.6203   6  13   0.8208   0.8423   1.3296  -0.2554   0.2556  -0.4651   0.00    0.0
2261 116634   45.955799139  -78.071376315   201.6103   6  13   0.8100   0.8341   1.3098  -0.2538   0.2581  -0.4615   0.00    0.0
2261 116635   45.955799095  -78.071376305   201.6072   6  13   0.7995   0.8260   1.2905  -0.2522   0.2604  -0.4579   0.00    0.0
2261 116636   45.955799070  -78.071376220   201.6170   6  13   0.7892   0.8181   1.2718  -0.2507   0.2624  -0.4543   0.00    0.0
2261 116637   45.955799034  -78.071376052   201.6375   6  13   0.7791   0.8104   1.2535  -0.2491   0.2643  -0.4507   0.00    0.0
2261 116638   45.955798980  -78.071375858   201.6638   6  13   0.7692   0.8027   1.2357  -0.2476   0.2660  -0.4471   0.00    0.0
2261 116639   45.955798887  -78.071375740   201.6564   6  13   0.7595   0.7953   1.2184  -0.2461   0.2675  -0.4435   0.00    0.0
2261 116640   45.955798865  -78.071375643   201.6366   6  13   0.7500   0.7879   1.2015  -0.2447   0.2689  -0.4400   0.00    0.0
2261 116641   45.955798895  -78.071375568   201.6121   6  13   0.7407   0.7807   1.1851  -0.2432   0.2702  -0.4364   0.00    0.0
2261 116642   45.955799004  -78.071375448   201.5781   6  13   0.7316   0.7736   1.1691  -0.2418   0.2713  -0.4329   0.00    0.0
2261 116643   45.955799076  -78.071375332   201.5568   6  13   0.7226   0.7667   1.1535  -0.2404   0.2723  -0.4294   0.00    0.0
2261 116644   45.955799138  -78.071375215   201.5425   6  13   0.7138   0.7598   1.1383  -0.2391   0.2732  -0.4259   0.00    0.0
2261 116645   45.955799144  -78.071375103   201.5385   6  13   0.7051   0.7531   1.1235  -0.2377   0.2740  -0.4224   0.00    0.0
2261 116646   45.955799144  -78.071374978   201.5313   6  13   0.6967   0.7465   1.1091  -0.2364   0.2747  -0.4190   0.00    0.0
2261 116647   45.955799113  -78.071374815   201.5193   6  13   0.6883   0.7399   1.0950  -0.2350   0.2753  -0.4156   0.00    0.0
2261 116648   45.955799081  -78.071374659   201.5032   6  13   0.6802   0.7335   1.0813  -0.2337   0.2759  -0.4121   0.00    0.0
2261 116649   45.955799056  -78.071374567   201.4856   6  13   0.6721   0.7272   1.0679  -0.2324   0.2763  -0.4088   0.00    0.0
2261 116650   45.955799082  -78.071374482   201.4629   6  13   0.6643   0.7210   1.0548  -0.2312   0.2767  -0.4054   0.00    0.0
2261 116651   45.955799120  -78.071374403   201.4491   6  13   0.6565   0.7149   1.0421  -0.2299   0.2770  -0.4021   0.00    0.0
2261 116652   45.955799152  -78.071374306   201.4407   6  13   0.6489   0.7089   1.0296  -0.2286   0.2772  -0.3988   0.00    0.0
2261 116653   45.955799193  -78.071374183   201.4308   6  13   0.6415   0.7030   1.0175  -0.2274   0.2774  -0.3955   0.00    0.0
2261 116654   45.955799185  -78.071374107   201.4203   6  13   0.6341   0.6971   1.0056  -0.2261   0.2775  -0.3922   0.00    0.0
2261 116655   45.955799116  -78.071374065   201.4171   6  13   0.6269   0.6914   0.9941  -0.2249   0.2776  -0.3890   0.00    0.0
2261 116656   45.955799082  -78.071374050   201.4087   6  13   0.6199   0.6857   0.9828  -0.2237   0.2776  -0.3858   0.00    0.0
2261 116657   45.955799083  -78.071374046   201.4030   6  13   0.6129   0.6802   0.9717  -0.2225   0.2776  -0.3826   0.00    0.0
2261 116658   45.955799138  -78.071374069   201.3943   6  13   0.6061   0.6747   0.9609  -0.2213   0.2775  -0.3795   0.00    0.0
2261 116659   45.955799267  -78.071374119   201.3864   6  13   0.5993   0.6692   0.9504  -0.2201   0.2774  -0.3763   0.00    0.0
2261 116660   45.955799383  -78.071374131   201.3804   6  13   0.5927   0.6639   0.9401  -0.2190   0.2772  -0.3733   0.00    0.0
2261 116661   45.955799497  -78.071374172   201.3718   6  13   0.5862   0.6586   0.9301  -0.2178   0.2770  -0.3702   0.00    0.0
2261 116662   45.955799626  -78.071374224   201.3602   6  13   0.5799   0.6534   0.9202  -0.2166   0.2768  -0.3672   0.00    0.0
2261 116663   45.955799757  -78.071374259   201.3455   6  13   0.5736   0.6483   0.9106  -0.2155   0.2765  -0.3642   0.00    0.0
2261 116664   45.955799727  -78.071374282   201.3356   6  13   0.5674   0.6432   0.9012  -0.2144   0.2762  -0.3612   0.00    0.0
2261 116665   45.955799657  -78.071374287   201.3351   6  13   0.5613   0.6382   0.8920  -0.2132   0.2759  -0.3583   0.00    0.0
2261 116666   45.955799605  -78.071374260   201.3320   6  13   0.5553   0.6333   0.8831  -0.2121   0.2756  -0.3553   0.00    0.0
2261 116667   45.955799582  -78.071374209   201.3273   6  13   0.5495   0.6285   0.8743  -0.2110   0.2752  -0.3525   0.00    0.0
2261 116668   45.955799571  -78.071374150   201.3221   6  13   0.5437   0.6237   0.8657  -0.2099   0.2748  -0.3496   0.00    0.0
2261 116669   45.955799612  -78.071374167   201.3025   6  13   0.5380   0.6189   0.8573  -0.2088   0.2744  -0.3468   0.00    0.0
2261 116670   45.955799622  -78.071374187   201.2851   6  13   0.5324   0.6143   0.8490  -0.2077   0.2740  -0.3440   0.00    0.0
2261 116671   45.955799610  -78.071374251   201.2715   6  13   0.5269   0.6097   0.8410  -0.2066   0.2735  -0.3412   0.00    0.0
2261 116672   45.955799541  -78.071374322   201.2664   6  13   0.5215   0.6051   0.8331  -0.2055   0.2730  -0.3385   0.00    0.0
2261 116673   45.955799463  -78.071374406   201.2641   6  13   0.5161   0.6006   0.8254  -0.2044   0.2725  -0.3358   0.00    0.0
2261 116674   45.955799419  -78.071374461   201.2607   6  13   0.5109   0.5962   0.8178  -0.2034   0.2720  -0.3331   0.00    0.0
2261 116675   45.955799398  -78.071374541   201.2569   6  13   0.5057   0.5918   0.8104  -0.2023   0.2715  -0.3305   0.00    0.0
2261 116676   45.955799391  -78.071374608   201.2545   6  13   0.5006   0.5875   0.8031  -0.2012   0.2710  -0.3279   0.00    0.0
2261 116677   45.955799419  -78.071374678   201.2407   6  13   0.4956   0.5832   0.7960  -0.2002   0.2704  -0.3253   0.00    0.0
2261 116678   45.955799464  -78.071374744   201.2256   6  13   0.4907   0.5790   0.7891  -0.1991   0.2699  -0.3227   0.00    0.0
2261 116679   45.955799419  -78.071374731   201.2086   6  13   0.4858   0.5748   0.7822  -0.1981   0.2693  -0.3202   0.00    0.0
2261 116680   45.955799352  -78.071374710   201.1945   6  13   0.4810   0.5707   0.7756  -0.1971   0.2687  -0.3177   0.00    0.0
2261 116681   45.955799296  -78.071374665   201.1822   6  13   0.4763   0.5666   0.7690  -0.1960   0.2681  -0.3152   0.00    0.0
2261 116682   45.955799233  -78.071374612   201.1723   6  13   0.4717   0.5625   0.7626  -0.1950   0.2676  -0.3128   0.00    0.0
2261 116683   45.955799180  -78.071374572   201.1602   6  13   0.4671   0.5586   0.7563  -0.1940   0.2669  -0.3103   0.00    0.0
2261 116684   45.955799148  -78.071374551   201.1505   6  13   0.4626   0.5546   0.7501  -0.1930   0.2663  -0.3080   0.00    0.0
2261 116685   45.955799115  -78.071374540   201.1402   6  13   0.4582   0.5507   0.7440  -0.1920   0.2657  -0.3056   0.00    0.0
2261 116686   45.955799095  -78.071374531   201.1322   6  13   0.4538   0.5469   0.7381  -0.1910   0.2651  -0.3033   0.00    0.0
2261 116687   45.955799103  -78.071374550   201.1245   6  13   0.4495   0.5431   0.7323  -0.1900   0.2645  -0.3010   0.00    0.0
2261 116688   45.955799100  -78.071374565   201.1158   6  13   0.4452   0.5393   0.7266  -0.1890   0.2638  -0.2987   0.00    0.0
2261 116689   45.955799086  -78.071374538   201.1042   6  13   0.4411   0.5356   0.7209  -0.1880   0.2632  -0.2964   0.00    0.0
2261 116690   45.955799065  -78.071374501   201.0955   6  13   0.4369   0.5320   0.7154  -0.1871   0.2625  -0.2942   0.00    0.0
2261 116691   45.955799006  -78.071374453   201.0914   6  13   0.4329   0.5283   0.7100  -0.1861   0.2619  -0.2920   0.00    0.0
2261 116692   45.955798949  -78.071374384   201.0859   6  13   0.4289   0.5247   0.7047  -0.1851   0.2613  -0.2898   0.00    0.0
2261 116693   45.955798898  -78.071374299   201.0825   6  13   0.4249   0.5212   0.6995  -0.1842   0.2606  -0.2876   0.00    0.0
2261 116694   45.955798893  -78.071374213   201.0804   6  13   0.4210   0.5177   0.6944  -0.1832   0.2599  -0.2855   0.00    0.0
2261 116695   45.955798875  -78.071374147   201.0777   6  13   0.4172   0.5142   0.6893  -0.1823   0.2593  -0.2834   0.00    0.0
2261 116696   45.955798876  -78.071374087   201.0753   6  13   0.4134   0.5108   0.6844  -0.1813   0.2586  -0.2813   0.00    0.0
2261 116697   45.955798863  -78.071374032   201.0771   6  13   0.4097   0.5074   0.6795  -0.1804   0.2580  -0.2793   0.00    0.0
2261 116698   45.955798850  -78.071373972   201.0815   6  13   0.4060   0.5040   0.6748  -0.1795   0.2573  -0.2773   0.00    0.0
2261 116699   45.955798847  -78.071373977   201.0810   6  13   0.4024   0.5007   0.6701  -0.1785   0.2566  -0.2752   0.00    0.0
2261 116700   45.955798830  -78.071373997   201.0796   6  13   0.3988   0.4974   0.6655  -0.1776   0.2560  -0.2733   0.00    0.0
2261 116701   45.955798842  -78.071374027   201.0782   6  13   0.3953   0.4941   0.6609  -0.1767   0.2553  -0.2713   0.00    0.0
2261 116702   45.955798854  -78.071374047   201.0753   6  13   0.3918   0.4909   0.6565  -0.1758   0.2546  -0.2694   0.00    0.0
2261 116703   45.955798877  -78.071374070   201.0722   6  13   0.3884   0.4877   0.6521  -0.1749   0.2540  -0.2674   0.00    0.0
2261 116704   45.955798902  -78.071374088   201.0646   6  13   0.3850   0.4846   0.6478  -0.1740   0.2533  -0.2656   0.00    0.0
2261 116705   45.955798931  -78.071374095   201.0576   6  13   0.3817   0.4815   0.6435  -0.1731   0.2526  -0.2637   0.00    0.0
2261 116706   45.955798995  -78.071374072   201.0461   6  13   0.3784   0.4784   0.6394  -0.1722   0.2520  -0.2618   0.00    0.0
2261 116707   45.955799090  -78.071374040   201.0286   6  13   0.3752   0.4753   0.6352  -0.1713   0.2513  -0.2600   0.00    0.0
2261 116708   45.955799177  -78.071373989   201.0110   6  13   0.3720   0.4723   0.6312  -0.1705   0.2506  -0.2582   0.00    0.0
2261 116709   45.955799166  -78.071373977   201.0008   6  13   0.3688   0.4693   0.6272  -0.1696   0.2500  -0.2564   0.00    0.0
2261 116710   45.955799160  -78.071373944   200.9904   6  13   0.3657   0.4664   0.6233  -0.1687   0.2493  -0.2546   0.00    0.0
2261 116711   45.955799151  -78.071373898   200.9804   6  13   0.3626   0.4634   0.6195  -0.1679   0.2486  -0.2529   0.00    0.0
2261 116712   45.955799132  -78.071373831   200.9679   6  13   0.3596   0.4605   0.6157  -0.1670   0.2480  -0.2512   0.00    0.0
2261 116713   45.955799118  -78.071373736   200.9556   6  13   0.3566   0.4577   0.6119  -0.1662   0.2473  -0.2495   0.00    0.0
2261 116714   45.955799159  -78.071373726   200.9439   6  13   0.3536   0.4548   0.6082  -0.1653   0.2466  -0.2478   0.00    0.0
2261 116715   45.955799193  -78.071373693   200.9326   6  13   0.3507   0.4520   0.6046  -0.1645   0.2460  -0.2461   0.00    0.0
2261 116716   45.955799230  -78.071373657   200.9196   6  13   0.3479   0.4492   0.6010  -0.1637   0.2453  -0.2445   0.00    0.0
2261 116717   45.955799279  -78.071373595   200.9092   6  13   0.3450   0.4465   0.5975  -0.1628   0.2447  -0.2428   0.00    0.0
2261 116718   45.955799320  -78.071373539   200.8989   6  13   0.3422   0.4437   0.5940  -0.1620   0.2440  -0.2412   0.00    0.0
2261 116719   45.955799323  -78.071373535   200.8957   6  13   0.3394   0.4410   0.5906  -0.1612   0.2433  -0.2396   0.00    0.0
2261 116720   45.955799314  -78.071373542   200.8922   6  13   0.3367   0.4383   0.5872  -0.1604   0.2427  -0.2381   0.00    0.0
2261 116721   45.955799299  -78.071373545   200.8886   6  13   0.3340   0.4357   0.5839  -0.1596   0.2420  -0.2365   0.00    0.0
2261 116722   45.955799294  -78.071373523   200.8843   6  13   0.3313   0.4331   0.5806  -0.1588   0.2414  -0.2350   0.00    0.0
2261 116723   45.955799281  -78.071373503   200.8809   6  13   0.3287   0.4305   0.5774  -0.1580   0.2407  -0.2334   0.00    0.0
2261 116724   45.955799280  -78.071373489   200.8809   6  13   0.3261   0.4279   0.5742  -0.1572   0.2401  -0.2319   0.00    0.0
2261 116725   45.955799306  -78.071373494   200.8786   6  13   0.3236   0.4253   0.5710  -0.1564   0.2394  -0.2304   0.00    0.0
2261 116726   45.955799352  -78.071373502   200.8693   6  13   0.3210   0.4228   0.5679  -0.1556   0.2388  -0.2290   0.00    0.0
2261 116727   45.955799388  -78.071373522   200.8584   6  13   0.3185   0.4203   0.5649  -0.1548   0.2382  -0.2275   0.00    0.0
2261 116728   45.955799414  -78.071373526   200.8495   6  13   0.3161   0.4178   0.5618  -0.1541   0.2375  -0.2261   0.00    0.0
2261 116729   45.955799384  -78.071373487   200.8522   6  13   0.3136   0.4154   0.5588  -0.1533   0.2369  -0.2247   0.00    0.0
2261 116730   45.955799358  -78.071373435   200.8564   6  13   0.3112   0.4130   0.5559  -0.1525   0.2362  -0.2232   0.00    0.0
2261 116731   45.955799351  -78.071373381   200.8570   6  13   0.3088   0.4106   0.5530  -0.1518   0.2356  -0.2219   0.00    0.0
2261 116732   45.955799366  -78.071373319   200.8555   6  13   0.3065   0.4082   0.5501  -0.1510   0.2350  -0.2205   0.00    0.0
2261 116733   45.955799393  -78.071373279   200.8514   6  13   0.3041   0.4058   0.5472  -0.1503   0.2343  -0.2191   0.00    0.0
2261 116734   45.955799405  -78.071373273   200.8498   6  13   0.3018   0.4035   0.5444  -0.1496   0.2337  -0.2178   0.00    0.0
2261 116735   45.955799402  -78.071373277   200.8496   6  13   0.2996   0.4012   0.5417  -0.1488   0.2331  -0.2164   0.00    0.0
2261 116736   45.955799383  -78.071373275   200.8515   6  13   0.2973   0.3989   0.5389  -0.1481   0.2325  -0.2151   0.00    0.0
2261 116737   45.955799350  -78.071373265   200.8565   6  13   0.2951   0.3966   0.5362  -0.1474   0.2318  -0.2138   0.00    0.0
2261 116738   45.955799297  -78.071373251   200.8614   6  13   0.2929   0.3943   0.5335  -0.1466   0.2312  -0.2125   0.00    0.0
2261 116739   45.955799259  -78.071373250   200.8657   6  13   0.2908   0.3921   0.5309  -0.1459   0.2306  -0.2113   0.00    0.0
2261 116740   45.955799213  -78.071373248   200.8696   6  13   0.2886   0.3899   0.5283  -0.1452   0.2300  -0.2100   0.00    0.0
2261 116741   45.955799169  -78.071373238   200.8698   6  13   0.2865   0.3877   0.5257  -0.1445   0.2293  -0.2087   0.00    0.0
2261 116742   45.955799145  -78.071373230   200.8673   6  13   0.2844   0.3855   0.5231  -0.1438   0.2287  -0.2075   0.00    0.0
2261 116743   45.955799133  -78.071373210   200.8624   6  13   0.2824   0.3834   0.5206  -0.1431   0.2281  -0.2063   0.00    0.0
2261 116744   45.955799137  -78.071373185   200.8639   6  13   0.2803   0.3813   0.5181  -0.1424   0.2275  -0.2051   0.00    0.0
2261 116745   45.955799166  -78.071373158   200.8664   6  13   0.2783   0.3791   0.5156  -0.1417   0.2269  -0.2039   0.00    0.0
2261 116746   45.955799193  -78.071373140   200.8718   6  13   0.2763   0.3770   0.5132  -0.1410   0.2263  -0.2027   0.00    0.0
2261 116747   45.955799211  -78.071373139   200.8791   6  13   0.2744   0.3750   0.5107  -0.1404   0.2257  -0.2015   0.00    0.0
2261 116748   45.955799223  -78.071373159   200.8875   6  13   0.2724   0.3729   0.5083  -0.1397   0.2251  -0.2004   0.00    0.0
2261 116749   45.955799209  -78.071373174   200.8934   6  13   0.2705   0.3709   0.5060  -0.1390   0.2245  -0.1992   0.00    0.0
2261 116750   45.955799206  -78.071373200   200.8972   6  13   0.2686   0.3689   0.5036  -0.1384   0.2239  -0.1981   0.00    0.0
2261 116751   45.955799190  -78.071373218   200.9026   6  13   0.2667   0.3669   0.5013  -0.1377   0.2233  -0.1970   0.00    0.0
2261 116752   45.955799177  -78.071373239   200.9072   6  13   0.2649   0.3649   0.4990  -0.1370   0.2227  -0.1958   0.00    0.0
2261 116753   45.955799160  -78.071373277   200.9116   6  13   0.2630   0.3629   0.4967  -0.1364   0.2221  -0.1947   0.00    0.0
2261 116754   45.955799151  -78.071373312   200.9163   6  13   0.2612   0.3610   0.4944  -0.1357   0.2215  -0.1936   0.00    0.0
2261 116755   45.955799130  -78.071373336   200.9239   6  13   0.2594   0.3590   0.4922  -0.1351   0.2209  -0.1926   0.00    0.0
2261 116756   45.955799102  -78.071373344   200.9323   6  13   0.2576   0.3571   0.4900  -0.1345   0.2203  -0.1915   0.00    0.0
2261 116757   45.955799085  -78.071373358   200.9419   6  13   0.2559   0.3552   0.4878  -0.1338   0.2197  -0.1904   0.00    0.0
2261 116758   45.955799070  -78.071373367   200.9512   6  13   0.2541   0.3533   0.4856  -0.1332   0.2191  -0.1894   0.00    0.0
2261 116759   45.955799068  -78.071373390   200.9539   6  13   0.2524   0.3515   0.4835  -0.1326   0.2185  -0.1884   0.00    0.0
2261 116760   45.955799066  -78.071373419   200.9579   6  13   0.2507   0.3496   0.4813  -0.1319   0.2179  -0.1873   0.00    0.0
2261 116761   45.955799060  -78.071373452   200.9600   6  13   0.2490   0.3478   0.4792  -0.1313   0.2173  -0.1863   0.00    0.0
2261 116762   45.955799047  -78.071373478   200.9634   6  13   0.2474   0.3460   0.4771  -0.1307   0.2168  -0.1853   0.00    0.0
2261 116763   45.955799021  -78.071373493   200.9676   6  13   0.2457   0.3442   0.4750  -0.1301   0.2162  -0.1843   0.00    0.0
2261 116764   45.955799010  -78.071373471   200.9742   6  13   0.2441   0.3424   0.4730  -0.1295   0.2156  -0.1833   0.00    0.0
2261 116765   45.955799002  -78.071373428   200.9814   6  13   0.2425   0.3406   0.4709  -0.1289   0.2150  -0.1823   0.00    0.0
2261 116766   45.955799014  -78.071373371   200.9861   6  13   0.2409   0.3389   0.4689  -0.1283   0.2144  -0.1814   0.00    0.0
2261 116767   45.955799040  -78.071373313   200.9899   6  13   0.2393   0.3371   0.4669  -0.1277   0.2139  -0.1804   0.00    0.0
2261 116768   45.955799074  -78.071373261   200.9918   6  13   0.2377   0.3354   0.4649  -0.1271   0.2133  -0.1795   0.00    0.0
2261 116769   45.955799106  -78.071373280   200.9892   6  13   0.2362   0.3337   0.4629  -0.1265   0.2127  -0.1785   0.00    0.0
2261 116770   45.955799137  -78.071373302   200.9861   6  13   0.2347   0.3320   0.4610  -0.1260   0.2121  -0.1776   0.00    0.0
2261 116771   45.955799161  -78.071373333   200.9843   6  13   0.2331   0.3303   0.4590  -0.1254   0.2116  -0.1767   0.00    0.0
2261 116772   45.955799175  -78.071373373   200.9828   6  13   0.2317   0.3286   0.4571  -0.1248   0.2110  -0.1758   0.00    0.0
2261 116773   45.955799191  -78.071373421   200.9812   6  13   0.2302   0.3270   0.4552  -0.1242   0.2104  -0.1748   0.00    0.0
2261 116774   45.955799180  -78.071373446   200.9842   6  13   0.2287   0.3253   0.4533  -0.1237   0.2099  -0.1739   0.00    0.0
2261 116775   45.955799163  -78.071373478   200.9872   6  13   0.2273   0.3237   0.4514  -0.1231   0.2093  -0.1731   0.00    0.0
2261 116776   45.955799158  -78.071373502   200.9887   6  13   0.2258   0.3221   0.4495  -0.1226   0.2087  -0.1722   0.00    0.0
2261 116777   45.955799148  -78.071373525   200.9897   6  13   0.2244   0.3205   0.4477  -0.1220   0.2082  -0.1713   0.00    0.0
2261 116778   45.955799137  -78.071373538   200.9930   6  13   0.2230   0.3189   0.4458  -0.1214   0.2076  -0.1704   0.00    0.0
2261 116779   45.955799122  -78.071373499   200.9995   6  13   0.2216   0.3173   0.4440  -0.1209   0.2071  -0.1696   0.00    0.0
2261 116780   45.955799091  -78.071373444   201.0094   6  13   0.2202   0.3158   0.4422  -0.1204   0.2065  -0.1687   0.00    0.0
2261 116781   45.955799057  -78.071373385   201.0208   6  13   0.2189   0.3142   0.4404  -0.1198   0.2059  -0.1679   0.00    0.0
2261 116782   45.955799020  -78.071373322   201.0326   6  13   0.2175   0.3127   0.4386  -0.1193   0.2054  -0.1671   0.00    0.0
2261 116783   45.955799002  -78.071373260   201.0451   6  13   0.2162   0.3112   0.4368  -0.1187   0.2048  -0.1662   0.00    0.0
2261 116784   45.955799000  -78.071373270   201.0482   6  13   0.2149   0.3097   0.4351  -0.1182   0.2043  -0.1654   0.00    0.0
2261 116785   45.955799004  -78.071373281   201.0509   6  13   0.2135   0.3082   0.4333  -0.1177   0.2037  -0.1646   0.00    0.0
2261 116786   45.955799008  -78.071373307   201.0530   6  13   0.2122   0.3067   0.4316  -0.1172   0.2032  -0.1638   0.00    0.0
2261 116787   45.955799019  -78.071373337   201.0534   6  13   0.2110   0.3052   0.4299  -0.1167   0.2026  -0.1630   0.00    0.0
2261 116788   45.955799036  -78.071373368   201.0531   6  13   0.2097   0.3037   0.4282  -0.1161   0.2021  -0.1622   0.00    0.0
2261 116789   45.955799029  -78.071373382   201.0559   6  13   0.2084   0.3023   0.4265  -0.1156   0.2015  -0.1614   0.00    0.0
2261 116790   45.955799015  -78.071373375   201.0607   6  13   0.2072   0.3008   0.4248  -0.1151   0.2010  -0.1606   0.00    0.0
2261 116791   45.955798994  -78.071373365   201.0660   6  13   0.2059   0.2994   0.4231  -0.1146   0.2004  -0.1599   0.00    0.0
2261 116792   45.955798972  -78.071373344   201.0723   6  13   0.2047   0.2980   0.4214  -0.1141   0.1999  -0.1591   0.00    0.0
2261 116793   45.955798962  -78.071373322   201.0787   6  13   0.2035   0.2966   0.4198  -0.1136   0.1993  -0.1583   0.00    0.0
2261 116794   45.955798987  -78.071373330   201.0774   6  13   0.2023   0.2952   0.4181  -0.1131   0.1988  -0.1576   0.00    0.0
2261 116795   45.955798999  -78.071373347   201.0771   6  13   0.2011   0.2938   0.4165  -0.1126   0.1983  -0.1568   0.00    0.0
2261 116796   45.955799018  -78.071373381   201.0752   6  13   0.2000   0.2924   0.4148  -0.1121   0.1977  -0.1561   0.00    0.0
2261 116797   45.955799044  -78.071373416   201.0743   6  13   0.1988   0.2911   0.4132  -0.1117   0.1972  -0.1554   0.00    0.0
2261 116798   45.955799064  -78.071373442   201.0746   6  13   0.1976   0.2897   0.4116  -0.1112   0.1966  -0.1546   0.00    0.0
2261 116799   45.955799065  -78.071373454   201.0788   6  13   0.1965   0.2884   0.4100  -0.1107   0.1961  -0.1539   0.00    0.0
2261 116800   45.955799068  -78.071373467   201.0813   6  13   0.1954   0.2870   0.4084  -0.1102   0.1956  -0.1532   0.00    0.0
2261 116801   45.955799072  -78.071373478   201.0845   6  13   0.1942   0.2857   0.4069  -0.1097   0.1950  -0.1525   0.00    0.0
2261 116802   45.955799064  -78.071373490   201.0888   6  13   0.1931   0.2844   0.4053  -0.1093   0.1945  -0.1518   0.00    0.0
2261 116803   45.955799059  -78.071373497   201.0942   6  13   0.1920   0.2831   0.4037  -0.1088   0.1940  -0.1511   0.00    0.0
2261 116804   45.955799053  -78.071373506   201.0984   6  13   0.1909   0.2818   0.4022  -0.1083   0.1934  -0.1504   0.00    0.0
2261 116805   45.955799053  -78.071373521   201.1030   6  13   0.1899   0.2805   0.4007  -0.1079   0.1929  -0.1497   0.00    0.0
2261 116806   45.955799057  -78.071373547   201.1067   6  13   0.1888   0.2792   0.3991  -0.1074   0.1924  -0.1490   0.00    0.0
2261 116807   45.955799065  -78.071373578   201.1097   6  13   0.1877   0.2780   0.3976  -0.1070   0.1919  -0.1483   0.00    0.0
2261 116808   45.955799065  -78.071373609   201.1140   6  13   0.1867   0.2767   0.3961  -0.1065   0.1913  -0.1477   0.00    0.0
2261 116809   45.955799057  -78.071373607   201.1161   6  13   0.1856   0.2755   0.3946  -0.1061   0.1908  -0.1470   0.00    0.0
2261 116810   45.955799051  -78.071373608   201.1196   6  13   0.1846   0.2742   0.3931  -0.1056   0.1903  -0.1463   0.00    0.0
2261 116811   45.955799055  -78.071373606   201.1226   6  13   0.1836   0.2730   0.3916  -0.1052   0.1898  -0.1457   0.00    0.0
2261 116812   45.955799062  -78.071373599   201.1248   6  13   0.1826   0.2718   0.3901  -0.1047   0.1892  -0.1450   0.00    0.0
2261 116813   45.955799074  -78.071373599   201.1258   6  13   0.1816   0.2706   0.3887  -0.1043   0.1887  -0.1444   0.00    0.0
2261 116814   45.955799094  -78.071373600   201.1230   6  13   0.1806   0.2694   0.3872  -0.1039   0.1882  -0.1438   0.00    0.0
2261 116815   45.955799094  -78.071373581   201.1241   6  13   0.1796   0.2682   0.3858  -0.1034   0.1877  -0.1431   0.00    0.0
2261 116816   45.955799099  -78.071373569   201.1238   6  13   0.1786   0.2670   0.3843  -0.1030   0.1872  -0.1425   0.00    0.0
2261 116817   45.955799110  -78.071373572   201.1221   6  13   0.1776   0.2658   0.3829  -0.1026   0.1867  -0.1419   0.00    0.0
2261 116818   45.955799118  -78.071373570   201.1213   6  13   0.1767   0.2647   0.3815  -0.1022   0.1861  -0.1412   0.00    0.0
2261 116819   45.955799121  -78.071373562   201.1212   6  13   0.1757   0.2635   0.3800  -0.1017   0.1856  -0.1406   0.00    0.0
2261 116820   45.955799122  -78.071373552   201.1218   6  13   0.1748   0.2624   0.3786  -0.1013   0.1851  -0.1400   0.00    0.0
2261 116821   45.955799127  -78.071373537   201.1223   6  13   0.1739   0.2612   0.3772  -0.1009   0.1846  -0.1394   0.00    0.0
2261 116822   45.955799133  -78.071373521   201.1217   6  13   0.1729   0.2601   0.3758  -0.1005   0.1841  -0.1388   0.00    0.0
2261 116823   45.955799146  -78.071373501   201.1199   6  13   0.1720   0.2590   0.3744  -0.1001   0.1836  -0.1382   0.00    0.0
2261 116824   45.955799167  -78.071373495   201.1162   6  13   0.1711   0.2579   0.3731  -0.0997   0.1831  -0.1376   0.00    0.0
2261 116825   45.955799192  -78.071373492   201.1103   6  13   0.1702   0.2568   0.3717  -0.0993   0.1826  -0.1370   0.00    0.0
2261 116826   45.955799218  -78.071373491   201.1032   6  13   0.1693   0.2557   0.3703  -0.0989   0.1821  -0.1364   0.00    0.0
2261 116827   45.955799242  -78.071373487   201.0979   6  13   0.1684   0.2546   0.3689  -0.0985   0.1816  -0.1359   0.00    0.0
2261 116828   45.955799270  -78.071373481   201.0942   6  13   0.1675   0.2535   0.3676  -0.0981   0.1811  -0.1353   0.00    0.0
2261 116829   45.955799279  -78.071373461   201.0967   6  13   0.1667   0.2524   0.3662  -0.0977   0.1806  -0.1347   0.00    0.0
2261 116830   45.955799287  -78.071373423   201.1010   6  13   0.1658   0.2513   0.3649  -0.0973   0.1801  -0.1341   0.00    0.0
2261 116831   45.955799294  -78.071373382   201.1054   6  13   0.1650   0.2503   0.3636  -0.0969   0.1796  -0.1336   0.00    0.0
2261 116832   45.955799302  -78.071373339   201.1110   6  13   0.1641   0.2492   0.3622  -0.0965   0.1791  -0.1330   0.00    0.0
2261 116833   45.955799303  -78.071373296   201.1179   6  13   0.1633   0.2482   0.3609  -0.0961   0.1786  -0.1325   0.00    0.0
2261 116834   45.955799306  -78.071373250   201.1250   6  13   0.1624   0.2471   0.3596  -0.0957   0.1781  -0.1319   0.00    0.0
2261 116835   45.955799312  -78.071373228   201.1251   6  13   0.1616   0.2461   0.3583  -0.0953   0.1776  -0.1313   0.00    0.0
2261 116836   45.955799315  -78.071373195   201.1258   6  13   0.1608   0.2451   0.3570  -0.0950   0.1771  -0.1308   0.00    0.0
2261 116837   45.955799310  -78.071373160   201.1278   6  13   0.1600   0.2441   0.3557  -0.0946   0.1766  -0.1303   0.00    0.0
2261 116838   45.955799301  -78.071373116   201.1306   6  13   0.1592   0.2431   0.3544  -0.0942   0.1761  -0.1297   0.00    0.0
2261 116839   45.955799301  -78.071373095   201.1298   6  13   0.1584   0.2421   0.3532  -0.0938   0.1756  -0.1292   0.00    0.0
2261 116840   45.955799307  -78.071373070   201.1302   6  13   0.1576   0.2411   0.3519  -0.0935   0.1751  -0.1287   0.00    0.0
2261 116841   45.955799315  -78.071373051   201.1309   6  13   0.1568   0.2401   0.3506  -0.0931   0.1746  -0.1281   0.00    0.0
2261 116842   45.955799327  -78.071373031   201.1313   6  13   0.1560   0.2391   0.3494  -0.0927   0.1741  -0.1276   0.00    0.0
2261 116843   45.955799343  -78.071373018   201.1309   6  13   0.1552   0.2381   0.3481  -0.0924   0.1736  -0.1271   0.00    0.0
2261 116844   45.955799359  -78.071372998   201.1304   6  13   0.1545   0.2371   0.3469  -0.0920   0.1732  -0.1266   0.00    0.0
2261 116845   45.955799381  -78.071372998   201.1273   6  13   0.1537   0.2362   0.3456  -0.0917   0.1727  -0.1261   0.00    0.0
2261 116846   45.955799406  -78.071372992   201.1241   6  13   0.1529   0.2352   0.3444  -0.0913   0.1722  -0.1256   0.00    0.0
2261 116847   45.955799432  -78.071372978   201.1212   6  13   0.1522   0.2343   0.3431  -0.0909   0.1717  -0.1250   0.00    0.0
2261 116848   45.955799460  -78.071372963   201.1179   6  13   0.1514   0.2333   0.3419  -0.0906   0.1712  -0.1245   0.00    0.0
2261 116849   45.955799471  -78.071372945   201.1166   6  13   0.1507   0.2324   0.3407  -0.0902   0.1708  -0.1240   0.00    0.0
2261 116850   45.955799478  -78.071372921   201.1160   6  13   0.1500   0.2315   0.3395  -0.0899   0.1703  -0.1235   0.00    0.0
2261 116851   45.955799486  -78.071372900   201.1139   6  13   0.1493   0.2305   0.3383  -0.0895   0.1698  -0.1231   0.00    0.0
2261 116852   45.955799498  -78.071372883   201.1115   6  13   0.1485   0.2296   0.3371  -0.0892   0.1693  -0.1226   0.00    0.0
2261 116853   45.955799514  -78.071372863   201.1094   6  13   0.1478   0.2287   0.3359  -0.0889   0.1688  -0.1221   0.00    0.0
2261 116854   45.955799526  -78.071372855   201.1082   6  13   0.1471   0.2278   0.3347  -0.0885   0.1684  -0.1216   0.00    0.0
2261 116855   45.955799534  -78.071372844   201.1074   6  13   0.1464   0.2269   0.3335  -0.0882   0.1679  -0.1211   0.00    0.0
2261 116856   45.955799539  -78.071372833   201.1077   6  13   0.1457   0.2260   0.3323  -0.0878   0.1674  -0.1206   0.00    0.0
2261 116857   45.955799541  -78.071372813   201.1080   6  13   0.1450   0.2251   0.3312  -0.0875   0.1670  -0.1202   0.00    0.0
2261 116858   45.955799548  -78.071372809   201.1067   6  13   0.1443   0.2242   0.3300  -0.0872   0.1665  -0.1197   0.00    0.0
2261 116859   45.955799562  -78.071372814   201.1035   6  13   0.1437   0.2233   0.3288  -0.0868   0.1660  -0.1192   0.00    0.0
2261 116860   45.955799579  -78.071372826   201.0987   6  13   0.1430   0.2225   0.3277  -0.0865   0.1656  -0.1188   0.00    0.0
2261 116861   45.955799600  -78.071372842   201.0928   6  13   0.1423   0.2216   0.3265  -0.0862   0.1651  -0.1183   0.00    0.0
2261 116862   45.955799626  -78.071372856   201.0871   6  13   0.1416   0.2207   0.3254  -0.0859   0.1646  -0.1178   0.00    0.0
2261 116863   45.955799651  -78.071372860   201.0816   6  13   0.1410   0.2199   0.3242  -0.0855   0.1642  -0.1174   0.00    0.0
2261 116864   45.955799654  -78.071372827   201.0808   6  13   0.1403   0.2190   0.3231  -0.0852   0.1637  -0.1169   0.00    0.0
2261 116865   45.955799662  -78.071372798   201.0788   6  13   0.1397   0.2182   0.3220  -0.0849   0.1632  -0.1165   0.00    0.0
2261 116866   45.955799671  -78.071372771   201.0763   6  13   0.1390   0.2174   0.3209  -0.0846   0.1628  -0.1160   0.00    0.0
2261 116867   45.955799682  -78.071372752   201.0728   6  13   0.1384   0.2165   0.3197  -0.0843   0.1623  -0.1156   0.00    0.0
2261 116868   45.955799694  -78.071372751   201.0677   6  13   0.1378   0.2157   0.3186  -0.0840   0.1619  -0.1151   0.00    0.0
2261 116869   45.955799704  -78.071372752   201.0637   6  13   0.1371   0.2149   0.3175  -0.0836   0.1614  -0.1147   0.00    0.0
2261 116870   45.955799711  -78.071372750   201.0599   6  13   0.1365   0.2141   0.3164  -0.0833   0.1610  -0.1143   0.00    0.0
2261 116871   45.955799712  -78.071372750   201.0563   6  13   0.1359   0.2132   0.3153  -0.0830   0.1605  -0.1138   0.00    0.0
2261 116872   45.955799708  -78.071372747   201.0536   6  13   0.1353   0.2124   0.3142  -0.0827   0.1600  -0.1134   0.00    0.0
2261 116873   45.955799704  -78.071372754   201.0508   6  13   0.1347   0.2116   0.3131  -0.0824   0.1596  -0.1130   0.00    0.0
2261 116874   45.955799708  -78.071372760   201.0484   6  13   0.1341   0.2108   0.3121  -0.0821   0.1591  -0.1126   0.00    0.0
2261 116875   45.955799709  -78.071372761   201.0456   6  13   0.1335   0.2100   0.3110  -0.0818   0.1587  -0.1121   0.00    0.0
2261 116876   45.955799721  -78.071372765   201.0411   6  13   0.1329   0.2093   0.3099  -0.0815   0.1582  -0.1117   0.00    0.0
2261 116877   45.955799738  -78.071372771   201.0365   6  13   0.1323   0.2085   0.3088  -0.0812   0.1578  -0.1113   0.00    0.0
2261 116878   45.955799754  -78.071372773   201.0324   6  13   0.1317   0.2077   0.3078  -0.0809   0.1574  -0.1109   0.00    0.0
2261 116879   45.955799764  -78.071372763   201.0306   6  13   0.1311   0.2069   0.3067  -0.0806   0.1569  -0.1105   0.00    0.0
2261 116880   45.955799773  -78.071372750   201.0289   6  13   0.1305   0.2062   0.3057  -0.0803   0.1565  -0.1101   0.00    0.0
2261 116881   45.955799777  -78.071372732   201.0271   6  13   0.1299   0.2054   0.3046  -0.0800   0.1560  -0.1096   0.00    0.0
2261 116882   45.955799776  -78.071372709   201.0248   6  13   0.1294   0.2046   0.3036  -0.0797   0.1556  -0.1092   0.00    0.0
2261 116883   45.955799774  -78.071372690   201.0226   6  13   0.1288   0.2039   0.3025  -0.0795   0.1551  -0.1088   0.00    0.0
2261 116884   45.955799776  -78.071372689   201.0207   6  13   0.1282   0.2031   0.3015  -0.0792   0.1547  -0.1084   0.00    0.0
2261 116885   45.955799776  -78.071372698   201.0173   6  13   0.1277   0.2024   0.3005  -0.0789   0.1543  -0.1080   0.00    0.0
2261 116886   45.955799780  -78.071372710   201.0125   6  13   0.1271   0.2016   0.2995  -0.0786   0.1538  -0.1076   0.00    0.0
2261 116887   45.955799790  -78.071372728   201.0064   6  13   0.1266   0.2009   0.2984  -0.0783   0.1534  -0.1072   0.00    0.0
2261 116888   45.955799799  -78.071372739   201.0003   6  13   0.1260   0.2002   0.2974  -0.0780   0.1530  -0.1069   0.00    0.0
2261 116889   45.955799809  -78.071372737   200.9976   6  13   0.1255   0.1995   0.2964  -0.0778   0.1525  -0.1065   0.00    0.0
2261 116890   45.955799824  -78.071372726   200.9948   6  13   0.1249   0.1987   0.2954  -0.0775   0.1521  -0.1061   0.00    0.0
2261 116891   45.955799843  -78.071372708   200.9929   6  13   0.1244   0.1980   0.2944  -0.0772   0.1517  -0.1057   0.00    0.0
2261 116892   45.955799859  -78.071372681   200.9914   6  13   0.1239   0.1973   0.2934  -0.0769   0.1513  -0.1053   0.00    0.0
2261 116893   45.955799883  -78.071372650   200.9897   6  13   0.1234   0.1966   0.2924  -0.0767   0.1508  -0.1049   0.00    0.0
2261 116894   45.955799892  -78.071372639   200.9881   6  13   0.1228   0.1959   0.2914  -0.0764   0.1504  -0.1045   0.00    0.0
2261 116895   45.955799900  -78.071372628   200.9866   6  13   0.1223   0.1952   0.2904  -0.0761   0.1500  -0.1042   0.00    0.0
2261 116896   45.955799908  -78.071372618   200.9846   6  13   0.1218   0.1945   0.2895  -0.0759   0.1496  -0.1038   0.00    0.0
2261 116897   45.955799915  -78.071372619   200.9814   6  13   0.1213   0.1938   0.2885  -0.0756   0.1491  -0.1034   0.00    0.0
2261 116898   45.955799924  -78.071372623   200.9783   6  13   0.1208   0.1931   0.2875  -0.0753   0.1487  -0.1031   0.00    0.0
2261 116899   45.955799927  -78.071372616   200.9777   6  13   0.1203   0.1924   0.2866  -0.0751   0.1483  -0.1027   0.00    0.0
2261 116900   45.955799934  -78.071372612   200.9775   6  13   0.1198   0.1917   0.2856  -0.0748   0.1479  -0.1023   0.00    0.0
2261 116901   45.955799939  -78.071372607   200.9776   6  13   0.1193   0.1911   0.2846  -0.0745   0.1475  -0.1020   0.00    0.0
2261 116902   45.955799948  -78.071372612   200.9768   6  13   0.1188   0.1904   0.2837  -0.0743   0.1470  -0.1016   0.00    0.0
2261 116903   45.955799956  -78.071372617   200.9753   6  13   0.1183   0.1897   0.2827  -0.0740   0.1466  -0.1012   0.00    0.0
2261 116904   45.955799959  -78.071372612   200.9749   6  13   0.1178   0.1891   0.2818  -0.0738   0.1462  -0.1009   0.00    0.0
2261 116905   45.955799961  -78.071372610   200.9742   6  13   0.1173   0.1884   0.2809  -0.0735   0.1458  -0.1005   0.00    0.0
2261 116906   45.955799958  -78.071372609   200.9746   6  13   0.1168   0.1877   0.2799  -0.0733   0.1454  -0.1002   0.00    0.0
2261 116907   45.955799958  -78.071372610   200.9752   6  13   0.1163   0.1871   0.2790  -0.0730   0.1450  -0.0998   0.00    0.0
2261 116908   45.955799959  -78.071372615   200.9752   6  13   0.1159   0.1864   0.2781  -0.0727   0.1446  -0.0995   0.00    0.0
2261 116909   45.955799962  -78.071372626   200.9738   6  13   0.1154   0.1858   0.2771  -0.0725   0.1442  -0.0991   0.00    0.0
2261 116910   45.955799970  -78.071372645   200.9712   6  13   0.1149   0.1852   0.2762  -0.0723   0.1438  -0.0988   0.00    0.0
2261 116911   45.955799976  -78.071372671   200.9685   6  13   0.1145   0.1845   0.2753  -0.0720   0.1434  -0.0984   0.00    0.0
2261 116912   45.955799986  -78.071372694   200.9659   6  13   0.1140   0.1839   0.2744  -0.0718   0.1430  -0.0981   0.00    0.0
2261 116913   45.955799992  -78.071372714   200.9637   6  13   0.1135   0.1832   0.2735  -0.0715   0.1426  -0.0977   0.00    0.0
2261 116914   45.955799991  -78.071372701   200.9657   6  13   0.1131   0.1826   0.2726  -0.0713   0.1422  -0.0974   0.00    0.0
2261 116915   45.955799981  -78.071372673   200.9689   6  13   0.1126   0.1820   0.2717  -0.0710   0.1418  -0.0971   0.00    0.0
2261 116916   45.955799968  -78.071372642   200.9733   6  13   0.1122   0.1814   0.2708  -0.0708   0.1414  -0.0967   0.00    0.0
2261 116917   45.955799955  -78.071372607   200.9775   6  13   0.1117   0.1808   0.2699  -0.0705   0.1410  -0.0964   0.00    0.0
2261 116918   45.955799948  -78.071372574   200.9805   6  13   0.1113   0.1801   0.2690  -0.0703   0.1406  -0.0961   0.00    0.0
2261 116919   45.955799965  -78.071372586   200.9765   6  13   0.1109   0.1795   0.2681  -0.0701   0.1402  -0.0957   0.00    0.0
2261 116920   45.955799987  -78.071372601   200.9720   6  13   0.1104   0.1789   0.2673  -0.0698   0.1398  -0.0954   0.00    0.0
2261 116921   45.955800007  -78.071372617   200.9671   6  13   0.1100   0.1783   0.2664  -0.0696   0.1394  -0.0951   0.00    0.0
2261 116922   45.955800021  -78.071372631   200.9629   6  13   0.1096   0.1777   0.2655  -0.0694   0.1390  -0.0948   0.00    0.0
2261 116923   45.955800033  -78.071372635   200.9602   6  13   0.1091   0.1771   0.2646  -0.0691   0.1386  -0.0944   0.00    0.0
2261 116924   45.955800027  -78.071372632   200.9616   6  13   0.1087   0.1765   0.2638  -0.0689   0.1382  -0.0941   0.00    0.0
2261 116925   45.955800023  -78.071372626   200.9626   6  13   0.1083   0.1760   0.2629  -0.0687   0.1378  -0.0938   0.00    0.0
2261 116926   45.955800019  -78.071372619   200.9639   6  13   0.1079   0.1754   0.2621  -0.0684   0.1374  -0.0935   0.00    0.0
2261 116927   45.955800016  -78.071372609   200.9644   6  13   0.1074   0.1748   0.2612  -0.0682   0.1371  -0.0932   0.00    0.0
2261 116928   45.955800012  -78.071372614   200.9639   6  13   0.1070   0.1742   0.2604  -0.0680   0.1367  -0.0928   0.00    0.0
2261 116929   45.955800006  -78.071372619   200.9639   6  13   0.1066   0.1736   0.2595  -0.0678   0.1363  -0.0925   0.00    0.0
2261 116930   45.955800001  -78.071372619   200.9642   6  13   0.1062   0.1731   0.2587  -0.0675   0.1359  -0.0922   0.00    0.0
2261 116931   45.955799995  -78.071372625   200.9648   6  13   0.1058   0.1725   0.2578  -0.0673   0.1355  -0.0919   0.00    0.0
2261 116932   45.955799992  -78.071372637   200.9660   6  13   0.1054   0.1719   0.2570  -0.0671   0.1352  -0.0916   0.00    0.0
2261 116933   45.955799989  -78.071372651   200.9679   6  13   0.1050   0.1714   0.2562  -0.0669   0.1348  -0.0913   0.00    0.0
2261 116934   45.955799993  -78.071372656   200.9679   6  13   0.1046   0.1708   0.2554  -0.0667   0.1344  -0.0910   0.00    0.0
2261 116935   45.955800002  -78.071372667   200.9675   6  13   0.1042   0.1702   0.2545  -0.0664   0.1340  -0.0907   0.00    0.0
2261 116936   45.955800013  -78.071372677   200.9680   6  13   0.1038   0.1697   0.2537  -0.0662   0.1337  -0.0904   0.00    0.0
2261 116937   45.955800027  -78.071372691   200.9679   6  13   0.1034   0.1691   0.2529  -0.0660   0.1333  -0.0901   0.00    0.0
2261 116938   45.955800045  -78.071372712   200.9669   6  13   0.1030   0.1686   0.2521  -0.0658   0.1329  -0.0898   0.00    0.0
2261 116939   45.955800052  -78.071372723   200.9653   6  13   0.1026   0.1680   0.2513  -0.0656   0.1325  -0.0895   0.00    0.0
2261 116940   45.955800062  -78.071372737   200.9630   6  13   0.1022   0.1675   0.2505  -0.0654   0.1322  -0.0892   0.00    0.0
2261 116941   45.955800070  -78.071372758   200.9607   6  13   0.1019   0.1670   0.2497  -0.0651   0.1318  -0.0889   0.00    0.0
2261 116942   45.955800077  -78.071372772   200.9595   6  13   0.1015   0.1664   0.2489  -0.0649   0.1314  -0.0886   0.00    0.0
2261 116943   45.955800082  -78.071372794   200.9582   6  13   0.1011   0.1659   0.2481  -0.0647   0.1311  -0.0883   0.00    0.0
2261 116944   45.955800080  -78.071372798   200.9584   6  13   0.1007   0.1653   0.2473  -0.0645   0.1307  -0.0880   0.00    0.0
2261 116945   45.955800077  -78.071372800   200.9592   6  13   0.1004   0.1648   0.2465  -0.0643   0.1304  -0.0878   0.00    0.0
2261 116946   45.955800074  -78.071372802   200.9607   6  13   0.1000   0.1643   0.2457  -0.0641   0.1300  -0.0875   0.00    0.0
2261 116947   45.955800074  -78.071372808   200.9620   6  13   0.0996   0.1638   0.2449  -0.0639   0.1296  -0.0872   0.00    0.0
2261 116948   45.955800073  -78.071372814   200.9631   6  13   0.0993   0.1633   0.2442  -0.0637   0.1293  -0.0869   0.00    0.0
2261 116949   45.955800070  -78.071372816   200.9637   6  13   0.0989   0.1627   0.2434  -0.0635   0.1289  -0.0866   0.00    0.0
2261 116950   45.955800071  -78.071372821   200.9635   6  13   0.0985   0.1622   0.2426  -0.0633   0.1286  -0.0863   0.00    0.0
2261 116951   45.955800071  -78.071372836   200.9630   6  13   0.0982   0.1617   0.2419  -0.0631   0.1282  -0.0861   0.00    0.0
2261 116952   45.955800069  -78.071372855   200.9630   6  13   0.0978   0.1612   0.2411  -0.0629   0.1278  -0.0858   0.00    0.0
2261 116953   45.955800068  -78.071372867   200.9636   6  13   0.0975   0.1607   0.2403  -0.0627   0.1275  -0.0855   0.00    0.0
2261 116954   45.955800063  -78.071372862   200.9657   6  13   0.0971   0.1602   0.2396  -0.0625   0.1271  -0.0852   0.00    0.0
2261 116955   45.955800059  -78.071372853   200.9678   6  13   0.0968   0.1597   0.2388  -0.0623   0.1268  -0.0850   0.00    0.0
2261 116956   45.955800057  -78.071372844   200.9698   6  13   0.0964   0.1592   0.2381  -0.0621   0.1264  -0.0847   0.00    0.0
2261 116957   45.955800061  -78.071372843   200.9704   6  13   0.0961   0.1587   0.2373  -0.0619   0.1261  -0.0844   0.00    0.0
2261 116958   45.955800069  -78.071372845   200.9700   6  13   0.0957   0.1582   0.2366  -0.0617   0.1257  -0.0841   0.00    0.0
2261 116959   45.955800074  -78.071372844   200.9692   6  13   0.0954   0.1577   0.2359  -0.0615   0.1254  -0.0839   0.00    0.0
2261 116960   45.955800080  -78.071372838   200.9684   6  13   0.0950   0.1572   0.2351  -0.0613   0.1251  -0.0836   0.00    0.0
2261 116961   45.955800086  -78.071372832   200.9679   6  13   0.0947   0.1567   0.2344  -0.0611   0.1247  -0.0833   0.00    0.0
2261 116962   45.955800095  -78.071372829   200.9674   6  13   0.0944   0.1563   0.2337  -0.0609   0.1244  -0.0831   0.00    0.0
2261 116963   45.955800107  -78.071372833   200.9662   6  13   0.0940   0.1558   0.2329  -0.0607   0.1240  -0.0828   0.00    0.0
2261 116964   45.955800108  -78.071372831   200.9665   6  13   0.0937   0.1553   0.2322  -0.0606   0.1237  -0.0826   0.00    0.0
2261 116965   45.955800111  -78.071372838   200.9657   6  13   0.0934   0.1548   0.2315  -0.0604   0.1233  -0.0823   0.00    0.0
2261 116966   45.955800110  -78.071372847   200.9648   6  13   0.0930   0.1544   0.2308  -0.0602   0.1230  -0.0820   0.00    0.0
2261 116967   45.955800106  -78.071372852   200.9640   6  13   0.0927   0.1539   0.2301  -0.0600   0.1227  -0.0818   0.00    0.0
