%  GPST Time  latitude(deg) longitude(deg)  height(m)   Q  ns   sdn(m)   sde(m)   sdu(m)  sdne(m)  sdeu(m)  sdun(m) age(s)  ratio
2282 547473   16.262302420  -61.527530410   -27.0255   6   5  18.5926  39.2914  24.7900 -24.1681 -15.3739  11.7527   0.00    0.0
2282 547474   16.262301461  -61.527528037   -27.3593   6   5  13.2427  28.0077  17.7475 -17.1776 -11.0174   8.3623   0.00    0.0
2282 547475   16.262301858  -61.527531039   -27.4558   6   5  10.8410  22.9330  14.5549 -14.0518  -9.0402   6.8441   0.00    0.0
2282 547476   16.262302853  -61.527533564   -27.4192   6   5   9.4022  19.8901  12.6349 -12.1821  -7.8505   5.9357   0.00    0.0
2282 547477   16.262303882  -61.527535632   -27.3889   6   5   8.4178  17.8070  11.3185 -10.9040  -7.0346   5.3147   0.00    0.0
2282 547478   16.262304581  -61.527536357   -27.3938   6   5   7.6900  16.2665  10.3440  -9.9596  -6.4305   4.8559   0.00    0.0
2282 547479   16.262304886  -61.527535676   -27.3229   6   5   7.1239  15.0676   9.5853  -9.2252  -5.9601   4.4991   0.00    0.0
2282 547480   16.262305414  -61.527536083   -27.2487   6   5   6.6673  14.1003   8.9729  -8.6330  -5.5805   4.2115   0.00    0.0
2282 547481   16.262305584  -61.527537049   -27.2063   6   5   6.2889  13.2986   8.4652  -8.1423  -5.2657   3.9732   0.00    0.0
2282 547482   16.262306046  -61.527538488   -27.2000   6   5   5.9687  12.6200   8.0354  -7.7272  -4.9993   3.7717   0.00    0.0
2282 547483   16.262306447  -61.527539284   -27.1651   6   5   5.6931  12.0360   7.6655  -7.3701  -4.7700   3.5983   0.00    0.0
2282 547484   16.262306170  -61.527539483   -26.9003   6   7   5.0234  10.2419   7.2301  -6.2297  -4.1321   3.2871   0.00    0.0
2282 547485   16.262306107  -61.527540061   -26.7641   6   7   4.6317   9.2330   6.8836  -5.5961  -3.7483   3.0911   0.00    0.0
2282 547486   16.262305967  -61.527540332   -26.6999   6   7   4.3322   8.4815   6.5869  -5.1259  -3.4593   2.9389   0.00    0.0
2282 547487   16.262305913  -61.527540937   -26.6660   6   7   4.0914   7.8919   6.3279  -4.7583  -3.2305   2.8139   0.00    0.0
2282 547488   16.262305726  -61.527541281   -26.6410   6   7   3.8913   7.4129   6.0988  -4.4605  -3.0432   2.7077   0.00    0.0
2282 547489   16.262305471  -61.527541497   -26.6804   6   7   3.7208   7.0133   5.8939  -4.2129  -2.8861   2.6152   0.00    0.0
2282 547490   16.262305361  -61.527541626   -26.7044   6   7   3.5729   6.6733   5.7092  -4.0027  -2.7517   2.5332   0.00    0.0
2282 547491   16.262305189  -61.527541356   -26.7081   6   7   3.4428   6.3791   5.5414  -3.8214  -2.6351   2.4597   0.00    0.0
2282 547492   16.262304823  -61.527540813   -26.7593   6   7   3.3270   6.1213   5.3880  -3.6628  -2.5326   2.3930   0.00    0.0
2282 547493   16.262304506  -61.527540438   -26.8054   6   7   3.2228   5.8928   5.2470  -3.5226  -2.4416   2.3321   0.00    0.0
2282 547494   16.262304220  -61.527539899   -26.8574   6   7   3.1285   5.6885   5.1168  -3.3975  -2.3601   2.2761   0.00    0.0
2282 547495   16.262303891  -61.527539319   -26.9049   6   8   2.9858   5.2898   4.9490  -3.1467  -2.0464   2.1325   0.00    0.0
2282 547496   16.262303686  -61.527538911   -26.9528   6   8   2.8733   4.9927   4.8075  -2.9601  -1.8192   2.0278   0.00    0.0
2282 547497   16.262303703  -61.527538916   -26.9648   6   8   2.7760   4.7433   4.6808  -2.8037  -1.6281   1.9408   0.00    0.0
2282 547498   16.262303742  -61.527539081   -26.9482   6   8   2.6903   4.5298   4.5658  -2.6700  -1.4638   1.8666   0.00    0.0
2282 547499   16.262303874  -61.527539482   -26.9163   6   8   2.6138   4.3441   4.4604  -2.5539  -1.3203   1.8022   0.00    0.0
2282 547500   16.262303898  -61.527539822   -26.9076   6   8   2.5447   4.1805   4.3630  -2.4518  -1.1932   1.7455   0.00    0.0
2282 547501   16.262303928  -61.527540033   -26.8871   6   8   2.4818   4.0350   4.2725  -2.3610  -1.0794   1.6950   0.00    0.0
2282 547502   16.262303959  -61.527539953   -26.8662   6   8   2.4240   3.9043   4.1880  -2.2797  -0.9762   1.6495   0.00    0.0
2282 547503   16.262303977  -61.527539731   -26.8511   6   8   2.3707   3.7861   4.1087  -2.2063  -0.8818   1.6083   0.00    0.0
2282 547504   16.262304029  -61.527539340   -26.8309   6   9   2.2985   3.6403   4.0319  -2.0992  -0.7492   1.5568   0.00    0.0
2282 547505   16.262303936  -61.527538877   -26.8253   6   9   2.2345   3.5124   3.9598  -2.0063  -0.6230   1.5114   0.00    0.0
2282 547506   16.262303801  -61.527538506   -26.8262   6   9   2.1767   3.3978   3.8918  -1.9236  -0.4970   1.4707   0.00    0.0
2282 547507   16.262303799  -61.527538142   -26.8045   6   9   2.1240   3.2943   3.8275  -1.8495  -0.3613   1.4338   0.00    0.0
2282 547508   16.262303777  -61.527537783   -26.7756   6   9   2.0756   3.2001   3.7665  -1.7825  -0.1839   1.4001   0.00    0.0
2282 547509   16.262303728  -61.527537474   -26.7487   6   9   2.0308   3.1138   3.7084  -1.7215   0.2168   1.3691   0.00    0.0
2282 547510   16.262303685  -61.527537260   -26.7303   6   9   1.9893   3.0345   3.6531  -1.6659   0.3388   1.3405   0.00    0.0
2282 547511   16.262303619  -61.527537012   -26.7103   6   9   1.9505   2.9611   3.6002  -1.6147   0.4145   1.3138   0.00    0.0
2282 547512   16.262303530  -61.527536751   -26.7082   6   9   1.9142   2.8930   3.5496  -1.5676   0.4690   1.2889   0.00    0.0
2282 547513   16.262303502  -61.527536450   -26.6894   6   9   1.8801   2.8296   3.5010  -1.5240   0.5105   1.2656   0.00    0.0
2282 547514   16.262303826  -61.527536582   -26.6457   6  10   1.8285   2.7139   3.4484  -1.4325   0.6398   1.2214   0.00    0.0
2282 547515   16.262304065  -61.527536595   -26.6053   6  10   1.7834   2.6155   3.3990  -1.3548   0.7209   1.1838   0.00    0.0
2282 547516   16.262304317  -61.527536709   -26.5614   6  10   1.7429   2.5283   3.3523  -1.2860   0.7787   1.1505   0.00    0.0
2282 547517   16.262304536  -61.527536823   -26.5213   6  10   1.7060   2.4503   3.3079  -1.2246   0.8215   1.1208   0.00    0.0
2282 547518   16.262304705  -61.527537042   -26.4766   6  10   1.6721   2.3798   3.2655  -1.1691   0.8539   1.0938   0.00    0.0
2282 547519   16.262304808  -61.527537042   -26.4310   6  10   1.6408   2.3158   3.2248  -1.1189   0.8788   1.0693   0.00    0.0
2282 547520   16.262304826  -61.527537005   -26.4074   6  10   1.6117   2.2571   3.1858  -1.0730   0.8980   1.0467   0.00    0.0
2282 547521   16.262304873  -61.527536871   -26.3800   6  10   1.5845   2.2031   3.1483  -1.0309   0.9128   1.0259   0.00    0.0
2282 547522   16.262304849  -61.527536553   -26.3684   6  10   1.5590   2.1532   3.1120  -0.9922   0.9242   1.0066   0.00    0.0
2282 547523   16.262304896  -61.527536308   -26.3585   6  10   1.5350   2.1069   3.0771  -0.9563   0.9327   0.9885   0.00    0.0
2282 547524   16.262304931  -61.527536170   -26.3718   6  11   1.5120   2.0501   3.0379  -0.9193   0.9160   0.9743   0.00    0.0
2282 547525   16.262305033  -61.527536062   -26.3695   6  11   1.4902   1.9982   2.9999  -0.8858   0.9002   0.9601   0.00    0.0
2282 547526   16.262305101  -61.527535960   -26.3625   6  11   1.4696   1.9503   2.9636  -0.8546   0.8860   0.9467   0.00    0.0
2282 547527   16.262305189  -61.527535865   -26.3506   6  11   1.4500   1.9058   2.9288  -0.8257   0.8726   0.9337   0.00    0.0
2282 547528   16.262305350  -61.527535889   -26.3258   6  11   1.4313   1.8643   2.8951  -0.7989   0.8599   0.9212   0.00    0.0
2282 547529   16.262305533  -61.527535901   -26.2750   6  11   1.4135   1.8255   2.8626  -0.7738   0.8476   0.9091   0.00    0.0
2282 547530   16.262305673  -61.527535959   -26.2457   6  11   1.3964   1.7890   2.8311  -0.7504   0.8359   0.8974   0.00    0.0
2282 547531   16.262305825  -61.527535992   -26.2139   6  11   1.3800   1.7547   2.8006  -0.7284   0.8245   0.8861   0.00    0.0
2282 547532   16.262305993  -61.527536124   -26.1760   6  11   1.3642   1.7222   2.7710  -0.7078   0.8135   0.8752   0.00    0.0
2282 547533   16.262306126  -61.527536211   -26.1288   6  11   1.3490   1.6916   2.7423  -0.6884   0.8029   0.8646   0.00    0.0
2282 547534   16.262306245  -61.527536265   -26.1043   6  12   1.3319   1.6610   2.7133  -0.6658   0.7892   0.8580   0.00    0.0
2282 547535   16.262306346  -61.527536308   -26.0652   6  12   1.3154   1.6322   2.6850  -0.6447   0.7760   0.8518   0.00    0.0
2282 547536   16.262306457  -61.527536328   -26.0328   6  12   1.2997   1.6049   2.6576  -0.6248   0.7635   0.8452   0.00    0.0
2282 547537   16.262306520  -61.527536348   -26.0012   6  12   1.2846   1.5789   2.6310  -0.6061   0.7516   0.8387   0.00    0.0
2282 547538   16.262306553  -61.527536330   -25.9794   6  12   1.2701   1.5542   2.6051  -0.5884   0.7401   0.8322   0.00    0.0
2282 547539   16.262306580  -61.527536268   -25.9522   6  12   1.2561   1.5307   2.5800  -0.5717   0.7291   0.8258   0.00    0.0
2282 547540   16.262306623  -61.527536270   -25.9216   6  12   1.2427   1.5082   2.5554  -0.5558   0.7184   0.8194   0.00    0.0
2282 547541   16.262306707  -61.527536230   -25.8859   6  12   1.2297   1.4867   2.5315  -0.5408   0.7081   0.8130   0.00    0.0
2282 547542   16.262306756  -61.527536201   -25.8630   6  12   1.2171   1.4661   2.5082  -0.5265   0.6981   0.8067   0.00    0.0
2282 547543   16.262306757  -61.527536193   -25.8305   6  12   1.2049   1.4463   2.4854  -0.5129   0.6885   0.8005   0.00    0.0
2282 547544   16.262306667  -61.527536276   -25.8285   6  13   1.1920   1.4257   2.4609  -0.5032   0.6739   0.7911   0.00    0.0
2282 547545   16.262306626  -61.527536310   -25.8124   6  13   1.1794   1.4060   2.4364  -0.4943   0.6594   0.7810   0.00    0.0
2282 547546   16.262306621  -61.527536305   -25.8065   6  13   1.1672   1.3872   2.4130  -0.4856   0.6460   0.7719   0.00    0.0
2282 547547   16.262306558  -61.527536316   -25.7977   6  13   1.1555   1.3691   2.3904  -0.4772   0.6331   0.7631   0.00    0.0
2282 547548   16.262306519  -61.527536378   -25.8051   6  13   1.1442   1.3517   2.3684  -0.4691   0.6208   0.7546   0.00    0.0
2282 547549   16.262306497  -61.527536406   -25.8105   6  13   1.1331   1.3349   2.3469  -0.4614   0.6090   0.7463   0.00    0.0
2282 547550   16.262306482  -61.527536456   -25.8175   6  13   1.1224   1.3188   2.3259  -0.4541   0.5976   0.7383   0.00    0.0
2282 547551   16.262306491  -61.527536485   -25.8214   6  13   1.1120   1.3032   2.3055  -0.4470   0.5865   0.7304   0.00    0.0
2282 547552   16.262306481  -61.527536474   -25.8227   6  13   1.1018   1.2882   2.2855  -0.4403   0.5759   0.7227   0.00    0.0
2282 547553   16.262306440  -61.527536412   -25.8317   6  13   1.0919   1.2737   2.2659  -0.4338   0.5655   0.7152   0.00    0.0
2282 547554   16.262306435  -61.527536411   -25.8393   6  13   1.0822   1.2597   2.2468  -0.4276   0.5555   0.7078   0.00    0.0
2282 547555   16.262306422  -61.527536449   -25.8463   6  13   1.0728   1.2461   2.2282  -0.4216   0.5458   0.7006   0.00    0.0
2282 547556   16.262306430  -61.527536470   -25.8490   6  13   1.0636   1.2330   2.2099  -0.4159   0.5364   0.6935   0.00    0.0
2282 547557   16.262306457  -61.527536515   -25.8334   6  13   1.0546   1.2202   2.1919  -0.4104   0.5272   0.6866   0.00    0.0
2282 547558   16.262306509  -61.527536534   -25.8221   6  13   1.0458   1.2079   2.1744  -0.4051   0.5183   0.6798   0.00    0.0
2282 547559   16.262306532  -61.527536547   -25.8126   6  13   1.0373   1.1959   2.1572  -0.3999   0.5096   0.6732   0.00    0.0
2282 547560   16.262306568  -61.527536619   -25.8019   6  13   1.0289   1.1843   2.1403  -0.3950   0.5012   0.6666   0.00    0.0
2282 547561   16.262306601  -61.527536634   -25.7876   6  13   1.0207   1.1730   2.1238  -0.3903   0.4929   0.6602   0.00    0.0
2282 547562   16.262306632  -61.527536710   -25.7704   6  13   1.0127   1.1620   2.1076  -0.3857   0.4849   0.6539   0.00    0.0
2282 547563   16.262306674  -61.527536775   -25.7594   6  13   1.0048   1.1513   2.0916  -0.3813   0.4770   0.6477   0.00    0.0
2282 547564   16.262306685  -61.527536848   -25.7567   6  13   0.9971   1.1409   2.0760  -0.3770   0.4693   0.6417   0.00    0.0
2282 547565   16.262306700  -61.527536954   -25.7488   6  13   0.9896   1.1307   2.0607  -0.3729   0.4618   0.6357   0.00    0.0
2282 547566   16.262306714  -61.527537044   -25.7468   6  13   0.9822   1.1209   2.0456  -0.3689   0.4545   0.6298   0.00    0.0
2282 547567   16.262306739  -61.527537097   -25.7487   6  13   0.9750   1.1113   2.0308  -0.3651   0.4473   0.6241   0.00    0.0
2282 547568   16.262306740  -61.527537137   -25.7532   6  13   0.9679   1.1019   2.0162  -0.3613   0.4403   0.6184   0.00    0.0
2282 547569   16.262306741  -61.527537219   -25.7549   6  13   0.9609   1.0927   2.0019  -0.3577   0.4334   0.6128   0.00    0.0
2282 547570   16.262306758  -61.527537252   -25.7551   6  13   0.9541   1.0838   1.9879  -0.3542   0.4266   0.6073   0.00    0.0
2282 547571   16.262306761  -61.527537300   -25.7537   6  13   0.9474   1.0751   1.9740  -0.3509   0.4200   0.6019   0.00    0.0
2282 547572   16.262306770  -61.527537300   -25.7568   6  13   0.9408   1.0666   1.9604  -0.3476   0.4134   0.5966   0.00    0.0
2282 547573   16.262306769  -61.527537295   -25.7649   6  13   0.9344   1.0582   1.9470  -0.3444   0.4070   0.5914   0.00    0.0
2282 547574   16.262306708  -61.527537253   -25.7705   6  13   0.9280   1.0501   1.9339  -0.3413   0.4008   0.5862   0.00    0.0
2282 547575   16.262306681  -61.527537214   -25.7697   6  13   0.9218   1.0422   1.9209  -0.3383   0.3946   0.5812   0.00    0.0
2282 547576   16.262306646  -61.527537204   -25.7771   6  13   0.9157   1.0344   1.9081  -0.3354   0.3885   0.5761   0.00    0.0
2282 547577   16.262306619  -61.527537207   -25.7826   6  13   0.9097   1.0268   1.8956  -0.3326   0.3825   0.5712   0.00    0.0
2282 547578   16.262306586  -61.527537285   -25.7986   6  13   0.9037   1.0193   1.8832  -0.3299   0.3766   0.5664   0.00    0.0
2282 547579   16.262306552  -61.527537329   -25.8101   6  13   0.8979   1.0120   1.8710  -0.3272   0.3708   0.5616   0.00    0.0
2282 547580   16.262306504  -61.527537405   -25.8266   6  13   0.8922   1.0049   1.8590  -0.3246   0.3651   0.5568   0.00    0.0
2282 547581   16.262306426  -61.527537477   -25.8485   6  13   0.8866   0.9979   1.8472  -0.3221   0.3595   0.5522   0.00    0.0
2282 547582   16.262306318  -61.527537544   -25.8695   6  13   0.8810   0.9910   1.8355  -0.3197   0.3540   0.5476   0.00    0.0
2282 547583   16.262306245  -61.527537628   -25.8904   6  13   0.8756   0.9843   1.8240  -0.3173   0.3485   0.5430   0.00    0.0
2282 547584   16.262306173  -61.527537673   -25.9125   6  13   0.8702   0.9777   1.8127  -0.3150   0.3431   0.5386   0.00    0.0
2282 547585   16.262306099  -61.527537676   -25.9297   6  13   0.8649   0.9713   1.8015  -0.3127   0.3377   0.5341   0.00    0.0
2282 547586   16.262306022  -61.527537623   -25.9504   6  13   0.8597   0.9649   1.7905  -0.3106   0.3325   0.5298   0.00    0.0
2282 547587   16.262305969  -61.527537637   -25.9696   6  13   0.8546   0.9587   1.7797  -0.3084   0.3273   0.5255   0.00    0.0
2282 547588   16.262305900  -61.527537657   -25.9834   6  13   0.8495   0.9526   1.7690  -0.3063   0.3221   0.5212   0.00    0.0
2282 547589   16.262305828  -61.527537655   -25.9930   6  13   0.8445   0.9466   1.7584  -0.3043   0.3171   0.5170   0.00    0.0
2282 547590   16.262305752  -61.527537693   -26.0057   6  13   0.8396   0.9407   1.7480  -0.3024   0.3120   0.5129   0.00    0.0
2282 547591   16.262305653  -61.527537751   -26.0219   6  13   0.8348   0.9349   1.7377  -0.3004   0.3070   0.5088   0.00    0.0
2282 547592   16.262305572  -61.527537790   -26.0405   6  13   0.8300   0.9292   1.7276  -0.2986   0.3021   0.5048   0.00    0.0
2282 547593   16.262305511  -61.527537882   -26.0608   6  13   0.8253   0.9236   1.7176  -0.2967   0.2973   0.5008   0.00    0.0
2282 547594   16.262305434  -61.527537919   -26.0812   6  13   0.8206   0.9182   1.7077  -0.2949   0.2924   0.4968   0.00    0.0
2282 547595   16.262305381  -61.527537997   -26.0947   6  13   0.8160   0.9128   1.6979  -0.2932   0.2876   0.4929   0.00    0.0
2282 547596   16.262305332  -61.527538027   -26.1096   6  13   0.8115   0.9075   1.6883  -0.2915   0.2829   0.4891   0.00    0.0
2282 547597   16.262305258  -61.527538089   -26.1207   6  13   0.8071   0.9022   1.6788  -0.2898   0.2782   0.4853   0.00    0.0
2282 547598   16.262305189  -61.527538143   -26.1334   6  13   0.8027   0.8971   1.6694  -0.2882   0.2735   0.4815   0.00    0.0
2282 547599   16.262305146  -61.527538206   -26.1418   6  13   0.7983   0.8920   1.6602  -0.2866   0.2689   0.4778   0.00    0.0
2282 547600   16.262305063  -61.527538209   -26.1466   6  13   0.7940   0.8871   1.6510  -0.2851   0.2643   0.4741   0.00    0.0
2282 547601   16.262304993  -61.527538224   -26.1473   6  13   0.7898   0.8822   1.6420  -0.2836   0.2597   0.4705   0.00    0.0
2282 547602   16.262304962  -61.527538260   -26.1474   6  13   0.7856   0.8774   1.6331  -0.2821   0.2552   0.4669   0.00    0.0
2282 547603   16.262304932  -61.527538264   -26.1463   6  13   0.7815   0.8726   1.6242  -0.2806   0.2507   0.4634   0.00    0.0
2282 547604   16.262304883  -61.527538272   -26.1485   6  13   0.7774   0.8680   1.6155  -0.2792   0.2462   0.4599   0.00    0.0
2282 547605   16.262304842  -61.527538294   -26.1595   6  13   0.7733   0.8634   1.6069  -0.2778   0.2418   0.4564   0.00    0.0
2282 547606   16.262304813  -61.527538296   -26.1649   6  13   0.7694   0.8588   1.5984  -0.2765   0.2373   0.4530   0.00    0.0
2282 547607   16.262304776  -61.527538289   -26.1662   6  13   0.7654   0.8544   1.5900  -0.2751   0.2329   0.4496   0.00    0.0
2282 547608   16.262304742  -61.527538278   -26.1722   6  13   0.7615   0.8500   1.5817  -0.2738   0.2285   0.4462   0.00    0.0
2282 547609   16.262304711  -61.527538221   -26.1765   6  13   0.7577   0.8456   1.5735  -0.2726   0.2242   0.4429   0.00    0.0
2282 547610   16.262304684  -61.527538148   -26.1809   6  13   0.7539   0.8414   1.5654  -0.2713   0.2198   0.4396   0.00    0.0
2282 547611   16.262304642  -61.527538101   -26.1907   6  13   0.7501   0.8372   1.5574  -0.2701   0.2154   0.4363   0.00    0.0
2282 547612   16.262304606  -61.527538010   -26.2029   6  13   0.7464   0.8330   1.5495  -0.2689   0.2111   0.4331   0.00    0.0
2282 547613   16.262304564  -61.527537940   -26.2116   6  13   0.7427   0.8289   1.5416  -0.2677   0.2068   0.4300   0.00    0.0
2282 547614   16.262304511  -61.527537890   -26.2133   6  13   0.7391   0.8249   1.5339  -0.2666   0.2024   0.4268   0.00    0.0
2282 547615   16.262304450  -61.527537831   -26.2176   6  13   0.7355   0.8209   1.5262  -0.2655   0.1981   0.4237   0.00    0.0
2282 547616   16.262304386  -61.527537800   -26.2194   6  13   0.7320   0.8170   1.5187  -0.2644   0.1938   0.4206   0.00    0.0
2282 547617   16.262304328  -61.527537729   -26.2239   6  13   0.7284   0.8131   1.5112  -0.2633   0.1895   0.4176   0.00    0.0
2282 547618   16.262304302  -61.527537688   -26.2251   6  13   0.7250   0.8093   1.5038  -0.2622   0.1851   0.4146   0.00    0.0
2282 547619   16.262304270  -61.527537641   -26.2206   6  13   0.7215   0.8055   1.4965  -0.2612   0.1808   0.4116   0.00    0.0
2282 547620   16.262304254  -61.527537598   -26.2206   6  13   0.7181   0.8018   1.4892  -0.2602   0.1765   0.4086   0.00    0.0
2282 547621   16.262304217  -61.527537550   -26.2144   6  13   0.7147   0.7981   1.4821  -0.2592   0.1721   0.4057   0.00    0.0
2282 547622   16.262304212  -61.527537509   -26.2097   6  13   0.7114   0.7945   1.4750  -0.2582   0.1677   0.4028   0.00    0.0
2282 547623   16.262304200  -61.527537502   -26.2090   6  13   0.7081   0.7909   1.4680  -0.2572   0.1633   0.4000   0.00    0.0
2282 547624   16.262304198  -61.527537466   -26.2044   6  13   0.7048   0.7873   1.4610  -0.2563   0.1589   0.3971   0.00    0.0
2282 547625   16.262304184  -61.527537472   -26.1989   6  13   0.7016   0.7839   1.4542  -0.2553   0.1544   0.3943   0.00    0.0
2282 547626   16.262304154  -61.527537471   -26.1910   6  13   0.6984   0.7804   1.4474  -0.2544   0.1499   0.3915   0.00    0.0
2282 547627   16.262304161  -61.527537450   -26.1842   6  13   0.6952   0.7770   1.4407  -0.2535   0.1454   0.3888   0.00    0.0
2282 547628   16.262304181  -61.527537442   -26.1752   6  13   0.6921   0.7736   1.4340  -0.2526   0.1408   0.3861   0.00    0.0
2282 547629   16.262304200  -61.527537443   -26.1722   6  13   0.6890   0.7703   1.4275  -0.2518   0.1361   0.3834   0.00    0.0
2282 547630   16.262304209  -61.527537399   -26.1650   6  13   0.6859   0.7670   1.4210  -0.2509   0.1314   0.3807   0.00    0.0
2282 547631   16.262304213  -61.527537350   -26.1666   6  13   0.6828   0.7638   1.4145  -0.2501   0.1266   0.3781   0.00    0.0
2282 547632   16.262304223  -61.527537326   -26.1591   6  13   0.6798   0.7606   1.4081  -0.2492   0.1218   0.3755   0.00    0.0
2282 547633   16.262304215  -61.527537296   -26.1544   6  13   0.6768   0.7574   1.4018  -0.2484   0.1168   0.3729   0.00    0.0
2282 547634   16.262304224  -61.527537229   -26.1498   6  13   0.6739   0.7542   1.3956  -0.2476   0.1117   0.3703   0.00    0.0
2282 547635   16.262304221  -61.527537232   -26.1428   6  13   0.6709   0.7511   1.3894  -0.2468   0.1065   0.3678   0.00    0.0
2282 547636   16.262304224  -61.527537200   -26.1425   6  13   0.6680   0.7481   1.3833  -0.2461   0.1011   0.3653   0.00    0.0
2282 547637   16.262304181  -61.527537173   -26.1357   6  13   0.6651   0.7450   1.3772  -0.2453   0.0956   0.3628   0.00    0.0
2282 547638   16.262304191  -61.527537124   -26.1340   6  13   0.6623   0.7421   1.3712  -0.2445   0.0898   0.3604   0.00    0.0
2282 547639   16.262304173  -61.527537067   -26.1277   6  13   0.6594   0.7391   1.3653  -0.2438   0.0837   0.3579   0.00    0.0
2282 547640   16.262304151  -61.527537027   -26.1188   6  13   0.6566   0.7362   1.3594  -0.2431   0.0773   0.3555   0.00    0.0
2282 547641   16.262304143  -61.527536985   -26.1081   6  13   0.6538   0.7333   1.3536  -0.2424   0.0705   0.3531   0.00    0.0
2282 547642   16.262304126  -61.527536956   -26.1008   6  13   0.6511   0.7304   1.3478  -0.2417   0.0631   0.3508   0.00    0.0
2282 547643   16.262304078  -61.527536910   -26.0945   6  13   0.6484   0.7276   1.3421  -0.2410   0.0548   0.3484   0.00    0.0
2282 547644   16.262304060  -61.527536870   -26.0923   6  13   0.6456   0.7247   1.3364  -0.2403   0.0453   0.3461   0.00    0.0
2282 547645   16.262304060  -61.527536839   -26.0808   6  13   0.6430   0.7220   1.3308  -0.2396   0.0335   0.3438   0.00    0.0
2282 547646   16.262304027  -61.527536747   -26.0793   6  13   0.6403   0.7192   1.3252  -0.2389   0.0143   0.3415   0.00    0.0
2282 547647   16.262303998  -61.527536721   -26.0754   6  13   0.6377   0.7165   1.3197  -0.2383  -0.0263   0.3393   0.00    0.0
2282 547648   16.262303992  -61.527536699   -26.0663   6  13   0.6350   0.7138   1.3143  -0.2376  -0.0397   0.3371   0.00    0.0
2282 547649   16.262303936  -61.527536659   -26.0637   6  13   0.6324   0.7112   1.3089  -0.2370  -0.0494   0.3349   0.00    0.0
2282 547650   16.262303931  -61.527536658   -26.0619   6  13   0.6299   0.7085   1.3035  -0.2364  -0.0573   0.3327   0.00    0.0
2282 547651   16.262303941  -61.527536646   -26.0603   6  13   0.6273   0.7059   1.2982  -0.2357  -0.0642   0.3305   0.00    0.0
2282 547652   16.262303943  -61.527536631   -26.0614   6  13   0.6248   0.7033   1.2929  -0.2351  -0.0702   0.3284   0.00    0.0
2282 547653   16.262303938  -61.527536608   -26.0557   6  13   0.6223   0.7008   1.2877  -0.2345  -0.0757   0.3262   0.00    0.0
2282 547654   16.262303923  -61.527536593   -26.0501   6  13   0.6198   0.6982   1.2825  -0.2339  -0.0807   0.3241   0.00    0.0
2282 547655   16.262303932  -61.527536570   -26.0416   6  13   0.6173   0.6957   1.2774  -0.2333  -0.0853   0.3220   0.00    0.0
2282 547656   16.262303903  -61.527536570   -26.0353   6  13   0.6148   0.6932   1.2723  -0.2328  -0.0897   0.3200   0.00    0.0
2282 547657   16.262303881  -61.527536553   -26.0209   6  13   0.6124   0.6908   1.2673  -0.2322  -0.0937   0.3179   0.00    0.0
2282 547658   16.262303825  -61.527536501   -26.0174   6  13   0.6100   0.6884   1.2623  -0.2316  -0.0975   0.3159   0.00    0.0
2282 547659   16.262303779  -61.527536477   -26.0130   6  13   0.6076   0.6859   1.2574  -0.2311  -0.1011   0.3139   0.00    0.0
2282 547660   16.262303758  -61.527536441   -26.0148   6  13   0.6052   0.6836   1.2525  -0.2305  -0.1045   0.3119   0.00    0.0
2282 547661   16.262303736  -61.527536398   -26.0141   6  13   0.6029   0.6812   1.2476  -0.2300  -0.1077   0.3100   0.00    0.0
2282 547662   16.262303723  -61.527536374   -26.0104   6  13   0.6005   0.6788   1.2428  -0.2294  -0.1108   0.3080   0.00    0.0
2282 547663   16.262303705  -61.527536299   -26.0057   6  13   0.5982   0.6765   1.2380  -0.2289  -0.1137   0.3061   0.00    0.0
2282 547664   16.262303705  -61.527536264   -26.0072   6  13   0.5959   0.6742   1.2333  -0.2284  -0.1165   0.3042   0.00    0.0
2282 547665   16.262303708  -61.527536207   -26.0014   6  13   0.5936   0.6719   1.2285  -0.2278  -0.1192   0.3023   0.00    0.0
2282 547666   16.262303715  -61.527536166   -26.0019   6  13   0.5913   0.6697   1.2239  -0.2273  -0.1218   0.3004   0.00    0.0
2282 547667   16.262303700  -61.527536128   -25.9967   6  13   0.5891   0.6674   1.2193  -0.2268  -0.1243   0.2985   0.00    0.0
2282 547668   16.262303682  -61.527536069   -25.9951   6  13   0.5869   0.6652   1.2147  -0.2263  -0.1267   0.2967   0.00    0.0
2282 547669   16.262303697  -61.527536040   -25.9892   6  13   0.5846   0.6630   1.2101  -0.2258  -0.1290   0.2949   0.00    0.0
2282 547670   16.262303668  -61.527536005   -25.9855   6  13   0.5824   0.6609   1.2056  -0.2253  -0.1312   0.2930   0.00    0.0
2282 547671   16.262303651  -61.527535944   -25.9867   6  13   0.5802   0.6587   1.2011  -0.2248  -0.1333   0.2913   0.00    0.0
2282 547672   16.262303613  -61.527535932   -25.9798   6  13   0.5781   0.6566   1.1967  -0.2243  -0.1354   0.2895   0.00    0.0
2282 547673   16.262303566  -61.527535919   -25.9795   6  13   0.5759   0.6544   1.1922  -0.2239  -0.1374   0.2877   0.00    0.0
2282 547674   16.262303545  -61.527535876   -25.9708   6  13   0.5738   0.6523   1.1879  -0.2234  -0.1393   0.2860   0.00    0.0
2282 547675   16.262303525  -61.527535853   -25.9764   6  13   0.5717   0.6502   1.1835  -0.2229  -0.1412   0.2843   0.00    0.0
2282 547676   16.262303511  -61.527535831   -25.9738   6  13   0.5695   0.6482   1.1792  -0.2225  -0.1430   0.2825   0.00    0.0
2282 547677   16.262303490  -61.527535804   -25.9776   6  13   0.5674   0.6461   1.1749  -0.2220  -0.1448   0.2808   0.00    0.0
2282 547678   16.262303474  -61.527535771   -25.9779   6  13   0.5654   0.6441   1.1707  -0.2215  -0.1465   0.2792   0.00    0.0
2282 547679   16.262303445  -61.527535732   -25.9779   6  13   0.5633   0.6421   1.1665  -0.2211  -0.1481   0.2775   0.00    0.0
2282 547680   16.262303413  -61.527535693   -25.9767   6  13   0.5613   0.6401   1.1623  -0.2207  -0.1497   0.2759   0.00    0.0
2282 547681   16.262303402  -61.527535649   -25.9720   6  13   0.5592   0.6381   1.1581  -0.2202  -0.1513   0.2742   0.00    0.0
2282 547682   16.262303391  -61.527535627   -25.9728   6  13   0.5572   0.6361   1.1540  -0.2198  -0.1528   0.2726   0.00    0.0
2282 547683   16.262303414  -61.527535586   -25.9670   6  13   0.5552   0.6342   1.1499  -0.2193  -0.1543   0.2710   0.00    0.0
2282 547684   16.262303409  -61.527535563   -25.9677   6  13   0.5532   0.6323   1.1458  -0.2189  -0.1557   0.2694   0.00    0.0
2282 547685   16.262303424  -61.527535558   -25.9644   6  13   0.5512   0.6303   1.1418  -0.2185  -0.1571   0.2678   0.00    0.0
2282 547686   16.262303427  -61.527535545   -25.9616   6  13   0.5492   0.6284   1.1378  -0.2181  -0.1584   0.2663   0.00    0.0
2282 547687   16.262303430  -61.527535551   -25.9618   6  13   0.5473   0.6265   1.1338  -0.2177  -0.1597   0.2647   0.00    0.0
2282 547688   16.262303414  -61.527535542   -25.9589   6  13   0.5453   0.6247   1.1299  -0.2172  -0.1610   0.2632   0.00    0.0
2282 547689   16.262303410  -61.527535518   -25.9610   6  13   0.5434   0.6228   1.1260  -0.2168  -0.1622   0.2617   0.00    0.0
2282 547690   16.262303398  -61.527535521   -25.9629   6  13   0.5415   0.6210   1.1221  -0.2164  -0.1635   0.2602   0.00    0.0
2282 547691   16.262303382  -61.527535496   -25.9639   6  13   0.5396   0.6191   1.1182  -0.2160  -0.1646   0.2587   0.00    0.0
2282 547692   16.262303392  -61.527535519   -25.9662   6  13   0.5377   0.6173   1.1143  -0.2156  -0.1658   0.2572   0.00    0.0
2282 547693   16.262303380  -61.527535535   -25.9642   6  13   0.5358   0.6155   1.1105  -0.2152  -0.1669   0.2557   0.00    0.0
2282 547694   16.262303372  -61.527535560   -25.9665   6  13   0.5339   0.6137   1.1067  -0.2148  -0.1680   0.2543   0.00    0.0
2282 547695   16.262303363  -61.527535572   -25.9668   6  13   0.5321   0.6120   1.1030  -0.2145  -0.1690   0.2529   0.00    0.0
2282 547696   16.262303350  -61.527535568   -25.9718   6  13   0.5303   0.6102   1.0992  -0.2141  -0.1701   0.2514   0.00    0.0
2282 547697   16.262303337  -61.527535584   -25.9783   6  13   0.5284   0.6085   1.0955  -0.2137  -0.1711   0.2500   0.00    0.0
2282 547698   16.262303346  -61.527535555   -25.9765   6  13   0.5266   0.6067   1.0918  -0.2133  -0.1720   0.2486   0.00    0.0
2282 547699   16.262303336  -61.527535560   -25.9765   6  13   0.5248   0.6050   1.0881  -0.2129  -0.1730   0.2472   0.00    0.0
2282 547700   16.262303304  -61.527535572   -25.9803   6  13   0.5230   0.6033   1.0845  -0.2126  -0.1739   0.2459   0.00    0.0
2282 547701   16.262303290  -61.527535553   -25.9849   6  13   0.5212   0.6016   1.0809  -0.2122  -0.1748   0.2445   0.00    0.0
2282 547702   16.262303264  -61.527535563   -25.9924   6  13   0.5194   0.5999   1.0773  -0.2118  -0.1757   0.2431   0.00    0.0
2282 547703   16.262303247  -61.527535540   -25.9965   6  13   0.5177   0.5983   1.0737  -0.2115  -0.1766   0.2418   0.00    0.0
2282 547704   16.262303245  -61.527535553   -26.0014   6  13   0.5159   0.5966   1.0701  -0.2111  -0.1774   0.2405   0.00    0.0
2282 547705   16.262303246  -61.527535542   -26.0016   6  13   0.5142   0.5950   1.0666  -0.2107  -0.1782   0.2392   0.00    0.0
2282 547706   16.262303237  -61.527535540   -26.0035   6  13   0.5124   0.5933   1.0631  -0.2104  -0.1790   0.2379   0.00    0.0
2282 547707   16.262303216  -61.527535525   -26.0106   6  13   0.5107   0.5917   1.0596  -0.2100  -0.1798   0.2366   0.00    0.0
2282 547708   16.262303233  -61.527535529   -26.0070   6  13   0.5090   0.5901   1.0561  -0.2097  -0.1806   0.2353   0.00    0.0
2282 547709   16.262303226  -61.527535528   -26.0103   6  13   0.5073   0.5885   1.0527  -0.2093  -0.1813   0.2340   0.00    0.0
2282 547710   16.262303205  -61.527535530   -26.0147   6  13   0.5056   0.5869   1.0493  -0.2090  -0.1820   0.2328   0.00    0.0
2282 547711   16.262303225  -61.527535525   -26.0186   6  13   0.5040   0.5853   1.0459  -0.2086  -0.1827   0.2315   0.00    0.0
2282 547712   16.262303209  -61.527535505   -26.0186   6  13   0.5023   0.5838   1.0425  -0.2083  -0.1834   0.2303   0.00    0.0
2282 547713   16.262303233  -61.527535501   -26.0147   6  13   0.5006   0.5822   1.0391  -0.2080  -0.1841   0.2291   0.00    0.0
2282 547714   16.262303227  -61.527535512   -26.0175   6  13   0.4990   0.5807   1.0358  -0.2076  -0.1847   0.2279   0.00    0.0
2282 547715   16.262303232  -61.527535504   -26.0174   6  13   0.4973   0.5791   1.0324  -0.2073  -0.1854   0.2267   0.00    0.0
2282 547716   16.262303233  -61.527535504   -26.0143   6  13   0.4957   0.5776   1.0291  -0.2069  -0.1860   0.2255   0.00    0.0
2282 547717   16.262303247  -61.527535534   -26.0162   6  13   0.4941   0.5761   1.0258  -0.2066  -0.1866   0.2243   0.00    0.0
2282 547718   16.262303266  -61.527535547   -26.0128   6  13   0.4925   0.5746   1.0226  -0.2063  -0.1872   0.2231   0.00    0.0
2282 547719   16.262303271  -61.527535518   -26.0145   6  13   0.4909   0.5731   1.0193  -0.2060  -0.1878   0.2220   0.00    0.0
2282 547720   16.262303289  -61.527535535   -26.0112   6  13   0.4893   0.5716   1.0161  -0.2056  -0.1883   0.2208   0.00    0.0
2282 547721   16.262303274  -61.527535502   -26.0103   6  13   0.4877   0.5701   1.0129  -0.2053  -0.1889   0.2197   0.00    0.0
2282 547722   16.262303270  -61.527535454   -26.0150   6  13   0.4861   0.5687   1.0097  -0.2050  -0.1894   0.2185   0.00    0.0
2282 547723   16.262303251  -61.527535434   -26.0202   6  13   0.4846   0.5672   1.0065  -0.2047  -0.1899   0.2174   0.00    0.0
2282 547724   16.262303236  -61.527535415   -26.0275   6  13   0.4830   0.5658   1.0033  -0.2044  -0.1904   0.2163   0.00    0.0
2282 547725   16.262303229  -61.527535400   -26.0288   6  13   0.4815   0.5643   1.0002  -0.2040  -0.1909   0.2152   0.00    0.0
2282 547726   16.262303225  -61.527535380   -26.0271   6  13   0.4799   0.5629   0.9971  -0.2037  -0.1914   0.2141   0.00    0.0
2282 547727   16.262303230  -61.527535365   -26.0313   6  13   0.4784   0.5615   0.9940  -0.2034  -0.1919   0.2130   0.00    0.0
2282 547728   16.262303241  -61.527535344   -26.0296   6  13   0.4769   0.5601   0.9909  -0.2031  -0.1923   0.2120   0.00    0.0
2282 547729   16.262303231  -61.527535335   -26.0298   6  13   0.4754   0.5587   0.9878  -0.2028  -0.1928   0.2109   0.00    0.0
2282 547730   16.262303231  -61.527535331   -26.0269   6  13   0.4739   0.5573   0.9847  -0.2025  -0.1932   0.2099   0.00    0.0
2282 547731   16.262303259  -61.527535358   -26.0291   6  13   0.4724   0.5559   0.9817  -0.2022  -0.1936   0.2088   0.00    0.0
2282 547732   16.262303247  -61.527535352   -26.0301   6  13   0.4709   0.5546   0.9787  -0.2019  -0.1941   0.2078   0.00    0.0
2282 547733   16.262303264  -61.527535354   -26.0303   6  13   0.4694   0.5532   0.9757  -0.2016  -0.1945   0.2068   0.00    0.0
2282 547734   16.262303283  -61.527535381   -26.0338   6  13   0.4680   0.5518   0.9727  -0.2013  -0.1948   0.2058   0.00    0.0
2282 547735   16.262303302  -61.527535384   -26.0269   6  13   0.4665   0.5505   0.9697  -0.2010  -0.1952   0.2048   0.00    0.0
2282 547736   16.262303330  -61.527535373   -26.0269   6  13   0.4650   0.5492   0.9667  -0.2007  -0.1956   0.2038   0.00    0.0
2282 547737   16.262303350  -61.527535403   -26.0252   6  13   0.4636   0.5478   0.9638  -0.2004  -0.1960   0.2028   0.00    0.0
2282 547738   16.262303376  -61.527535395   -26.0236   6  13   0.4622   0.5465   0.9608  -0.2001  -0.1963   0.2018   0.00    0.0
2282 547739   16.262303394  -61.527535407   -26.0253   6  13   0.4607   0.5452   0.9579  -0.1998  -0.1966   0.2008   0.00    0.0
2282 547740   16.262303428  -61.527535373   -26.0234   6  13   0.4593   0.5439   0.9550  -0.1995  -0.1970   0.1999   0.00    0.0
2282 547741   16.262303444  -61.527535363   -26.0278   6  13   0.4579   0.5426   0.9521  -0.1992  -0.1973   0.1989   0.00    0.0
2282 547742   16.262303461  -61.527535349   -26.0245   6  13   0.4565   0.5413   0.9493  -0.1989  -0.1976   0.1980   0.00    0.0
2282 547743   16.262303509  -61.527535306   -26.0231   6  13   0.4551   0.5400   0.9464  -0.1986  -0.1979   0.1970   0.00    0.0
2282 547744   16.262303510  -61.527535249   -26.0207   6  13   0.4537   0.5387   0.9435  -0.1984  -0.1982   0.1961   0.00    0.0
2282 547745   16.262303526  -61.527535240   -26.0192   6  13   0.4523   0.5375   0.9407  -0.1981  -0.1985   0.1952   0.00    0.0
2282 547746   16.262303554  -61.527535204   -26.0149   6  13   0.4509   0.5362   0.9379  -0.1978  -0.1987   0.1943   0.00    0.0
2282 547747   16.262303586  -61.527535191   -26.0102   6  13   0.4496   0.5350   0.9351  -0.1975  -0.1990   0.1934   0.00    0.0
2282 547748   16.262303617  -61.527535166   -26.0098   6  13   0.4482   0.5337   0.9323  -0.1972  -0.1993   0.1925   0.00    0.0
2282 547749   16.262303637  -61.527535111   -26.0085   6  13   0.4469   0.5325   0.9295  -0.1970  -0.1995   0.1916   0.00    0.0
2282 547750   16.262303674  -61.527535065   -26.0047   6  13   0.4455   0.5313   0.9268  -0.1967  -0.1998   0.1907   0.00    0.0
2282 547751   16.262303676  -61.527535046   -25.9977   6  13   0.4442   0.5300   0.9240  -0.1964  -0.2000   0.1899   0.00    0.0
2282 547752   16.262303685  -61.527535026   -25.9956   6  13   0.4428   0.5288   0.9213  -0.1961  -0.2002   0.1890   0.00    0.0
2282 547753   16.262303671  -61.527534994   -26.0020   6  13   0.4415   0.5276   0.9186  -0.1958  -0.2004   0.1882   0.00    0.0
2282 547754   16.262303682  -61.527534947   -25.9972   6  13   0.4402   0.5264   0.9159  -0.1956  -0.2007   0.1873   0.00    0.0
2282 547755   16.262303682  -61.527534921   -25.9923   6  13   0.4389   0.5252   0.9132  -0.1953  -0.2009   0.1865   0.00    0.0
2282 547756   16.262303695  -61.527534893   -25.9919   6  13   0.4376   0.5240   0.9105  -0.1950  -0.2011   0.1856   0.00    0.0
2282 547757   16.262303705  -61.527534842   -25.9848   6  13   0.4363   0.5228   0.9078  -0.1948  -0.2012   0.1848   0.00    0.0
2282 547758   16.262303723  -61.527534813   -25.9809   6  13   0.4350   0.5217   0.9052  -0.1945  -0.2014   0.1840   0.00    0.0
2282 547759   16.262303723  -61.527534776   -25.9819   6  13   0.4337   0.5205   0.9025  -0.1942  -0.2016   0.1832   0.00    0.0
2282 547760   16.262303747  -61.527534767   -25.9796   6  13   0.4324   0.5193   0.8999  -0.1940  -0.2018   0.1824   0.00    0.0
2282 547761   16.262303780  -61.527534742   -25.9779   6  13   0.4312   0.5182   0.8973  -0.1937  -0.2019   0.1816   0.00    0.0
2282 547762   16.262303799  -61.527534725   -25.9751   6  13   0.4299   0.5170   0.8947  -0.1934  -0.2021   0.1808   0.00    0.0
2282 547763   16.262303813  -61.527534750   -25.9730   6  13   0.4286   0.5159   0.8921  -0.1932  -0.2022   0.1801   0.00    0.0
2282 547764   16.262303828  -61.527534764   -25.9743   6  13   0.4274   0.5147   0.8895  -0.1929  -0.2024   0.1793   0.00    0.0
2282 547765   16.262303841  -61.527534750   -25.9719   6  13   0.4261   0.5136   0.8869  -0.1926  -0.2025   0.1785   0.00    0.0
2282 547766   16.262303878  -61.527534738   -25.9694   6  13   0.4249   0.5125   0.8844  -0.1924  -0.2027   0.1778   0.00    0.0
2282 547767   16.262303906  -61.527534738   -25.9641   6  13   0.4237   0.5114   0.8818  -0.1921  -0.2028   0.1770   0.00    0.0
2282 547768   16.262303918  -61.527534750   -25.9632   6  13   0.4224   0.5102   0.8793  -0.1919  -0.2029   0.1763   0.00    0.0
2282 547769   16.262303918  -61.527534756   -25.9632   6  13   0.4212   0.5091   0.8767  -0.1916  -0.2030   0.1755   0.00    0.0
2282 547770   16.262303936  -61.527534783   -25.9562   6  13   0.4200   0.5080   0.8742  -0.1914  -0.2031   0.1748   0.00    0.0
2282 547771   16.262303967  -61.527534762   -25.9525   6  13   0.4188   0.5069   0.8717  -0.1911  -0.2032   0.1741   0.00    0.0
2282 547772   16.262303966  -61.527534758   -25.9481   6  13   0.4176   0.5058   0.8692  -0.1908  -0.2033   0.1734   0.00    0.0
2282 547773   16.262303981  -61.527534739   -25.9479   6  13   0.4164   0.5048   0.8668  -0.1906  -0.2034   0.1727   0.00    0.0
2282 547774   16.262303987  -61.527534741   -25.9439   6  13   0.4152   0.5037   0.8643  -0.1903  -0.2035   0.1720   0.00    0.0
2282 547775   16.262303994  -61.527534744   -25.9427   6  13   0.4140   0.5026   0.8619  -0.1901  -0.2036   0.1713   0.00    0.0
2282 547776   16.262304000  -61.527534735   -25.9486   6  13   0.4129   0.5015   0.8594  -0.1898  -0.2037   0.1706   0.00    0.0
2282 547777   16.262304003  -61.527534721   -25.9443   6  13   0.4117   0.5005   0.8570  -0.1896  -0.2037   0.1699   0.00    0.0
2282 547778   16.262304037  -61.527534707   -25.9436   6  13   0.4105   0.4994   0.8546  -0.1893  -0.2038   0.1692   0.00    0.0
2282 547779   16.262304052  -61.527534718   -25.9531   6  13   0.4094   0.4984   0.8521  -0.1891  -0.2039   0.1686   0.00    0.0
2282 547780   16.262304052  -61.527534722   -25.9505   6  13   0.4082   0.4973   0.8497  -0.1888  -0.2039   0.1679   0.00    0.0
2282 547781   16.262304085  -61.527534726   -25.9527   6  13   0.4071   0.4963   0.8474  -0.1886  -0.2040   0.1672   0.00    0.0
2282 547782   16.262304102  -61.527534736   -25.9570   6  13   0.4059   0.4952   0.8450  -0.1883  -0.2040   0.1666   0.00    0.0
2282 547783   16.262304134  -61.527534760   -25.9543   6  13   0.4048   0.4942   0.8426  -0.1881  -0.2040   0.1660   0.00    0.0
2282 547784   16.262304155  -61.527534756   -25.9545   6  13   0.4036   0.4932   0.8403  -0.1879  -0.2041   0.1653   0.00    0.0
2282 547785   16.262304166  -61.527534792   -25.9567   6  13   0.4025   0.4922   0.8379  -0.1876  -0.2041   0.1647   0.00    0.0
2282 547786   16.262304182  -61.527534780   -25.9607   6  13   0.4014   0.4912   0.8356  -0.1874  -0.2041   0.1641   0.00    0.0
2282 547787   16.262304174  -61.527534818   -25.9576   6  13   0.4003   0.4901   0.8332  -0.1871  -0.2042   0.1634   0.00    0.0
2282 547788   16.262304186  -61.527534839   -25.9613   6  13   0.3992   0.4891   0.8309  -0.1869  -0.2042   0.1628   0.00    0.0
2282 547789   16.262304180  -61.527534866   -25.9563   6  13   0.3981   0.4881   0.8286  -0.1866  -0.2042   0.1622   0.00    0.0
2282 547790   16.262304185  -61.527534879   -25.9594   6  13   0.3970   0.4871   0.8263  -0.1864  -0.2042   0.1616   0.00    0.0
2282 547791   16.262304202  -61.527534885   -25.9649   6  13   0.3959   0.4861   0.8240  -0.1862  -0.2042   0.1610   0.00    0.0
2282 547792   16.262304209  -61.527534890   -25.9698   6  13   0.3948   0.4852   0.8218  -0.1859  -0.2042   0.1604   0.00    0.0
2282 547793   16.262304209  -61.527534896   -25.9724   6  13   0.3937   0.4842   0.8195  -0.1857  -0.2042   0.1599   0.00    0.0
2282 547794   16.262304230  -61.527534915   -25.9630   6  13   0.3926   0.4832   0.8172  -0.1855  -0.2042   0.1593   0.00    0.0
2282 547795   16.262304248  -61.527534923   -25.9629   6  13   0.3915   0.4822   0.8150  -0.1852  -0.2042   0.1587   0.00    0.0
2282 547796   16.262304258  -61.527534901   -25.9607   6  13   0.3905   0.4813   0.8128  -0.1850  -0.2042   0.1581   0.00    0.0
2282 547797   16.262304271  -61.527534888   -25.9614   6  13   0.3894   0.4803   0.8105  -0.1847  -0.2042   0.1576   0.00    0.0
2282 547798   16.262304308  -61.527534875   -25.9469   6  13   0.3884   0.4793   0.8083  -0.1845  -0.2041   0.1570   0.00    0.0
2282 547799   16.262304308  -61.527534867   -25.9505   6  13   0.3873   0.4784   0.8061  -0.1843  -0.2041   0.1565   0.00    0.0
2282 547800   16.262304324  -61.527534870   -25.9516   6  13   0.3863   0.4774   0.8039  -0.1840  -0.2041   0.1559   0.00    0.0
2282 547801   16.262304310  -61.527534854   -25.9528   6  13   0.3852   0.4765   0.8017  -0.1838  -0.2041   0.1554   0.00    0.0
2282 547802   16.262304322  -61.527534846   -25.9549   6  13   0.3842   0.4756   0.7996  -0.1836  -0.2040   0.1549   0.00    0.0
2282 547803   16.262304307  -61.527534829   -25.9571   6  13   0.3831   0.4746   0.7974  -0.1834  -0.2040   0.1543   0.00    0.0
2282 547804   16.262304351  -61.527534800   -25.9432   6  13   0.3821   0.4737   0.7952  -0.1831  -0.2039   0.1538   0.00    0.0
2282 547805   16.262304344  -61.527534799   -25.9458   6  13   0.3811   0.4728   0.7931  -0.1829  -0.2039   0.1533   0.00    0.0
2282 547806   16.262304354  -61.527534790   -25.9413   6  13   0.3801   0.4718   0.7909  -0.1827  -0.2038   0.1528   0.00    0.0
2282 547807   16.262304373  -61.527534783   -25.9441   6  13   0.3791   0.4709   0.7888  -0.1824  -0.2038   0.1523   0.00    0.0
2282 547808   16.262304375  -61.527534797   -25.9424   6  13   0.3780   0.4700   0.7867  -0.1822  -0.2037   0.1518   0.00    0.0
2282 547809   16.262304406  -61.527534741   -25.9306   6  13   0.3770   0.4691   0.7846  -0.1820  -0.2037   0.1513   0.00    0.0
2282 547810   16.262304409  -61.527534735   -25.9269   6  13   0.3760   0.4682   0.7825  -0.1818  -0.2036   0.1508   0.00    0.0
2282 547811   16.262304413  -61.527534716   -25.9291   6  13   0.3750   0.4673   0.7804  -0.1815  -0.2036   0.1503   0.00    0.0
2282 547812   16.262304410  -61.527534714   -25.9340   6  13   0.3741   0.4664   0.7783  -0.1813  -0.2035   0.1498   0.00    0.0
2282 547813   16.262304433  -61.527534706   -25.9320   6  13   0.3731   0.4655   0.7762  -0.1811  -0.2034   0.1493   0.00    0.0
2282 547814   16.262304457  -61.527534707   -25.9233   6  13   0.3721   0.4646   0.7741  -0.1809  -0.2033   0.1489   0.00    0.0
2282 547815   16.262304475  -61.527534696   -25.9196   6  13   0.3711   0.4637   0.7721  -0.1806  -0.2033   0.1484   0.00    0.0
2282 547816   16.262304492  -61.527534693   -25.9086   6  13   0.3701   0.4628   0.7700  -0.1804  -0.2032   0.1479   0.00    0.0
2282 547817   16.262304505  -61.527534693   -25.9095   6  13   0.3692   0.4619   0.7680  -0.1802  -0.2031   0.1475   0.00    0.0
2282 547818   16.262304528  -61.527534698   -25.9049   6  13   0.3682   0.4611   0.7660  -0.1800  -0.2030   0.1470   0.00    0.0
2282 547819   16.262304574  -61.527534713   -25.8953   6  13   0.3673   0.4602   0.7639  -0.1797  -0.2029   0.1466   0.00    0.0
2282 547820   16.262304582  -61.527534716   -25.8958   6  13   0.3663   0.4593   0.7619  -0.1795  -0.2028   0.1461   0.00    0.0
2282 547821   16.262304598  -61.527534704   -25.8960   6  13   0.3653   0.4585   0.7599  -0.1793  -0.2027   0.1457   0.00    0.0
2282 547822   16.262304604  -61.527534711   -25.8982   6  13   0.3644   0.4576   0.7579  -0.1791  -0.2026   0.1453   0.00    0.0
2282 547823   16.262304622  -61.527534717   -25.8976   6  13   0.3635   0.4567   0.7559  -0.1789  -0.2025   0.1448   0.00    0.0
2282 547824   16.262304625  -61.527534725   -25.8905   6  13   0.3625   0.4559   0.7539  -0.1786  -0.2024   0.1444   0.00    0.0
2282 547825   16.262304651  -61.527534724   -25.8873   6  13   0.3616   0.4550   0.7520  -0.1784  -0.2023   0.1440   0.00    0.0
2282 547826   16.262304665  -61.527534725   -25.8882   6  13   0.3607   0.4542   0.7500  -0.1782  -0.2022   0.1436   0.00    0.0
2282 547827   16.262304681  -61.527534719   -25.8855   6  13   0.3597   0.4533   0.7480  -0.1780  -0.2021   0.1432   0.00    0.0
2282 547828   16.262304699  -61.527534705   -25.8884   6  13   0.3588   0.4525   0.7461  -0.1778  -0.2020   0.1427   0.00    0.0
2282 547829   16.262304708  -61.527534706   -25.8866   6  13   0.3579   0.4517   0.7442  -0.1775  -0.2019   0.1423   0.00    0.0
2282 547830   16.262304714  -61.527534700   -25.8864   6  13   0.3570   0.4508   0.7422  -0.1773  -0.2018   0.1419   0.00    0.0
2282 547831   16.262304738  -61.527534704   -25.8897   6  13   0.3561   0.4500   0.7403  -0.1771  -0.2017   0.1415   0.00    0.0
2282 547832   16.262304733  -61.527534703   -25.8858   6  13   0.3552   0.4492   0.7384  -0.1769  -0.2015   0.1412   0.00    0.0
2282 547833   16.262304737  -61.527534703   -25.8903   6  13   0.3543   0.4484   0.7365  -0.1767  -0.2014   0.1408   0.00    0.0
2282 547834   16.262304746  -61.527534664   -25.8843   6  13   0.3534   0.4475   0.7346  -0.1765  -0.2013   0.1404   0.00    0.0
2282 547835   16.262304764  -61.527534655   -25.8867   6  13   0.3525   0.4467   0.7327  -0.1763  -0.2012   0.1400   0.00    0.0
2282 547836   16.262304772  -61.527534675   -25.8839   6  13   0.3516   0.4459   0.7308  -0.1760  -0.2010   0.1396   0.00    0.0
2282 547837   16.262304771  -61.527534662   -25.8851   6  13   0.3507   0.4451   0.7289  -0.1758  -0.2009   0.1393   0.00    0.0
2282 547838   16.262304782  -61.527534666   -25.8821   6  13   0.3498   0.4443   0.7271  -0.1756  -0.2008   0.1389   0.00    0.0
2282 547839   16.262304797  -61.527534678   -25.8761   6  13   0.3490   0.4435   0.7252  -0.1754  -0.2006   0.1385   0.00    0.0
2282 547840   16.262304806  -61.527534671   -25.8732   6  13   0.3481   0.4427   0.7234  -0.1752  -0.2005   0.1382   0.00    0.0
2282 547841   16.262304823  -61.527534668   -25.8752   6  13   0.3472   0.4419   0.7215  -0.1750  -0.2003   0.1378   0.00    0.0
2282 547842   16.262304820  -61.527534681   -25.8809   6  13   0.3464   0.4411   0.7197  -0.1748  -0.2002   0.1375   0.00    0.0
2282 547843   16.262304853  -61.527534665   -25.8659   6  13   0.3455   0.4403   0.7178  -0.1746  -0.2001   0.1371   0.00    0.0
2282 547844   16.262304864  -61.527534664   -25.8649   6  13   0.3446   0.4395   0.7160  -0.1744  -0.1999   0.1368   0.00    0.0
2282 547845   16.262304863  -61.527534663   -25.8652   6  13   0.3438   0.4387   0.7142  -0.1741  -0.1998   0.1364   0.00    0.0
2282 547846   16.262304878  -61.527534659   -25.8668   6  13   0.3429   0.4380   0.7124  -0.1739  -0.1996   0.1361   0.00    0.0
2282 547847   16.262304882  -61.527534670   -25.8683   6  13   0.3421   0.4372   0.7106  -0.1737  -0.1995   0.1358   0.00    0.0
2282 547848   16.262304876  -61.527534671   -25.8662   6  13   0.3413   0.4364   0.7088  -0.1735  -0.1993   0.1355   0.00    0.0
2282 547849   16.262304914  -61.527534670   -25.8585   6  13   0.3404   0.4356   0.7070  -0.1733  -0.1991   0.1351   0.00    0.0
2282 547850   16.262304908  -61.527534669   -25.8606   6  13   0.3396   0.4349   0.7053  -0.1731  -0.1990   0.1348   0.00    0.0
2282 547851   16.262304932  -61.527534667   -25.8647   6  13   0.3388   0.4341   0.7035  -0.1729  -0.1988   0.1345   0.00    0.0
2282 547852   16.262304936  -61.527534673   -25.8610   6  13   0.3379   0.4333   0.7017  -0.1727  -0.1987   0.1342   0.00    0.0
2282 547853   16.262304950  -61.527534689   -25.8632   6  13   0.3371   0.4326   0.7000  -0.1725  -0.1985   0.1339   0.00    0.0
2282 547854   16.262304951  -61.527534706   -25.8528   6  13   0.3363   0.4318   0.6982  -0.1723  -0.1983   0.1336   0.00    0.0
2282 547855   16.262304974  -61.527534694   -25.8536   6  13   0.3355   0.4311   0.6965  -0.1721  -0.1982   0.1333   0.00    0.0
2282 547856   16.262304965  -61.527534708   -25.8539   6  13   0.3347   0.4303   0.6948  -0.1719  -0.1980   0.1330   0.00    0.0
2282 547857   16.262304969  -61.527534684   -25.8513   6  13   0.3339   0.4296   0.6930  -0.1717  -0.1978   0.1327   0.00    0.0
2282 547858   16.262304973  -61.527534710   -25.8511   6  13   0.3331   0.4288   0.6913  -0.1715  -0.1977   0.1324   0.00    0.0
2282 547859   16.262304980  -61.527534691   -25.8503   6  13   0.3322   0.4281   0.6896  -0.1713  -0.1975   0.1321   0.00    0.0
2282 547860   16.262304977  -61.527534702   -25.8534   6  13   0.3315   0.4274   0.6879  -0.1711  -0.1973   0.1318   0.00    0.0
2282 547861   16.262304983  -61.527534710   -25.8537   6  13   0.3307   0.4266   0.6862  -0.1709  -0.1971   0.1315   0.00    0.0
2282 547862   16.262304989  -61.527534723   -25.8564   6  13   0.3299   0.4259   0.6845  -0.1706  -0.1970   0.1312   0.00    0.0
2282 547863   16.262305003  -61.527534711   -25.8526   6  13   0.3291   0.4252   0.6828  -0.1704  -0.1968   0.1310   0.00    0.0
2282 547864   16.262305002  -61.527534731   -25.8514   6  13   0.3283   0.4244   0.6812  -0.1702  -0.1966   0.1307   0.00    0.0
2282 547865   16.262305020  -61.527534710   -25.8471   6  13   0.3275   0.4237   0.6795  -0.1700  -0.1964   0.1304   0.00    0.0
2282 547866   16.262305038  -61.527534722   -25.8409   6  13   0.3267   0.4230   0.6778  -0.1698  -0.1962   0.1301   0.00    0.0
2282 547867   16.262305041  -61.527534741   -25.8373   6  13   0.3260   0.4223   0.6762  -0.1696  -0.1961   0.1299   0.00    0.0
2282 547868   16.262305055  -61.527534744   -25.8338   6  13   0.3252   0.4215   0.6745  -0.1694  -0.1959   0.1296   0.00    0.0
2282 547869   16.262305075  -61.527534740   -25.8350   6  13   0.3244   0.4208   0.6729  -0.1692  -0.1957   0.1294   0.00    0.0
2282 547870   16.262305075  -61.527534726   -25.8269   6  13   0.3237   0.4201   0.6712  -0.1690  -0.1955   0.1291   0.00    0.0
2282 547871   16.262305118  -61.527534704   -25.8290   6  13   0.3229   0.4194   0.6696  -0.1688  -0.1953   0.1288   0.00    0.0
2282 547872   16.262305131  -61.527534722   -25.8213   6  13   0.3221   0.4187   0.6680  -0.1686  -0.1951   0.1286   0.00    0.0
2282 547873   16.262305154  -61.527534750   -25.8175   6  13   0.3214   0.4180   0.6664  -0.1684  -0.1949   0.1283   0.00    0.0
2282 547874   16.262305128  -61.527534744   -25.8227   6  13   0.3206   0.4173   0.6648  -0.1682  -0.1947   0.1281   0.00    0.0
2282 547875   16.262305152  -61.527534753   -25.8171   6  13   0.3199   0.4166   0.6632  -0.1680  -0.1945   0.1279   0.00    0.0
2282 547876   16.262305169  -61.527534767   -25.8115   6  13   0.3191   0.4159   0.6616  -0.1679  -0.1943   0.1276   0.00    0.0
2282 547877   16.262305192  -61.527534783   -25.8082   6  13   0.3184   0.4152   0.6600  -0.1677  -0.1941   0.1274   0.00    0.0
2282 547878   16.262305202  -61.527534771   -25.8058   6  13   0.3177   0.4145   0.6584  -0.1675  -0.1939   0.1272   0.00    0.0
2282 547879   16.262305179  -61.527534797   -25.8100   6  13   0.3169   0.4138   0.6568  -0.1673  -0.1937   0.1269   0.00    0.0
2282 547880   16.262305201  -61.527534792   -25.8150   6  13   0.3162   0.4131   0.6553  -0.1671  -0.1935   0.1267   0.00    0.0
2282 547881   16.262305211  -61.527534796   -25.8142   6  13   0.3155   0.4124   0.6537  -0.1669  -0.1933   0.1265   0.00    0.0
2282 547882   16.262305243  -61.527534803   -25.8144   6  13   0.3147   0.4117   0.6522  -0.1667  -0.1931   0.1263   0.00    0.0
2282 547883   16.262305254  -61.527534786   -25.8102   6  13   0.3140   0.4111   0.6506  -0.1665  -0.1929   0.1260   0.00    0.0
2282 547884   16.262305226  -61.527534837   -25.8171   6  13   0.3133   0.4104   0.6491  -0.1663  -0.1927   0.1258   0.00    0.0
2282 547885   16.262305234  -61.527534837   -25.8155   6  13   0.3126   0.4097   0.6475  -0.1661  -0.1925   0.1256   0.00    0.0
2282 547886   16.262305242  -61.527534836   -25.8137   6  13   0.3119   0.4090   0.6460  -0.1659  -0.1923   0.1254   0.00    0.0
2282 547887   16.262305256  -61.527534842   -25.8131   6  13   0.3112   0.4084   0.6445  -0.1657  -0.1921   0.1252   0.00    0.0
2282 547888   16.262305258  -61.527534858   -25.8076   6  13   0.3104   0.4077   0.6430  -0.1655  -0.1919   0.1250   0.00    0.0
2282 547889   16.262305252  -61.527534889   -25.8066   6  13   0.3097   0.4070   0.6415  -0.1653  -0.1917   0.1248   0.00    0.0
2282 547890   16.262305276  -61.527534905   -25.8064   6  13   0.3090   0.4064   0.6400  -0.1651  -0.1915   0.1246   0.00    0.0
2282 547891   16.262305294  -61.527534913   -25.8047   6  13   0.3083   0.4057   0.6385  -0.1649  -0.1913   0.1244   0.00    0.0
2282 547892   16.262305289  -61.527534922   -25.8014   6  13   0.3076   0.4050   0.6370  -0.1647  -0.1911   0.1242   0.00    0.0
2282 547893   16.262305310  -61.527534930   -25.7991   6  13   0.3070   0.4044   0.6355  -0.1645  -0.1908   0.1240   0.00    0.0
2282 547894   16.262305325  -61.527534922   -25.7903   6  14   0.3062   0.4037   0.6339  -0.1643  -0.1904   0.1236   0.00    0.0
2282 547895   16.262305328  -61.527534896   -25.7890   6  14   0.3054   0.4028   0.6298  -0.1637  -0.1887   0.1210   0.00    0.0
2282 547896   16.262305332  -61.527534914   -25.7804   6  14   0.3046   0.4021   0.6274  -0.1634  -0.1878   0.1199   0.00    0.0
2282 547897   16.262305350  -61.527534934   -25.7806   6  14   0.3039   0.4013   0.6254  -0.1630  -0.1872   0.1192   0.00    0.0
2282 547898   16.262305352  -61.527534990   -25.7762   6  14   0.3032   0.4006   0.6236  -0.1628  -0.1867   0.1186   0.00    0.0
2282 547899   16.262305394  -61.527534994   -25.7738   6  14   0.3025   0.3999   0.6220  -0.1625  -0.1862   0.1182   0.00    0.0
2282 547900   16.262305385  -61.527535009   -25.7659   6  14   0.3018   0.3992   0.6203  -0.1622  -0.1858   0.1178   0.00    0.0
2282 547901   16.262305402  -61.527535020   -25.7683   6  14   0.3011   0.3984   0.6187  -0.1619  -0.1854   0.1174   0.00    0.0
2282 547902   16.262305401  -61.527535063   -25.7680   6  14   0.3004   0.3977   0.6172  -0.1617  -0.1850   0.1170   0.00    0.0
2282 547903   16.262305415  -61.527535065   -25.7618   6  14   0.2997   0.3970   0.6156  -0.1614  -0.1846   0.1167   0.00    0.0
2282 547904   16.262305446  -61.527535059   -25.7582   6  14   0.2990   0.3963   0.6141  -0.1611  -0.1842   0.1164   0.00    0.0
2282 547905   16.262305461  -61.527535064   -25.7600   6  14   0.2983   0.3956   0.6126  -0.1609  -0.1838   0.1161   0.00    0.0
2282 547906   16.262305457  -61.527535079   -25.7569   6  14   0.2977   0.3949   0.6111  -0.1606  -0.1834   0.1158   0.00    0.0
2282 547907   16.262305466  -61.527535089   -25.7505   6  14   0.2970   0.3943   0.6096  -0.1604  -0.1830   0.1155   0.00    0.0
2282 547908   16.262305472  -61.527535092   -25.7452   6  14   0.2963   0.3936   0.6081  -0.1601  -0.1827   0.1152   0.00    0.0
2282 547909   16.262305510  -61.527535083   -25.7369   6  14   0.2957   0.3929   0.6066  -0.1599  -0.1823   0.1149   0.00    0.0
2282 547910   16.262305517  -61.527535107   -25.7386   6  14   0.2950   0.3922   0.6052  -0.1596  -0.1819   0.1146   0.00    0.0
2282 547911   16.262305530  -61.527535125   -25.7362   6  14   0.2943   0.3915   0.6037  -0.1594  -0.1816   0.1144   0.00    0.0
2282 547912   16.262305544  -61.527535111   -25.7312   6  14   0.2937   0.3908   0.6023  -0.1591  -0.1812   0.1141   0.00    0.0
2282 547913   16.262305544  -61.527535137   -25.7336   6  14   0.2930   0.3902   0.6008  -0.1589  -0.1808   0.1139   0.00    0.0
2282 547914   16.262305533  -61.527535126   -25.7282   6  14   0.2924   0.3895   0.5994  -0.1586  -0.1805   0.1136   0.00    0.0
2282 547915   16.262305534  -61.527535132   -25.7287   6  14   0.2917   0.3888   0.5980  -0.1584  -0.1801   0.1134   0.00    0.0
2282 547916   16.262305545  -61.527535112   -25.7296   6  14   0.2911   0.3882   0.5966  -0.1581  -0.1798   0.1131   0.00    0.0
2282 547917   16.262305537  -61.527535104   -25.7243   6  14   0.2905   0.3875   0.5951  -0.1579  -0.1794   0.1129   0.00    0.0
2282 547918   16.262305551  -61.527535103   -25.7204   6  14   0.2898   0.3868   0.5937  -0.1577  -0.1791   0.1126   0.00    0.0
2282 547919   16.262305573  -61.527535074   -25.7129   6  14   0.2892   0.3862   0.5923  -0.1574  -0.1787   0.1124   0.00    0.0
2282 547920   16.262305592  -61.527535084   -25.7128   6  14   0.2885   0.3855   0.5910  -0.1572  -0.1783   0.1122   0.00    0.0
2282 547921   16.262305596  -61.527535077   -25.7097   6  14   0.2879   0.3849   0.5896  -0.1569  -0.1780   0.1119   0.00    0.0
2282 547922   16.262305620  -61.527535042   -25.7108   6  14   0.2873   0.3842   0.5882  -0.1567  -0.1776   0.1117   0.00    0.0
2282 547923   16.262305625  -61.527535049   -25.7090   6  14   0.2867   0.3836   0.5868  -0.1565  -0.1773   0.1115   0.00    0.0
2282 547924   16.262305617  -61.527535026   -25.7017   6  14   0.2860   0.3829   0.5855  -0.1562  -0.1769   0.1113   0.00    0.0
2282 547925   16.262305636  -61.527535016   -25.7014   6  14   0.2854   0.3823   0.5841  -0.1560  -0.1766   0.1111   0.00    0.0
2282 547926   16.262305643  -61.527535008   -25.6998   6  14   0.2848   0.3816   0.5827  -0.1558  -0.1762   0.1108   0.00    0.0
2282 547927   16.262305662  -61.527534989   -25.6935   6  14   0.2842   0.3810   0.5814  -0.1556  -0.1759   0.1106   0.00    0.0
2282 547928   16.262305671  -61.527534981   -25.6949   6  14   0.2836   0.3804   0.5801  -0.1553  -0.1756   0.1104   0.00    0.0
2282 547929   16.262305614  -61.527534978   -25.6954   6  14   0.2830   0.3797   0.5787  -0.1551  -0.1752   0.1102   0.00    0.0
2282 547930   16.262305615  -61.527534973   -25.6962   6  14   0.2824   0.3791   0.5774  -0.1549  -0.1749   0.1100   0.00    0.0
2282 547931   16.262305622  -61.527534977   -25.6961   6  14   0.2818   0.3785   0.5761  -0.1546  -0.1745   0.1098   0.00    0.0
2282 547932   16.262305642  -61.527534945   -25.6959   6  14   0.2812   0.3778   0.5748  -0.1544  -0.1742   0.1096   0.00    0.0
2282 547933   16.262305640  -61.527534940   -25.6984   6  14   0.2806   0.3772   0.5734  -0.1542  -0.1738   0.1094   0.00    0.0
2282 547934   16.262305658  -61.527534925   -25.6949   6  14   0.2800   0.3766   0.5721  -0.1540  -0.1735   0.1092   0.00    0.0
2282 547935   16.262305657  -61.527534917   -25.6897   6  14   0.2794   0.3760   0.5708  -0.1537  -0.1732   0.1091   0.00    0.0
2282 547936   16.262305665  -61.527534916   -25.6901   6  14   0.2788   0.3754   0.5695  -0.1535  -0.1728   0.1089   0.00    0.0
