%  GPST Time  latitude(deg) longitude(deg)  height(m)   Q  ns   sdn(m)   sde(m)   sdu(m)  sdne(m)  sdeu(m)  sdun(m) age(s)  ratio
2281 393974   16.261265238  -61.526498103  -106.3682   6   5  41.7454  31.6011  32.9374 -31.1027  -9.3244 -24.8690   0.00    0.0
2281 393975   16.261244722  -61.526460402  -109.0177   6   4  36.9583  26.8485  26.3724 -27.9944   1.5196 -21.7779   0.00    0.0
2281 393976   16.261217907  -61.526420353  -112.3966   6   4  33.7548  24.4797  23.0176 -25.9686   2.5660 -19.1710   0.00    0.0
2281 393977   16.261206876  -61.526398376  -114.5831   6   4  31.1705  22.6090  20.6813 -24.1858   2.7096 -17.3009   0.00    0.0
2281 393978   16.261212781  -61.526393403  -116.3429   6   4  28.9778  21.0332  18.9323 -22.5953   2.5686 -15.8561   0.00    0.0
2281 393979   16.261229539  -61.526398659  -117.8368   6   4  27.0566  19.6566  17.5580 -21.1547   2.2757 -14.6839   0.00    0.0
2281 393980   16.261260403  -61.526415676  -119.2594   6   4  25.3373  18.4266  16.4404 -19.8345   1.8653 -13.7001   0.00    0.0
2281 393993   16.261716828  -61.526790865  -116.7662   6   4  10.6168  11.8721   9.0088 -10.5609  -7.3106   5.3354   0.00    0.0
2281 393994   16.261815594  -61.526898269  -113.4546   6   7   8.7231  10.2626   8.6502  -8.7318  -6.8593   4.9362   0.00    0.0
2281 393995   16.261867280  -61.526956926  -111.4479   6   7   7.6688   9.3523   8.3781  -7.7056  -6.5150   4.6487   0.00    0.0
2281 393996   16.261901247  -61.526997337  -109.7961   6   7   6.9428   8.7130   8.1331  -6.9944  -6.2304   4.4290   0.00    0.0
2281 393997   16.261926058  -61.527028214  -108.3687   6   7   6.3968   8.2207   7.9089  -6.4555  -5.9826   4.2474   0.00    0.0
2281 393998   16.261944677  -61.527052479  -107.1054   6   7   5.9624   7.8195   7.7018  -6.0233  -5.7607   4.0904   0.00    0.0
2281 393999   16.261959817  -61.527072985  -105.9370   6   7   5.6031   7.4798   7.5091  -5.6631  -5.5586   3.9509   0.00    0.0
2281 394000   16.261972434  -61.527090749  -104.8282   6   7   5.2974   7.1845   7.3288  -5.3542  -5.3724   3.8245   0.00    0.0
2281 394001   16.261983088  -61.527106315  -103.7979   6   7   5.0318   6.9227   7.1593  -5.0839  -5.1992   3.7086   0.00    0.0
2281 394002   16.261992556  -61.527120599  -102.7821   6   7   4.7973   6.6872   6.9991  -4.8435  -5.0372   3.6013   0.00    0.0
2281 394003   16.262002809  -61.527135666  -102.0073   6   6   4.5913   6.4761   6.8554  -4.6310  -4.8778   3.4922   0.00    0.0
2281 394004   16.262011958  -61.527149555  -101.2356   6   6   4.4042   6.2817   6.7187  -4.4370  -4.7277   3.3910   0.00    0.0
2281 394005   16.262048965  -61.527246887   -94.6694   6   7   4.0977   5.2986   6.2914  -3.8630  -3.8877   2.9652   0.00    0.0
2281 394006   16.262074777  -61.527293243   -91.3913   6   7   3.8436   4.8821   6.0855  -3.5067  -3.5312   2.7225   0.00    0.0
2281 394007   16.262099652  -61.527351356   -87.3216   6   8   3.6087   4.2318   5.8170  -3.0997  -2.9567   2.4399   0.00    0.0
2281 394008   16.262115021  -61.527385755   -84.8849   6   8   3.4323   3.8043   5.6340  -2.8256  -2.5741   2.2696   0.00    0.0
2281 394009   16.262125417  -61.527408269   -83.2749   6   8   3.2869   3.4941   5.4920  -2.6207  -2.2931   2.1552   0.00    0.0
2281 394010   16.262133601  -61.527424636   -82.0911   6   8   3.1607   3.2546   5.3732  -2.4572  -2.0738   2.0722   0.00    0.0
2281 394011   16.262140409  -61.527437131   -81.1658   6   8   3.0477   3.0616   5.2692  -2.3207  -1.8951   2.0081   0.00    0.0
2281 394012   16.262146340  -61.527447107   -80.3829   6   8   2.9446   2.9010   5.1749  -2.2032  -1.7447   1.9560   0.00    0.0
2281 394013   16.262151507  -61.527455285   -79.6857   6   8   2.8491   2.7642   5.0877  -2.0996  -1.6149   1.9116   0.00    0.0
2281 394014   16.262153738  -61.527458631   -79.2514   6   7   2.7733   2.6791   5.0140  -2.0354  -1.5412   1.8937   0.00    0.0
2281 394015   16.262155899  -61.527461769   -78.8064   6   6   2.7002   2.6012   4.9422  -1.9741  -1.4725   1.8739   0.00    0.0
2281 394016   16.262158321  -61.527464847   -78.3448   6   6   2.6291   2.5289   4.8717  -1.9149  -1.4076   1.8525   0.00    0.0
2281 394017   16.262161164  -61.527468123   -77.8380   6   6   2.5599   2.4616   4.8024  -1.8576  -1.3457   1.8294   0.00    0.0
2281 394018   16.262163885  -61.527471215   -77.2997   6   6   2.4925   2.3986   4.7338  -1.8022  -1.2862   1.8048   0.00    0.0
2281 394019   16.262166976  -61.527474449   -76.8118   6   6   2.4295   2.3400   4.6677  -1.7502  -1.2315   1.7828   0.00    0.0
2281 394020   16.262170360  -61.527477479   -76.5657   6   6   2.3700   2.2849   4.6181  -1.7005  -1.1742   1.7497   0.00    0.0
2281 394021   16.262173883  -61.527480538   -76.2932   6   6   2.3120   2.2327   4.5691  -1.6522  -1.1179   1.7161   0.00    0.0
2281 394022   16.262177457  -61.527483523   -76.0104   6   6   2.2553   2.1833   4.5206  -1.6053  -1.0625   1.6822   0.00    0.0
2281 394023   16.262180883  -61.527486277   -75.7103   6   6   2.2001   2.1363   4.4726  -1.5597  -1.0077   1.6480   0.00    0.0
2281 394024   16.262181007  -61.527492098   -75.8802   6   8   2.1252   2.0515   4.4224  -1.4804  -0.9790   1.6189   0.00    0.0
2281 394025   16.262181572  -61.527497197   -75.9624   6   8   2.0572   1.9782   4.3726  -1.4107  -0.9498   1.5894   0.00    0.0
2281 394026   16.262182531  -61.527501882   -75.9855   6   8   1.9940   1.9127   4.3230  -1.3477  -0.9211   1.5598   0.00    0.0
2281 394027   16.262183709  -61.527506256   -75.9749   6   8   1.9349   1.8535   4.2737  -1.2902  -0.8928   1.5301   0.00    0.0
2281 394028   16.262184969  -61.527510254   -75.9039   6   8   1.8794   1.7997   4.2247  -1.2374  -0.8649   1.5004   0.00    0.0
2281 394029   16.262186570  -61.527514177   -75.7672   6   7   1.8278   1.7509   4.1766  -1.1874  -0.8391   1.4692   0.00    0.0
2281 394030   16.262188311  -61.527517892   -75.5924   6   7   1.7789   1.7060   4.1287  -1.1409  -0.8136   1.4382   0.00    0.0
2281 394031   16.262190081  -61.527521388   -75.3479   6   7   1.7323   1.6645   4.0811  -1.0973  -0.7883   1.4072   0.00    0.0
2281 394032   16.262192032  -61.527524800   -75.0491   6   7   1.6879   1.6259   4.0338  -1.0564  -0.7633   1.3765   0.00    0.0
2281 394033   16.262194056  -61.527528090   -74.7215   6   7   1.6453   1.5899   3.9867  -1.0178  -0.7384   1.3460   0.00    0.0
2281 394034   16.262199186  -61.527530586   -73.0894   6  10   1.6127   1.5528   3.9087  -0.9869  -0.6741   1.2911   0.00    0.0
2281 394035   16.262203529  -61.527532279   -71.7349   6   9   1.5841   1.5251   3.8406  -0.9637  -0.6275   1.2456   0.00    0.0
2281 394036   16.262206199  -61.527535400   -70.7064   6  10   1.5554   1.4979   3.7743  -0.9428  -0.5843   1.1996   0.00    0.0
2281 394037   16.262208783  -61.527538431   -69.7019   6   9   1.5281   1.4725   3.7112  -0.9217  -0.5429   1.1536   0.00    0.0
2281 394038   16.262211251  -61.527541293   -68.7384   6   8   1.5027   1.4483   3.6507  -0.9013  -0.5016   1.1077   0.00    0.0
2281 394039   16.262213616  -61.527543876   -67.7470   6   8   1.4783   1.4252   3.5975  -0.8815  -0.4605   1.0658   0.00    0.0
2281 394040   16.262215899  -61.527546347   -66.7958   6   8   1.4544   1.4032   3.5459  -0.8625  -0.4182   1.0246   0.00    0.0
2281 394041   16.262218116  -61.527548703   -65.8859   6   8   1.4311   1.3821   3.4958  -0.8441  -0.3740   0.9841   0.00    0.0
2281 394042   16.262220201  -61.527550917   -65.0229   6   8   1.4083   1.3618   3.4470  -0.8262  -0.3271   0.9442   0.00    0.0
2281 394043   16.262222322  -61.527552995   -64.1298   6   7   1.3860   1.3425   3.4005  -0.8088  -0.2739   0.9053   0.00    0.0
2281 394044   16.262223903  -61.527555103   -63.5193   6   7   1.3617   1.3218   3.3627  -0.7868  -0.2136   0.8774   0.00    0.0
2281 394045   16.262225517  -61.527557072   -62.9105   6   7   1.3384   1.3023   3.3254  -0.7659  -0.1338   0.8497   0.00    0.0
2281 394046   16.262227215  -61.527558971   -62.2915   6   7   1.3157   1.2836   3.2885  -0.7460   0.0905   0.8222   0.00    0.0
2281 394047   16.262228877  -61.527560720   -61.6856   6   7   1.2937   1.2658   3.2520  -0.7270   0.1810   0.7949   0.00    0.0
2281 394048   16.262230529  -61.527562364   -61.0660   6   7   1.2735   1.2490   3.2164  -0.7096   0.2395   0.7655   0.00    0.0
2281 394049   16.262232243  -61.527563957   -60.4502   6   7   1.2539   1.2329   3.1816  -0.6930   0.2840   0.7361   0.00    0.0
2281 394050   16.262233973  -61.527565489   -59.8211   6   7   1.2348   1.2174   3.1473  -0.6770   0.3205   0.7067   0.00    0.0
2281 394051   16.262235648  -61.527566932   -59.2123   6   7   1.2162   1.2026   3.1135  -0.6617   0.3516   0.6773   0.00    0.0
2281 394052   16.262237357  -61.527568358   -58.5987   6   7   1.1981   1.1883   3.0801  -0.6470   0.3787   0.6476   0.00    0.0
2281 394053   16.262239175  -61.527570000   -57.9227   6   8   1.1784   1.1726   3.0416  -0.6292   0.4174   0.6075   0.00    0.0
2281 394054   16.262240903  -61.527571539   -57.2746   6   8   1.1596   1.1578   3.0047  -0.6126   0.4488   0.5683   0.00    0.0
2281 394055   16.262242543  -61.527572976   -56.6479   6   8   1.1414   1.1437   2.9689  -0.5968   0.4758   0.5291   0.00    0.0
2281 394056   16.262244129  -61.527574367   -56.0389   6   8   1.1238   1.1301   2.9339  -0.5818   0.4992   0.4896   0.00    0.0
2281 394057   16.262245663  -61.527575652   -55.4636   6   8   1.1067   1.1170   2.8998  -0.5674   0.5197   0.4495   0.00    0.0
2281 394058   16.262247075  -61.527576802   -54.9163   6   8   1.0902   1.1045   2.8666  -0.5537   0.5379   0.4084   0.00    0.0
2281 394059   16.262248427  -61.527577872   -54.3818   6   8   1.0742   1.0924   2.8342  -0.5407   0.5539   0.3657   0.00    0.0
2281 394060   16.262249754  -61.527578886   -53.8547   6   8   1.0586   1.0808   2.8025  -0.5282   0.5683   0.3205   0.00    0.0
2281 394061   16.262251125  -61.527579887   -53.3342   6   8   1.0435   1.0695   2.7715  -0.5163   0.5811   0.2714   0.00    0.0
2281 394062   16.262252417  -61.527580814   -52.8084   6   8   1.0288   1.0587   2.7411  -0.5049   0.5926   0.2155   0.00    0.0
2281 394063   16.262253690  -61.527581685   -52.2956   6   8   1.0145   1.0482   2.7114  -0.4940   0.6029   0.1445   0.00    0.0
2281 394064   16.262254994  -61.527582491   -51.7687   6   8   1.0006   1.0380   2.6824  -0.4835   0.6122  -0.0555   0.00    0.0
2281 394065   16.262256274  -61.527583212   -51.2544   6   8   0.9870   1.0281   2.6539  -0.4735   0.6205  -0.1598   0.00    0.0
2281 394066   16.262257555  -61.527583898   -50.7421   6   8   0.9738   1.0186   2.6259  -0.4639   0.6280  -0.2158   0.00    0.0
2281 394067   16.262258778  -61.527584494   -50.2424   6   8   0.9610   1.0093   2.5985  -0.4548   0.6347  -0.2575   0.00    0.0
2281 394068   16.262259982  -61.527585022   -49.7618   6   8   0.9484   1.0003   2.5716  -0.4460   0.6408  -0.2912   0.00    0.0
2281 394069   16.262261149  -61.527585369   -49.3468   6   7   0.9362   0.9918   2.5471  -0.4374   0.6445  -0.3200   0.00    0.0
2281 394070   16.262262290  -61.527585669   -48.9513   6   7   0.9242   0.9835   2.5229  -0.4292   0.6478  -0.3449   0.00    0.0
2281 394071   16.262263314  -61.527585996   -48.5120   6   8   0.9125   0.9752   2.4973  -0.4214   0.6524  -0.3662   0.00    0.0
2281 394072   16.262264299  -61.527586284   -48.0910   6   8   0.9011   0.9671   2.4721  -0.4140   0.6564  -0.3851   0.00    0.0
2281 394073   16.262265238  -61.527586547   -47.6824   6   8   0.8899   0.9591   2.4474  -0.4068   0.6600  -0.4019   0.00    0.0
2281 394074   16.262266104  -61.527586784   -47.3190   6   7   0.8790   0.9516   2.4246  -0.3998   0.6618  -0.4174   0.00    0.0
2281 394075   16.262266975  -61.527586988   -46.9611   6   7   0.8684   0.9443   2.4021  -0.3930   0.6634  -0.4314   0.00    0.0
2281 394076   16.262267857  -61.527587171   -46.5946   6   7   0.8580   0.9371   2.3799  -0.3865   0.6648  -0.4441   0.00    0.0
2281 394077   16.262268694  -61.527587308   -46.2431   6   7   0.8477   0.9300   2.3580  -0.3802   0.6659  -0.4556   0.00    0.0
2281 394078   16.262269565  -61.527587425   -45.8947   6   7   0.8377   0.9232   2.3363  -0.3742   0.6668  -0.4660   0.00    0.0
2281 394079   16.262270474  -61.527587578   -45.5708   6   7   0.8282   0.9166   2.3155  -0.3690   0.6682  -0.4767   0.00    0.0
2281 394080   16.262271375  -61.527587719   -45.2541   6   7   0.8189   0.9102   2.2949  -0.3640   0.6695  -0.4864   0.00    0.0
2281 394081   16.262272288  -61.527587844   -44.9370   6   7   0.8098   0.9039   2.2745  -0.3591   0.6706  -0.4953   0.00    0.0
2281 394082   16.262273218  -61.527587955   -44.6233   6   7   0.8009   0.8978   2.2545  -0.3545   0.6715  -0.5034   0.00    0.0
2281 394083   16.262274131  -61.527588047   -44.3124   6   7   0.7921   0.8917   2.2347  -0.3501   0.6723  -0.5108   0.00    0.0
2281 394084   16.262275039  -61.527588100   -44.0092   6   7   0.7835   0.8858   2.2151  -0.3459   0.6729  -0.5176   0.00    0.0
2281 394085   16.262275918  -61.527588105   -43.7169   6   7   0.7751   0.8800   2.1958  -0.3418   0.6733  -0.5239   0.00    0.0
2281 394086   16.262276798  -61.527588076   -43.4238   6   7   0.7668   0.8742   2.1768  -0.3379   0.6737  -0.5296   0.00    0.0
2281 394087   16.262277640  -61.527588003   -43.1502   6   7   0.7587   0.8686   2.1579  -0.3341   0.6739  -0.5347   0.00    0.0
2281 394088   16.262278472  -61.527587881   -42.8860   6   7   0.7507   0.8631   2.1393  -0.3305   0.6740  -0.5395   0.00    0.0
2281 394089   16.262279257  -61.527587724   -42.6330   6   7   0.7429   0.8577   2.1210  -0.3271   0.6740  -0.5437   0.00    0.0
2281 394090   16.262279890  -61.527587708   -42.3304   6   7   0.7353   0.8523   2.1029  -0.3238   0.6738  -0.5476   0.00    0.0
2281 394091   16.262280534  -61.527587675   -42.0395   6   7   0.7277   0.8470   2.0850  -0.3206   0.6736  -0.5511   0.00    0.0
2281 394092   16.262281172  -61.527587633   -41.7627   6   7   0.7203   0.8419   2.0673  -0.3175   0.6733  -0.5543   0.00    0.0
2281 394093   16.262281813  -61.527587570   -41.5030   6   7   0.7131   0.8367   2.0498  -0.3146   0.6729  -0.5571   0.00    0.0
2281 394094   16.262282415  -61.527587465   -41.2569   6   7   0.7059   0.8317   2.0326  -0.3118   0.6724  -0.5596   0.00    0.0
2281 394095   16.262283077  -61.527587286   -40.9912   6   8   0.6987   0.8267   2.0146  -0.3094   0.6713  -0.5627   0.00    0.0
2281 394096   16.262283659  -61.527587132   -40.7645   6   7   0.6918   0.8218   1.9979  -0.3068   0.6707  -0.5646   0.00    0.0
2281 394097   16.262284230  -61.527586974   -40.5474   6   7   0.6850   0.8170   1.9813  -0.3043   0.6700  -0.5663   0.00    0.0
2281 394098   16.262284788  -61.527586822   -40.3438   6   7   0.6784   0.8122   1.9649  -0.3019   0.6692  -0.5677   0.00    0.0
2281 394099   16.262285334  -61.527586638   -40.1513   6   7   0.6718   0.8075   1.9487  -0.2996   0.6684  -0.5688   0.00    0.0
2281 394100   16.262285858  -61.527586402   -39.9588   6   7   0.6653   0.8029   1.9327  -0.2973   0.6675  -0.5698   0.00    0.0
2281 394101   16.262286376  -61.527586142   -39.7739   6   7   0.6590   0.7983   1.9169  -0.2952   0.6665  -0.5706   0.00    0.0
2281 394102   16.262286882  -61.527585880   -39.5922   6   7   0.6528   0.7938   1.9013  -0.2931   0.6655  -0.5711   0.00    0.0
2281 394103   16.262287363  -61.527585618   -39.4196   6   7   0.6466   0.7894   1.8859  -0.2911   0.6644  -0.5715   0.00    0.0
2281 394104   16.262287855  -61.527585383   -39.2156   6   7   0.6405   0.7850   1.8706  -0.2892   0.6633  -0.5718   0.00    0.0
2281 394105   16.262288302  -61.527585128   -39.0233   6   7   0.6346   0.7806   1.8556  -0.2873   0.6621  -0.5718   0.00    0.0
2281 394106   16.262288743  -61.527584862   -38.8389   6   7   0.6287   0.7763   1.8407  -0.2855   0.6609  -0.5717   0.00    0.0
2281 394107   16.262289180  -61.527584605   -38.6621   6   7   0.6229   0.7721   1.8260  -0.2838   0.6597  -0.5715   0.00    0.0
2281 394108   16.262289648  -61.527584348   -38.4856   6   7   0.6172   0.7679   1.8115  -0.2822   0.6584  -0.5712   0.00    0.0
2281 394109   16.262290085  -61.527584150   -38.3035   6   7   0.6116   0.7637   1.7972  -0.2805   0.6571  -0.5707   0.00    0.0
2281 394110   16.262290555  -61.527583962   -38.1262   6   7   0.6061   0.7596   1.7830  -0.2790   0.6557  -0.5701   0.00    0.0
2281 394111   16.262291009  -61.527583754   -37.9657   6   7   0.6006   0.7556   1.7690  -0.2775   0.6543  -0.5694   0.00    0.0
2281 394112   16.262291456  -61.527583557   -37.8069   6   7   0.5953   0.7516   1.7552  -0.2760   0.6529  -0.5686   0.00    0.0
2281 394113   16.262291910  -61.527583332   -37.6548   6   7   0.5900   0.7476   1.7415  -0.2746   0.6514  -0.5676   0.00    0.0
2281 394114   16.262292310  -61.527583094   -37.4911   6   7   0.5847   0.7437   1.7280  -0.2732   0.6499  -0.5666   0.00    0.0
2281 394115   16.262292698  -61.527582844   -37.3322   6   7   0.5796   0.7398   1.7147  -0.2719   0.6484  -0.5655   0.00    0.0
2281 394116   16.262293062  -61.527582587   -37.1792   6   7   0.5745   0.7359   1.7015  -0.2706   0.6468  -0.5644   0.00    0.0
2281 394117   16.262293440  -61.527582350   -37.0331   6   7   0.5695   0.7321   1.6885  -0.2693   0.6452  -0.5631   0.00    0.0
2281 394118   16.262293815  -61.527582108   -36.8998   6   7   0.5646   0.7283   1.6756  -0.2681   0.6436  -0.5618   0.00    0.0
2281 394119   16.262294157  -61.527581892   -36.7529   6   7   0.5597   0.7246   1.6629  -0.2669   0.6420  -0.5603   0.00    0.0
2281 394120   16.262294480  -61.527581660   -36.6155   6   7   0.5549   0.7209   1.6503  -0.2658   0.6404  -0.5589   0.00    0.0
2281 394121   16.262294819  -61.527581439   -36.4781   6   7   0.5502   0.7172   1.6379  -0.2646   0.6387  -0.5573   0.00    0.0
2281 394122   16.262295148  -61.527581209   -36.3473   6   7   0.5455   0.7135   1.6257  -0.2635   0.6370  -0.5558   0.00    0.0
2281 394123   16.262295480  -61.527580982   -36.2057   6   7   0.5409   0.7099   1.6135  -0.2625   0.6353  -0.5541   0.00    0.0
2281 394124   16.262295796  -61.527580769   -36.0587   6   7   0.5363   0.7064   1.6016  -0.2614   0.6336  -0.5524   0.00    0.0
2281 394125   16.262296172  -61.527580715   -35.9408   6   6   0.5320   0.7037   1.5906  -0.2613   0.6334  -0.5513   0.00    0.0
2281 394126   16.262296533  -61.527580654   -35.8269   6   6   0.5277   0.7011   1.5798  -0.2612   0.6330  -0.5502   0.00    0.0
2281 394127   16.262296883  -61.527580603   -35.7079   6   6   0.5235   0.6984   1.5691  -0.2610   0.6327  -0.5490   0.00    0.0
2281 394128   16.262297206  -61.527580540   -35.5944   6   6   0.5194   0.6958   1.5585  -0.2609   0.6322  -0.5477   0.00    0.0
2281 394129   16.262297525  -61.527580477   -35.4766   6   6   0.5152   0.6932   1.5481  -0.2608   0.6318  -0.5464   0.00    0.0
2281 394130   16.262297868  -61.527580405   -35.3816   6   6   0.5122   0.6906   1.5425  -0.2604   0.6309  -0.5485   0.00    0.0
2281 394131   16.262298181  -61.527580325   -35.2900   6   6   0.5092   0.6880   1.5369  -0.2601   0.6301  -0.5506   0.00    0.0
2281 394132   16.262298489  -61.527580242   -35.2038   6   6   0.5063   0.6854   1.5315  -0.2597   0.6292  -0.5526   0.00    0.0
2281 394133   16.262298777  -61.527580157   -35.1222   6   6   0.5034   0.6828   1.5260  -0.2594   0.6284  -0.5544   0.00    0.0
2281 394134   16.262299051  -61.527579998   -35.0522   6   6   0.5005   0.6802   1.5206  -0.2591   0.6275  -0.5562   0.00    0.0
2281 394135   16.262299315  -61.527579837   -34.9809   6   6   0.4977   0.6777   1.5153  -0.2588   0.6266  -0.5579   0.00    0.0
2281 394136   16.262299568  -61.527579679   -34.9167   6   6   0.4950   0.6751   1.5100  -0.2585   0.6256  -0.5594   0.00    0.0
2281 394137   16.262299819  -61.527579522   -34.8541   6   6   0.4923   0.6726   1.5048  -0.2582   0.6247  -0.5609   0.00    0.0
2281 394138   16.262300067  -61.527579365   -34.7938   6   6   0.4896   0.6700   1.4996  -0.2579   0.6238  -0.5623   0.00    0.0
2281 394139   16.262300309  -61.527579179   -34.7359   6   6   0.4870   0.6675   1.4945  -0.2576   0.6228  -0.5636   0.00    0.0
2281 394140   16.262300556  -61.527578967   -34.6626   6   6   0.4844   0.6650   1.4894  -0.2573   0.6218  -0.5648   0.00    0.0
2281 394141   16.262300794  -61.527578770   -34.5934   6   6   0.4818   0.6625   1.4843  -0.2570   0.6208  -0.5659   0.00    0.0
2281 394142   16.262301020  -61.527578595   -34.5306   6   6   0.4793   0.6599   1.4793  -0.2568   0.6198  -0.5670   0.00    0.0
2281 394143   16.262301242  -61.527578407   -34.4671   6   6   0.4768   0.6574   1.4743  -0.2565   0.6188  -0.5680   0.00    0.0
2281 394144   16.262301487  -61.527578198   -34.3975   6   7   0.4744   0.6549   1.4692  -0.2563   0.6176  -0.5690   0.00    0.0
2281 394145   16.262301723  -61.527577969   -34.3312   6   7   0.4720   0.6524   1.4642  -0.2561   0.6164  -0.5699   0.00    0.0
2281 394146   16.262301940  -61.527577749   -34.2725   6   7   0.4696   0.6499   1.4592  -0.2559   0.6153  -0.5708   0.00    0.0
2281 394147   16.262302140  -61.527577524   -34.2175   6   6   0.4672   0.6474   1.4544  -0.2556   0.6142  -0.5715   0.00    0.0
2281 394148   16.262302343  -61.527577262   -34.1576   6   7   0.4649   0.6449   1.4495  -0.2554   0.6130  -0.5722   0.00    0.0
2281 394149   16.262302543  -61.527577004   -34.1034   6   6   0.4626   0.6424   1.4448  -0.2551   0.6120  -0.5728   0.00    0.0
2281 394150   16.262302739  -61.527576754   -34.0443   6   7   0.4604   0.6399   1.4400  -0.2549   0.6107  -0.5734   0.00    0.0
2281 394151   16.262302919  -61.527576505   -33.9866   6   6   0.4581   0.6375   1.4353  -0.2546   0.6097  -0.5738   0.00    0.0
2281 394152   16.262303090  -61.527576282   -33.9294   6   6   0.4560   0.6351   1.4307  -0.2543   0.6086  -0.5743   0.00    0.0
2281 394153   16.262303252  -61.527576049   -33.8728   6   6   0.4538   0.6326   1.4262  -0.2541   0.6074  -0.5746   0.00    0.0
2281 394154   16.262303421  -61.527575837   -33.8193   6   6   0.4517   0.6302   1.4216  -0.2538   0.6063  -0.5749   0.00    0.0
2281 394155   16.262303574  -61.527575621   -33.7665   6   6   0.4496   0.6278   1.4171  -0.2535   0.6052  -0.5752   0.00    0.0
2281 394156   16.262303732  -61.527575413   -33.7148   6   6   0.4475   0.6254   1.4127  -0.2532   0.6041  -0.5754   0.00    0.0
2281 394157   16.262303866  -61.527575217   -33.6692   6   6   0.4454   0.6230   1.4082  -0.2530   0.6029  -0.5756   0.00    0.0
2281 394158   16.262303996  -61.527575007   -33.6249   6   6   0.4434   0.6206   1.4038  -0.2527   0.6018  -0.5758   0.00    0.0
2281 394159   16.262304147  -61.527574784   -33.5767   6   6   0.4414   0.6183   1.3994  -0.2524   0.6006  -0.5759   0.00    0.0
2281 394160   16.262304290  -61.527574552   -33.5289   6   6   0.4394   0.6159   1.3951  -0.2521   0.5995  -0.5759   0.00    0.0
2281 394161   16.262304412  -61.527574303   -33.4864   6   6   0.4375   0.6135   1.3908  -0.2518   0.5983  -0.5760   0.00    0.0
2281 394162   16.262304549  -61.527574048   -33.4462   6   6   0.4355   0.6112   1.3865  -0.2516   0.5971  -0.5759   0.00    0.0
2281 394163   16.262304687  -61.527573759   -33.4030   6   7   0.4336   0.6088   1.3821  -0.2513   0.5958  -0.5759   0.00    0.0
2281 394164   16.262304811  -61.527573467   -33.3629   6   6   0.4317   0.6064   1.3779  -0.2510   0.5947  -0.5759   0.00    0.0
2281 394165   16.262304957  -61.527573172   -33.3138   6   6   0.4298   0.6041   1.3737  -0.2507   0.5935  -0.5757   0.00    0.0
2281 394166   16.262305101  -61.527572863   -33.2661   6   6   0.4280   0.6018   1.3696  -0.2504   0.5923  -0.5756   0.00    0.0
2281 394167   16.262305253  -61.527572546   -33.2180   6   6   0.4261   0.5994   1.3654  -0.2501   0.5911  -0.5754   0.00    0.0
2281 394168   16.262305412  -61.527572225   -33.1675   6   7   0.4243   0.5971   1.3612  -0.2499   0.5898  -0.5752   0.00    0.0
2281 394169   16.262305578  -61.527571987   -33.1129   6   7   0.4225   0.5948   1.3570  -0.2496   0.5885  -0.5750   0.00    0.0
2281 394170   16.262305745  -61.527571743   -33.0582   6   7   0.4207   0.5924   1.3529  -0.2493   0.5872  -0.5747   0.00    0.0
2281 394171   16.262305911  -61.527571470   -33.0050   6   7   0.4190   0.5901   1.3488  -0.2490   0.5859  -0.5744   0.00    0.0
2281 394172   16.262306055  -61.527571242   -32.9552   6   6   0.4172   0.5878   1.3448  -0.2487   0.5847  -0.5741   0.00    0.0
2281 394173   16.262306195  -61.527570983   -32.9056   6   6   0.4155   0.5856   1.3408  -0.2484   0.5835  -0.5737   0.00    0.0
2281 394174   16.262306315  -61.527570739   -32.8623   6   6   0.4138   0.5833   1.3368  -0.2481   0.5823  -0.5733   0.00    0.0
2281 394175   16.262306423  -61.527570515   -32.8240   6   6   0.4121   0.5810   1.3329  -0.2477   0.5811  -0.5729   0.00    0.0
2281 394176   16.262306518  -61.527570288   -32.7880   6   6   0.4104   0.5788   1.3290  -0.2474   0.5798  -0.5725   0.00    0.0
2281 394177   16.262306611  -61.527570067   -32.7555   6   6   0.4088   0.5766   1.3251  -0.2471   0.5786  -0.5720   0.00    0.0
2281 394178   16.262306701  -61.527569841   -32.7228   6   6   0.4071   0.5743   1.3212  -0.2468   0.5774  -0.5715   0.00    0.0
2281 394179   16.262306801  -61.527569596   -32.6872   6   6   0.4055   0.5721   1.3174  -0.2464   0.5761  -0.5710   0.00    0.0
2281 394180   16.262306891  -61.527569356   -32.6545   6   6   0.4039   0.5699   1.3136  -0.2461   0.5749  -0.5705   0.00    0.0
2281 394181   16.262306982  -61.527569115   -32.6248   6   6   0.4023   0.5677   1.3098  -0.2458   0.5737  -0.5700   0.00    0.0
2281 394182   16.262307071  -61.527568856   -32.5969   6   6   0.4007   0.5655   1.3060  -0.2454   0.5724  -0.5694   0.00    0.0
2281 394183   16.262307155  -61.527568589   -32.5694   6   6   0.3991   0.5633   1.3023  -0.2451   0.5712  -0.5688   0.00    0.0
2281 394184   16.262307228  -61.527568314   -32.5411   6   6   0.3976   0.5611   1.2986  -0.2447   0.5700  -0.5682   0.00    0.0
2281 394185   16.262307294  -61.527568024   -32.5121   6   6   0.3960   0.5589   1.2949  -0.2444   0.5687  -0.5676   0.00    0.0
2281 394186   16.262307394  -61.527567733   -32.4763   6   6   0.3945   0.5568   1.2912  -0.2440   0.5675  -0.5670   0.00    0.0
2281 394187   16.262307480  -61.527567425   -32.4404   6   6   0.3930   0.5546   1.2876  -0.2437   0.5663  -0.5663   0.00    0.0
2281 394188   16.262307558  -61.527567127   -32.4057   6   6   0.3915   0.5525   1.2839  -0.2433   0.5650  -0.5657   0.00    0.0
2281 394189   16.262307656  -61.527566848   -32.3669   6   6   0.3900   0.5503   1.2803  -0.2430   0.5638  -0.5650   0.00    0.0
2281 394190   16.262307748  -61.527566559   -32.3263   6   7   0.3885   0.5482   1.2767  -0.2426   0.5625  -0.5643   0.00    0.0
2281 394191   16.262307836  -61.527566268   -32.2906   6   6   0.3870   0.5460   1.2731  -0.2423   0.5612  -0.5636   0.00    0.0
2281 394192   16.262307919  -61.527565978   -32.2529   6   6   0.3856   0.5439   1.2696  -0.2419   0.5600  -0.5629   0.00    0.0
2281 394193   16.262308001  -61.527565688   -32.2192   6   6   0.3841   0.5418   1.2660  -0.2415   0.5588  -0.5621   0.00    0.0
2281 394194   16.262308068  -61.527565437   -32.1814   6   6   0.3827   0.5397   1.2625  -0.2412   0.5575  -0.5614   0.00    0.0
2281 394195   16.262308125  -61.527565196   -32.1439   6   6   0.3813   0.5376   1.2590  -0.2408   0.5563  -0.5606   0.00    0.0
2281 394196   16.262308174  -61.527564955   -32.1058   6   6   0.3799   0.5356   1.2556  -0.2404   0.5550  -0.5599   0.00    0.0
2281 394197   16.262308222  -61.527564724   -32.0694   6   6   0.3785   0.5335   1.2521  -0.2400   0.5538  -0.5591   0.00    0.0
2281 394198   16.262308258  -61.527564493   -32.0321   6   6   0.3771   0.5314   1.2487  -0.2397   0.5526  -0.5583   0.00    0.0
2281 394199   16.262308324  -61.527564267   -31.9887   6   6   0.3757   0.5294   1.2453  -0.2393   0.5513  -0.5575   0.00    0.0
2281 394200   16.262308383  -61.527564030   -31.9430   6   7   0.3743   0.5273   1.2419  -0.2389   0.5500  -0.5567   0.00    0.0
2281 394201   16.262308428  -61.527563815   -31.8991   6   7   0.3730   0.5252   1.2384  -0.2385   0.5488  -0.5558   0.00    0.0
2281 394202   16.262308473  -61.527563590   -31.8547   6   7   0.3716   0.5232   1.2350  -0.2381   0.5475  -0.5550   0.00    0.0
2281 394203   16.262308522  -61.527563366   -31.8091   6   7   0.3703   0.5211   1.2317  -0.2378   0.5462  -0.5542   0.00    0.0
2281 394204   16.262308596  -61.527563124   -31.7665   6   7   0.3689   0.5191   1.2283  -0.2374   0.5450  -0.5533   0.00    0.0
2281 394205   16.262308665  -61.527562892   -31.7250   6   6   0.3676   0.5171   1.2250  -0.2370   0.5437  -0.5524   0.00    0.0
2281 394206   16.262308731  -61.527562658   -31.6864   6   7   0.3663   0.5151   1.2217  -0.2366   0.5425  -0.5516   0.00    0.0
2281 394207   16.262308791  -61.527562426   -31.6487   6   6   0.3650   0.5131   1.2185  -0.2362   0.5413  -0.5507   0.00    0.0
2281 394208   16.262308852  -61.527562201   -31.6083   6   6   0.3637   0.5112   1.2152  -0.2358   0.5400  -0.5498   0.00    0.0
2281 394209   16.262308911  -61.527561963   -31.5691   6   6   0.3624   0.5092   1.2120  -0.2354   0.5388  -0.5489   0.00    0.0
2281 394210   16.262308975  -61.527561724   -31.5314   6   6   0.3611   0.5072   1.2088  -0.2350   0.5376  -0.5480   0.00    0.0
2281 394211   16.262309039  -61.527561482   -31.4946   6   5   0.3599   0.5053   1.2058  -0.2345   0.5364  -0.5472   0.00    0.0
2281 394212   16.262309105  -61.527561240   -31.4578   6   5   0.3587   0.5034   1.2027  -0.2341   0.5351  -0.5463   0.00    0.0
2281 394213   16.262309180  -61.527561010   -31.4225   6   5   0.3575   0.5015   1.1997  -0.2337   0.5339  -0.5455   0.00    0.0
2281 394214   16.262309233  -61.527560786   -31.3852   6   5   0.3563   0.4995   1.1967  -0.2332   0.5327  -0.5447   0.00    0.0
2281 394215   16.262309276  -61.527560569   -31.3495   6   6   0.3551   0.4976   1.1936  -0.2328   0.5314  -0.5438   0.00    0.0
2281 394216   16.262309319  -61.527560351   -31.3151   6   6   0.3539   0.4960   1.1908  -0.2323   0.5299  -0.5430   0.00    0.0
2281 394217   16.262309358  -61.527560143   -31.2807   6   6   0.3528   0.4943   1.1879  -0.2319   0.5283  -0.5421   0.00    0.0
2281 394218   16.262309380  -61.527559946   -31.2435   6   7   0.3516   0.4926   1.1849  -0.2315   0.5269  -0.5412   0.00    0.0
2281 394219   16.262309403  -61.527559740   -31.2050   6   7   0.3503   0.4910   1.1820  -0.2311   0.5254  -0.5402   0.00    0.0
2281 394220   16.262309422  -61.527559534   -31.1657   6   7   0.3491   0.4893   1.1791  -0.2307   0.5240  -0.5393   0.00    0.0
2281 394221   16.262309436  -61.527559338   -31.1292   6   7   0.3480   0.4877   1.1761  -0.2303   0.5226  -0.5383   0.00    0.0
2281 394222   16.262309447  -61.527559135   -31.0920   6   7   0.3468   0.4860   1.1733  -0.2299   0.5212  -0.5373   0.00    0.0
2281 394223   16.262309454  -61.527558929   -31.0532   6   7   0.3456   0.4844   1.1704  -0.2295   0.5197  -0.5364   0.00    0.0
2281 394224   16.262309491  -61.527558728   -31.0203   6   6   0.3444   0.4828   1.1675  -0.2291   0.5184  -0.5354   0.00    0.0
2281 394225   16.262309519  -61.527558521   -30.9854   6   7   0.3433   0.4812   1.1647  -0.2286   0.5170  -0.5344   0.00    0.0
2281 394226   16.262309544  -61.527558322   -30.9487   6   7   0.3421   0.4796   1.1619  -0.2282   0.5156  -0.5334   0.00    0.0
2281 394227   16.262309587  -61.527558131   -30.9137   6   6   0.3410   0.4780   1.1591  -0.2278   0.5142  -0.5325   0.00    0.0
2281 394228   16.262309630  -61.527557955   -30.8797   6   6   0.3399   0.4764   1.1564  -0.2273   0.5128  -0.5316   0.00    0.0
2281 394229   16.262309670  -61.527557799   -30.8446   6   5   0.3388   0.4748   1.1538  -0.2269   0.5114  -0.5307   0.00    0.0
2281 394230   16.262309687  -61.527557618   -30.7991   6   7   0.3376   0.4729   1.1505  -0.2261   0.5095  -0.5294   0.00    0.0
2281 394231   16.262309700  -61.527557453   -30.7551   6   7   0.3363   0.4710   1.1472  -0.2253   0.5076  -0.5282   0.00    0.0
2281 394232   16.262309739  -61.527557351   -30.7190   6   6   0.3352   0.4694   1.1445  -0.2249   0.5064  -0.5272   0.00    0.0
2281 394233   16.262309766  -61.527557250   -30.6825   6   6   0.3341   0.4679   1.1418  -0.2245   0.5051  -0.5262   0.00    0.0
2281 394234   16.262309788  -61.527557132   -30.6510   6   6   0.3330   0.4664   1.1391  -0.2241   0.5038  -0.5252   0.00    0.0
2281 394235   16.262309807  -61.527557038   -30.6198   6   6   0.3319   0.4648   1.1365  -0.2237   0.5026  -0.5242   0.00    0.0
2281 394236   16.262309823  -61.527556954   -30.5876   6   6   0.3308   0.4633   1.1338  -0.2232   0.5013  -0.5232   0.00    0.0
2281 394237   16.262309839  -61.527556890   -30.5525   6   7   0.3298   0.4618   1.1311  -0.2228   0.5000  -0.5222   0.00    0.0
2281 394238   16.262309846  -61.527556850   -30.5183   6   7   0.3287   0.4602   1.1285  -0.2224   0.4988  -0.5212   0.00    0.0
2281 394239   16.262309874  -61.527556760   -30.4869   6   7   0.3276   0.4587   1.1259  -0.2220   0.4976  -0.5203   0.00    0.0
2281 394240   16.262309895  -61.527556695   -30.4564   6   7   0.3266   0.4572   1.1232  -0.2216   0.4963  -0.5193   0.00    0.0
2281 394241   16.262309912  -61.527556653   -30.4274   6   7   0.3255   0.4557   1.1206  -0.2211   0.4951  -0.5183   0.00    0.0
2281 394242   16.262309927  -61.527556609   -30.3981   6   7   0.3244   0.4542   1.1181  -0.2207   0.4939  -0.5173   0.00    0.0
2281 394243   16.262309939  -61.527556591   -30.3689   6   7   0.3234   0.4527   1.1155  -0.2203   0.4927  -0.5163   0.00    0.0
2281 394244   16.262309969  -61.527556506   -30.3462   6   7   0.3224   0.4512   1.1129  -0.2199   0.4915  -0.5153   0.00    0.0
2281 394245   16.262309992  -61.527556433   -30.3229   6   7   0.3213   0.4497   1.1104  -0.2194   0.4903  -0.5143   0.00    0.0
2281 394246   16.262310001  -61.527556360   -30.2965   6   7   0.3203   0.4483   1.1079  -0.2190   0.4891  -0.5133   0.00    0.0
2281 394247   16.262310005  -61.527556283   -30.2675   6   7   0.3193   0.4468   1.1053  -0.2186   0.4880  -0.5124   0.00    0.0
2281 394248   16.262310008  -61.527556216   -30.2394   6   7   0.3183   0.4453   1.1028  -0.2182   0.4868  -0.5114   0.00    0.0
2281 394249   16.262310027  -61.527556090   -30.2176   6   7   0.3173   0.4439   1.1004  -0.2178   0.4856  -0.5104   0.00    0.0
2281 394250   16.262310049  -61.527555980   -30.1935   6   7   0.3163   0.4424   1.0979  -0.2173   0.4845  -0.5094   0.00    0.0
2281 394251   16.262310059  -61.527555840   -30.1645   6   8   0.3152   0.4407   1.0950  -0.2166   0.4829  -0.5082   0.00    0.0
2281 394252   16.262310063  -61.527555699   -30.1330   6   7   0.3141   0.4390   1.0921  -0.2159   0.4813  -0.5070   0.00    0.0
2281 394253   16.262310074  -61.527555567   -30.1042   6   7   0.3130   0.4373   1.0893  -0.2153   0.4797  -0.5058   0.00    0.0
2281 394254   16.262310093  -61.527555390   -30.0802   6   8   0.3120   0.4357   1.0865  -0.2146   0.4781  -0.5046   0.00    0.0
2281 394255   16.262310110  -61.527555222   -30.0558   6   8   0.3109   0.4340   1.0837  -0.2139   0.4766  -0.5034   0.00    0.0
2281 394256   16.262310128  -61.527555058   -30.0307   6   8   0.3098   0.4324   1.0809  -0.2133   0.4750  -0.5022   0.00    0.0
2281 394257   16.262310140  -61.527554900   -30.0046   6   8   0.3088   0.4307   1.0781  -0.2126   0.4735  -0.5010   0.00    0.0
2281 394258   16.262310145  -61.527554754   -29.9773   6   8   0.3078   0.4291   1.0754  -0.2119   0.4720  -0.4998   0.00    0.0
2281 394259   16.262310154  -61.527554601   -29.9521   6   8   0.3067   0.4275   1.0726  -0.2113   0.4705  -0.4986   0.00    0.0
2281 394260   16.262310182  -61.527554474   -29.9327   6   7   0.3058   0.4261   1.0703  -0.2109   0.4695  -0.4976   0.00    0.0
2281 394261   16.262310190  -61.527554329   -29.9088   6   8   0.3048   0.4245   1.0676  -0.2103   0.4681  -0.4965   0.00    0.0
2281 394262   16.262310201  -61.527554185   -29.8856   6   8   0.3037   0.4229   1.0649  -0.2096   0.4666  -0.4953   0.00    0.0
2281 394263   16.262310207  -61.527554037   -29.8640   6   8   0.3027   0.4214   1.0623  -0.2090   0.4652  -0.4941   0.00    0.0
2281 394264   16.262310219  -61.527553852   -29.8482   6   8   0.3017   0.4198   1.0596  -0.2084   0.4638  -0.4930   0.00    0.0
2281 394265   16.262310240  -61.527553674   -29.8361   6   8   0.3007   0.4182   1.0570  -0.2078   0.4624  -0.4918   0.00    0.0
2281 394266   16.262310252  -61.527553500   -29.8244   6   8   0.2997   0.4167   1.0544  -0.2071   0.4610  -0.4907   0.00    0.0
2281 394267   16.262310264  -61.527553332   -29.8163   6   8   0.2987   0.4152   1.0518  -0.2065   0.4597  -0.4895   0.00    0.0
2281 394268   16.262310276  -61.527553166   -29.8077   6   8   0.2977   0.4137   1.0492  -0.2059   0.4583  -0.4883   0.00    0.0
2281 394269   16.262310298  -61.527553022   -29.7972   6   8   0.2967   0.4121   1.0466  -0.2053   0.4570  -0.4872   0.00    0.0
2281 394270   16.262310323  -61.527552878   -29.7883   6   8   0.2958   0.4106   1.0441  -0.2048   0.4557  -0.4860   0.00    0.0
2281 394271   16.262310336  -61.527552747   -29.7759   6   8   0.2948   0.4092   1.0415  -0.2042   0.4544  -0.4849   0.00    0.0
2281 394272   16.262310348  -61.527552621   -29.7633   6   8   0.2938   0.4077   1.0390  -0.2036   0.4531  -0.4838   0.00    0.0
2281 394273   16.262310366  -61.527552510   -29.7512   6   8   0.2929   0.4062   1.0365  -0.2030   0.4518  -0.4826   0.00    0.0
2281 394274   16.262310387  -61.527552414   -29.7369   6   8   0.2919   0.4048   1.0340  -0.2024   0.4506  -0.4815   0.00    0.0
2281 394275   16.262310395  -61.527552322   -29.7203   6   8   0.2909   0.4033   1.0315  -0.2019   0.4493  -0.4804   0.00    0.0
2281 394276   16.262310402  -61.527552233   -29.7041   6   8   0.2900   0.4019   1.0290  -0.2013   0.4481  -0.4792   0.00    0.0
2281 394277   16.262310408  -61.527552138   -29.6874   6   8   0.2890   0.4005   1.0266  -0.2008   0.4469  -0.4781   0.00    0.0
2281 394278   16.262310407  -61.527552038   -29.6702   6   8   0.2881   0.3990   1.0241  -0.2002   0.4457  -0.4770   0.00    0.0
2281 394279   16.262310422  -61.527551895   -29.6594   6   8   0.2872   0.3976   1.0217  -0.1997   0.4445  -0.4758   0.00    0.0
2281 394280   16.262310434  -61.527551744   -29.6482   6   8   0.2862   0.3962   1.0193  -0.1991   0.4433  -0.4747   0.00    0.0
2281 394281   16.262310441  -61.527551589   -29.6350   6   8   0.2853   0.3949   1.0169  -0.1986   0.4422  -0.4736   0.00    0.0
2281 394282   16.262310448  -61.527551447   -29.6252   6   8   0.2844   0.3935   1.0145  -0.1981   0.4410  -0.4725   0.00    0.0
2281 394283   16.262310458  -61.527551300   -29.6164   6   8   0.2834   0.3921   1.0121  -0.1975   0.4399  -0.4714   0.00    0.0
2281 394284   16.262310466  -61.527551164   -29.6043   6   8   0.2825   0.3908   1.0097  -0.1970   0.4388  -0.4703   0.00    0.0
2281 394285   16.262310473  -61.527551017   -29.5919   6   8   0.2816   0.3894   1.0073  -0.1965   0.4376  -0.4691   0.00    0.0
2281 394286   16.262310479  -61.527550871   -29.5762   6   8   0.2807   0.3881   1.0050  -0.1960   0.4365  -0.4680   0.00    0.0
2281 394287   16.262310491  -61.527550728   -29.5638   6   8   0.2798   0.3867   1.0027  -0.1955   0.4355  -0.4669   0.00    0.0
2281 394288   16.262310516  -61.527550593   -29.5531   6   8   0.2789   0.3854   1.0003  -0.1950   0.4344  -0.4658   0.00    0.0
2281 394289   16.262310553  -61.527550467   -29.5413   6   8   0.2780   0.3841   0.9980  -0.1945   0.4333  -0.4647   0.00    0.0
2281 394290   16.262310590  -61.527550354   -29.5280   6   8   0.2771   0.3828   0.9957  -0.1940   0.4323  -0.4636   0.00    0.0
2281 394291   16.262310624  -61.527550240   -29.5161   6   8   0.2762   0.3815   0.9934  -0.1935   0.4312  -0.4625   0.00    0.0
2281 394292   16.262310664  -61.527550135   -29.5050   6   8   0.2753   0.3802   0.9911  -0.1930   0.4302  -0.4614   0.00    0.0
2281 394293   16.262310702  -61.527550031   -29.4933   6   8   0.2744   0.3789   0.9888  -0.1925   0.4292  -0.4603   0.00    0.0
2281 394294   16.262310725  -61.527549927   -29.4842   6   8   0.2735   0.3777   0.9865  -0.1920   0.4282  -0.4592   0.00    0.0
2281 394295   16.262310750  -61.527549821   -29.4747   6   8   0.2727   0.3764   0.9843  -0.1916   0.4272  -0.4581   0.00    0.0
2281 394296   16.262310769  -61.527549718   -29.4653   6   8   0.2718   0.3752   0.9820  -0.1911   0.4262  -0.4571   0.00    0.0
2281 394297   16.262310784  -61.527549625   -29.4553   6   8   0.2709   0.3739   0.9798  -0.1906   0.4252  -0.4560   0.00    0.0
2281 394298   16.262310801  -61.527549532   -29.4455   6   8   0.2700   0.3727   0.9776  -0.1902   0.4242  -0.4549   0.00    0.0
2281 394299   16.262310814  -61.527549424   -29.4381   6   8   0.2692   0.3715   0.9753  -0.1897   0.4233  -0.4538   0.00    0.0
2281 394300   16.262310835  -61.527549310   -29.4325   6   8   0.2683   0.3703   0.9731  -0.1893   0.4223  -0.4527   0.00    0.0
2281 394301   16.262310856  -61.527549178   -29.4256   6   8   0.2674   0.3690   0.9709  -0.1888   0.4214  -0.4516   0.00    0.0
2281 394302   16.262310889  -61.527549049   -29.4219   6   8   0.2666   0.3678   0.9687  -0.1884   0.4205  -0.4505   0.00    0.0
2281 394303   16.262310921  -61.527548924   -29.4159   6   8   0.2657   0.3667   0.9665  -0.1879   0.4196  -0.4495   0.00    0.0
2281 394304   16.262310944  -61.527548815   -29.4044   6   8   0.2649   0.3655   0.9643  -0.1875   0.4187  -0.4484   0.00    0.0
2281 394305   16.262310981  -61.527548696   -29.3954   6   8   0.2640   0.3643   0.9622  -0.1871   0.4178  -0.4473   0.00    0.0
2281 394306   16.262311016  -61.527548580   -29.3862   6   8   0.2632   0.3631   0.9600  -0.1866   0.4169  -0.4462   0.00    0.0
2281 394307   16.262311059  -61.527548463   -29.3763   6   8   0.2623   0.3620   0.9578  -0.1862   0.4160  -0.4452   0.00    0.0
2281 394308   16.262311107  -61.527548346   -29.3659   6   8   0.2615   0.3608   0.9557  -0.1858   0.4151  -0.4441   0.00    0.0
2281 394309   16.262311140  -61.527548267   -29.3580   6   8   0.2607   0.3597   0.9535  -0.1854   0.4143  -0.4430   0.00    0.0
2281 394310   16.262311171  -61.527548172   -29.3496   6   8   0.2598   0.3585   0.9514  -0.1849   0.4134  -0.4420   0.00    0.0
2281 394311   16.262311204  -61.527548077   -29.3417   6   8   0.2590   0.3574   0.9493  -0.1845   0.4126  -0.4409   0.00    0.0
2281 394312   16.262311243  -61.527547978   -29.3348   6   8   0.2582   0.3563   0.9472  -0.1841   0.4117  -0.4399   0.00    0.0
2281 394313   16.262311282  -61.527547885   -29.3285   6   8   0.2574   0.3552   0.9450  -0.1837   0.4109  -0.4388   0.00    0.0
2281 394314   16.262311302  -61.527547802   -29.3210   6   8   0.2565   0.3541   0.9429  -0.1833   0.4101  -0.4377   0.00    0.0
2281 394315   16.262311322  -61.527547715   -29.3152   6   7   0.2557   0.3530   0.9408  -0.1829   0.4093  -0.4367   0.00    0.0
2281 394316   16.262311343  -61.527547624   -29.3073   6   8   0.2549   0.3519   0.9388  -0.1825   0.4085  -0.4356   0.00    0.0
2281 394317   16.262311361  -61.527547531   -29.2988   6   7   0.2541   0.3508   0.9367  -0.1821   0.4077  -0.4346   0.00    0.0
2281 394318   16.262311376  -61.527547430   -29.2890   6   8   0.2533   0.3497   0.9346  -0.1818   0.4069  -0.4335   0.00    0.0
2281 394319   16.262311391  -61.527547338   -29.2793   6   8   0.2525   0.3487   0.9325  -0.1814   0.4061  -0.4325   0.00    0.0
2281 394320   16.262311408  -61.527547245   -29.2698   6   8   0.2517   0.3476   0.9305  -0.1810   0.4053  -0.4314   0.00    0.0
2281 394321   16.262311424  -61.527547148   -29.2600   6   8   0.2509   0.3465   0.9284  -0.1806   0.4046  -0.4304   0.00    0.0
2281 394322   16.262311445  -61.527547046   -29.2521   6   8   0.2501   0.3455   0.9264  -0.1802   0.4038  -0.4294   0.00    0.0
2281 394323   16.262311474  -61.527546956   -29.2472   6   8   0.2493   0.3444   0.9243  -0.1799   0.4031  -0.4283   0.00    0.0
2281 394324   16.262311493  -61.527546880   -29.2421   6   8   0.2485   0.3434   0.9223  -0.1795   0.4023  -0.4273   0.00    0.0
2281 394325   16.262311513  -61.527546803   -29.2372   6   7   0.2477   0.3424   0.9202  -0.1791   0.4016  -0.4262   0.00    0.0
2281 394326   16.262311535  -61.527546722   -29.2337   6   7   0.2469   0.3414   0.9182  -0.1788   0.4008  -0.4252   0.00    0.0
2281 394327   16.262311566  -61.527546640   -29.2331   6   8   0.2461   0.3404   0.9162  -0.1784   0.4001  -0.4242   0.00    0.0
2281 394328   16.262311594  -61.527546564   -29.2321   6   8   0.2453   0.3393   0.9142  -0.1781   0.3994  -0.4231   0.00    0.0
2281 394329   16.262311606  -61.527546511   -29.2254   6   8   0.2446   0.3383   0.9122  -0.1777   0.3987  -0.4221   0.00    0.0
2281 394330   16.262311617  -61.527546462   -29.2197   6   8   0.2438   0.3373   0.9102  -0.1774   0.3980  -0.4211   0.00    0.0
2281 394331   16.262311625  -61.527546412   -29.2121   6   8   0.2430   0.3363   0.9082  -0.1770   0.3973  -0.4201   0.00    0.0
2281 394332   16.262311641  -61.527546374   -29.2080   6   7   0.2423   0.3355   0.9064  -0.1768   0.3968  -0.4192   0.00    0.0
2281 394333   16.262311662  -61.527546329   -29.2040   6   7   0.2416   0.3346   0.9046  -0.1765   0.3963  -0.4182   0.00    0.0
2281 394334   16.262311674  -61.527546257   -29.1974   6   8   0.2408   0.3336   0.9027  -0.1762   0.3956  -0.4172   0.00    0.0
2281 394335   16.262311688  -61.527546185   -29.1916   6   8   0.2400   0.3327   0.9007  -0.1759   0.3949  -0.4162   0.00    0.0
2281 394336   16.262311700  -61.527546111   -29.1847   6   8   0.2393   0.3317   0.8987  -0.1755   0.3943  -0.4152   0.00    0.0
2281 394337   16.262311711  -61.527546034   -29.1773   6   8   0.2385   0.3307   0.8968  -0.1752   0.3936  -0.4142   0.00    0.0
2281 394338   16.262311724  -61.527545953   -29.1701   6   8   0.2377   0.3298   0.8948  -0.1749   0.3929  -0.4132   0.00    0.0
2281 394339   16.262311731  -61.527545886   -29.1610   6   8   0.2370   0.3288   0.8928  -0.1745   0.3922  -0.4122   0.00    0.0
2281 394340   16.262311745  -61.527545835   -29.1560   6   7   0.2363   0.3280   0.8911  -0.1743   0.3918  -0.4113   0.00    0.0
2281 394341   16.262311757  -61.527545754   -29.1489   6   8   0.2355   0.3271   0.8892  -0.1740   0.3911  -0.4103   0.00    0.0
2281 394342   16.262311771  -61.527545690   -29.1451   6   8   0.2348   0.3261   0.8872  -0.1736   0.3905  -0.4092   0.00    0.0
2281 394343   16.262311788  -61.527545629   -29.1421   6   8   0.2341   0.3252   0.8853  -0.1733   0.3898  -0.4082   0.00    0.0
2281 394344   16.262311802  -61.527545570   -29.1391   6   8   0.2333   0.3243   0.8834  -0.1730   0.3892  -0.4072   0.00    0.0
2281 394345   16.262311802  -61.527545510   -29.1314   6   8   0.2326   0.3234   0.8814  -0.1727   0.3885  -0.4062   0.00    0.0
2281 394346   16.262311793  -61.527545451   -29.1218   6   8   0.2318   0.3225   0.8795  -0.1724   0.3879  -0.4053   0.00    0.0
2281 394347   16.262311788  -61.527545404   -29.1165   6   7   0.2312   0.3217   0.8778  -0.1722   0.3875  -0.4044   0.00    0.0
2281 394348   16.262311786  -61.527545366   -29.1123   6   7   0.2305   0.3209   0.8761  -0.1719   0.3870  -0.4035   0.00    0.0
2281 394349   16.262311780  -61.527545315   -29.1024   6   8   0.2297   0.3200   0.8742  -0.1716   0.3864  -0.4025   0.00    0.0
2281 394350   16.262311768  -61.527545268   -29.0899   6   8   0.2290   0.3191   0.8723  -0.1713   0.3858  -0.4015   0.00    0.0
2281 394351   16.262311759  -61.527545215   -29.0778   6   8   0.2283   0.3182   0.8704  -0.1710   0.3852  -0.4005   0.00    0.0
2281 394352   16.262311750  -61.527545172   -29.0663   6   8   0.2276   0.3173   0.8685  -0.1707   0.3845  -0.3995   0.00    0.0
2281 394353   16.262311741  -61.527545125   -29.0555   6   8   0.2269   0.3164   0.8666  -0.1704   0.3839  -0.3985   0.00    0.0
2281 394354   16.262311741  -61.527545096   -29.0487   6   7   0.2262   0.3157   0.8649  -0.1702   0.3835  -0.3977   0.00    0.0
2281 394355   16.262311748  -61.527545061   -29.0448   6   7   0.2255   0.3149   0.8632  -0.1700   0.3831  -0.3968   0.00    0.0
2281 394356   16.262311746  -61.527545015   -29.0376   6   8   0.2248   0.3140   0.8613  -0.1697   0.3825  -0.3958   0.00    0.0
2281 394357   16.262311748  -61.527544988   -29.0345   6   7   0.2241   0.3133   0.8596  -0.1695   0.3821  -0.3949   0.00    0.0
2281 394358   16.262311752  -61.527544966   -29.0326   6   7   0.2235   0.3125   0.8580  -0.1693   0.3816  -0.3940   0.00    0.0
2281 394359   16.262311756  -61.527544957   -29.0265   6   7   0.2228   0.3118   0.8563  -0.1691   0.3812  -0.3931   0.00    0.0
2281 394360   16.262311757  -61.527544953   -29.0227   6   7   0.2222   0.3110   0.8546  -0.1689   0.3808  -0.3923   0.00    0.0
2281 394361   16.262311761  -61.527544956   -29.0203   6   7   0.2215   0.3103   0.8529  -0.1687   0.3804  -0.3914   0.00    0.0
2281 394362   16.262311751  -61.527544939   -29.0121   6   8   0.2210   0.3095   0.8518  -0.1684   0.3799  -0.3908   0.00    0.0
2281 394363   16.262311745  -61.527544932   -29.0052   6   8   0.2205   0.3086   0.8506  -0.1682   0.3794  -0.3903   0.00    0.0
2281 394364   16.262311738  -61.527544909   -28.9988   6   8   0.2200   0.3078   0.8495  -0.1679   0.3789  -0.3898   0.00    0.0
2281 394365   16.262311733  -61.527544884   -28.9919   6   8   0.2196   0.3070   0.8484  -0.1677   0.3784  -0.3892   0.00    0.0
2281 394366   16.262311737  -61.527544839   -28.9858   6   8   0.2191   0.3062   0.8472  -0.1675   0.3779  -0.3887   0.00    0.0
2281 394367   16.262311741  -61.527544793   -28.9790   6   8   0.2186   0.3054   0.8461  -0.1672   0.3774  -0.3882   0.00    0.0
2281 394368   16.262311743  -61.527544740   -28.9730   6   8   0.2181   0.3046   0.8450  -0.1670   0.3769  -0.3876   0.00    0.0
2281 394369   16.262311754  -61.527544710   -28.9693   6   7   0.2177   0.3039   0.8441  -0.1669   0.3766  -0.3872   0.00    0.0
2281 394370   16.262311767  -61.527544675   -28.9656   6   7   0.2173   0.3032   0.8431  -0.1667   0.3763  -0.3868   0.00    0.0
2281 394371   16.262311773  -61.527544643   -28.9625   6   7   0.2168   0.3025   0.8422  -0.1666   0.3759  -0.3863   0.00    0.0
2281 394372   16.262311780  -61.527544604   -28.9594   6   7   0.2164   0.3018   0.8413  -0.1664   0.3756  -0.3859   0.00    0.0
2281 394373   16.262311792  -61.527544554   -28.9579   6   6   0.2160   0.3011   0.8404  -0.1663   0.3753  -0.3855   0.00    0.0
2281 394374   16.262311807  -61.527544519   -28.9563   6   6   0.2156   0.3004   0.8395  -0.1662   0.3750  -0.3851   0.00    0.0
2281 394375   16.262311822  -61.527544483   -28.9556   6   6   0.2152   0.2997   0.8386  -0.1660   0.3747  -0.3847   0.00    0.0
2281 394376   16.262311831  -61.527544428   -28.9515   6   7   0.2148   0.2989   0.8376  -0.1658   0.3742  -0.3842   0.00    0.0
2281 394377   16.262311841  -61.527544368   -28.9476   6   7   0.2143   0.2982   0.8365  -0.1656   0.3737  -0.3837   0.00    0.0
2281 394378   16.262311854  -61.527544287   -28.9447   6   7   0.2139   0.2974   0.8355  -0.1653   0.3733  -0.3832   0.00    0.0
2281 394379   16.262311873  -61.527544230   -28.9431   6   7   0.2135   0.2968   0.8346  -0.1652   0.3730  -0.3828   0.00    0.0
2281 394380   16.262311894  -61.527544168   -28.9421   6   6   0.2131   0.2961   0.8338  -0.1651   0.3727  -0.3824   0.00    0.0
2281 394381   16.262311905  -61.527544103   -28.9391   6   7   0.2127   0.2955   0.8329  -0.1650   0.3724  -0.3820   0.00    0.0
2281 394382   16.262311921  -61.527544042   -28.9372   6   7   0.2123   0.2949   0.8320  -0.1648   0.3721  -0.3816   0.00    0.0
2281 394383   16.262311937  -61.527543979   -28.9359   6   7   0.2119   0.2942   0.8311  -0.1647   0.3718  -0.3812   0.00    0.0
2281 394384   16.262311949  -61.527543949   -28.9328   6   7   0.2115   0.2936   0.8303  -0.1646   0.3715  -0.3808   0.00    0.0
2281 394385   16.262311959  -61.527543914   -28.9291   6   7   0.2111   0.2930   0.8294  -0.1645   0.3712  -0.3804   0.00    0.0
2281 394386   16.262311965  -61.527543858   -28.9234   6   8   0.2107   0.2923   0.8284  -0.1643   0.3707  -0.3799   0.00    0.0
2281 394387   16.262311975  -61.527543809   -28.9216   6   7   0.2103   0.2917   0.8275  -0.1642   0.3704  -0.3795   0.00    0.0
2281 394388   16.262311976  -61.527543753   -28.9161   6   8   0.2099   0.2910   0.8265  -0.1640   0.3700  -0.3790   0.00    0.0
2281 394389   16.262311983  -61.527543722   -28.9126   6   7   0.2095   0.2904   0.8257  -0.1638   0.3697  -0.3786   0.00    0.0
2281 394390   16.262311985  -61.527543698   -28.9094   6   7   0.2091   0.2897   0.8248  -0.1637   0.3694  -0.3782   0.00    0.0
2281 394391   16.262311986  -61.527543676   -28.9063   6   7   0.2087   0.2891   0.8240  -0.1636   0.3691  -0.3778   0.00    0.0
2281 394392   16.262311990  -61.527543653   -28.9046   6   7   0.2083   0.2885   0.8231  -0.1635   0.3689  -0.3774   0.00    0.0
2281 394393   16.262311994  -61.527543628   -28.9037   6   7   0.2080   0.2879   0.8223  -0.1634   0.3686  -0.3770   0.00    0.0
2281 394394   16.262312006  -61.527543592   -28.9019   6   7   0.2076   0.2873   0.8215  -0.1633   0.3683  -0.3767   0.00    0.0
2281 394395   16.262312011  -61.527543553   -28.8991   6   7   0.2072   0.2867   0.8206  -0.1631   0.3680  -0.3763   0.00    0.0
2281 394396   16.262312016  -61.527543513   -28.8974   6   7   0.2068   0.2861   0.8198  -0.1630   0.3677  -0.3759   0.00    0.0
2281 394397   16.262312020  -61.527543472   -28.8957   6   7   0.2065   0.2855   0.8190  -0.1629   0.3675  -0.3755   0.00    0.0
2281 394398   16.262312020  -61.527543430   -28.8939   6   7   0.2061   0.2850   0.8182  -0.1628   0.3672  -0.3751   0.00    0.0
2281 394399   16.262312023  -61.527543401   -28.8909   6   7   0.2058   0.2844   0.8174  -0.1627   0.3669  -0.3747   0.00    0.0
2281 394400   16.262312025  -61.527543371   -28.8881   6   7   0.2054   0.2838   0.8166  -0.1626   0.3666  -0.3744   0.00    0.0
2281 394401   16.262312028  -61.527543334   -28.8861   6   7   0.2050   0.2832   0.8157  -0.1625   0.3664  -0.3740   0.00    0.0
2281 394402   16.262312032  -61.527543294   -28.8840   6   7   0.2047   0.2826   0.8149  -0.1624   0.3661  -0.3736   0.00    0.0
