%  GPST Time  latitude(deg) longitude(deg)  height(m)   Q  ns   sdn(m)   sde(m)   sdu(m)  sdne(m)  sdeu(m)  sdun(m) age(s)  ratio
2261 140650   -7.916282857  -14.332656015    43.9382   6   6   9.8838  12.7897  21.1988  -6.0608   8.4445   5.3340   0.00    0.0
2261 140651   -7.916281454  -14.332661130    42.9135   6   9   6.3280   7.3631  14.2353  -1.9529   2.0567   5.6770   0.00    0.0
2261 140652   -7.916281657  -14.332662627    42.9673   6   9   5.1071   5.8574  11.6337  -1.2412   0.6665   4.8084   0.00    0.0
2261 140653   -7.916280828  -14.332663395    43.4382   6   9   4.3997   5.0168  10.0807  -0.9261  -0.6604   4.2226   0.00    0.0
2261 140654   -7.916279836  -14.332664443    43.6626   6   9   3.9215   4.4597   9.0148  -0.7477  -0.8331   3.8002   0.00    0.0
2261 140655   -7.916277762  -14.332664042    44.1055   6  13   3.4904   3.9163   8.0606  -0.5540  -0.7014   3.3491   0.00    0.0
2261 140656   -7.916276370  -14.332663935    44.2599   6  13   3.1795   3.5399   7.3602  -0.4243  -0.6301   3.0294   0.00    0.0
2261 140657   -7.916275464  -14.332663567    44.3582   6  13   2.9374   3.2546   6.8108  -0.3321  -0.5793   2.7818   0.00    0.0
2261 140658   -7.916274776  -14.332663525    44.4919   6  13   2.7416   3.0286   6.3639  -0.2626  -0.5414   2.5820   0.00    0.0
2261 140659   -7.916274174  -14.332664109    44.5490   6  13   2.5787   2.8439   5.9905  -0.2079  -0.5122   2.4158   0.00    0.0
2261 140660   -7.916274151  -14.332664297    44.5660   6  13   2.4402   2.6891   5.6717  -0.1631  -0.4891   2.2742   0.00    0.0
2261 140661   -7.916274159  -14.332664037    44.4525   6  13   2.3203   2.5571   5.3950  -0.1250  -0.4706   2.1513   0.00    0.0
2261 140662   -7.916274336  -14.332664111    44.4000   6  13   2.2151   2.4426   5.1514  -0.0912  -0.4555   2.0429   0.00    0.0
2261 140663   -7.916274415  -14.332664078    44.3507   6  13   2.1215   2.3420   4.9344  -0.0584  -0.4433   1.9462   0.00    0.0
2261 140664   -7.916274583  -14.332664059    44.2779   6  13   2.0376   2.2528   4.7392  -0.0136  -0.4332   1.8588   0.00    0.0
2261 140665   -7.916274798  -14.332664161    44.1882   6  13   1.9617   2.1730   4.5622   0.0434  -0.4249   1.7793   0.00    0.0
2261 140666   -7.916274770  -14.332664266    44.1387   6  13   1.8924   2.1010   4.4005   0.0560  -0.4180   1.7062   0.00    0.0
2261 140667   -7.916274761  -14.332664214    44.1217   6  13   1.8288   2.0355   4.2518   0.0616  -0.4123   1.6387   0.00    0.0
2261 140668   -7.916274891  -14.332664228    44.0404   6  13   1.7701   1.9757   4.1144   0.0634  -0.4075   1.5760   0.00    0.0
2261 140669   -7.916275075  -14.332663966    43.9999   6  13   1.7156   1.9208   3.9867   0.0628  -0.4036   1.5173   0.00    0.0
2261 140670   -7.916275314  -14.332663643    43.9185   6  13   1.6649   1.8700   3.8675   0.0603  -0.4003   1.4623   0.00    0.0
2261 140671   -7.916275401  -14.332663553    43.8535   6  13   1.6174   1.8230   3.7559   0.0563  -0.3975   1.4104   0.00    0.0
2261 140672   -7.916275586  -14.332663414    43.7541   6  13   1.5728   1.7793   3.6510   0.0509  -0.3953   1.3613   0.00    0.0
2261 140673   -7.916275603  -14.332663409    43.7357   6  13   1.5308   1.7384   3.5521   0.0440  -0.3934   1.3148   0.00    0.0
2261 140674   -7.916275701  -14.332663391    43.6916   6  13   1.4911   1.7002   3.4587   0.0350  -0.3918   1.2705   0.00    0.0
2261 140675   -7.916275932  -14.332663282    43.5953   6  13   1.4535   1.6642   3.3701   0.0220  -0.3905   1.2283   0.00    0.0
2261 140676   -7.916276060  -14.332663191    43.4985   6  13   1.4178   1.6304   3.2859  -0.0165  -0.3894   1.1880   0.00    0.0
2261 140677   -7.916276125  -14.332663076    43.4028   6  13   1.3839   1.5984   3.2059  -0.0321  -0.3885   1.1494   0.00    0.0
2261 140678   -7.916276464  -14.332662858    43.3193   6  13   1.3515   1.5682   3.1295  -0.0423  -0.3877   1.1124   0.00    0.0
2261 140679   -7.916276881  -14.332662783    43.2560   6  12   1.3218   1.5438   3.0575   0.0640  -0.3979   1.0748   0.00    0.0
2261 140680   -7.916277145  -14.332662727    43.1599   6  13   1.2922   1.5163   2.9877   0.0537  -0.3966   1.0407   0.00    0.0
2261 140681   -7.916277512  -14.332662764    43.0765   6  13   1.2638   1.4902   2.9208   0.0417  -0.3955   1.0078   0.00    0.0
2261 140682   -7.916277854  -14.332662704    43.0034   6  13   1.2366   1.4652   2.8567   0.0258  -0.3944   0.9761   0.00    0.0
2261 140683   -7.916278089  -14.332662641    42.9362   6  13   1.2105   1.4414   2.7952  -0.0185  -0.3935   0.9455   0.00    0.0
2261 140684   -7.916278241  -14.332662625    42.8459   6  13   1.1853   1.4187   2.7360  -0.0359  -0.3926   0.9160   0.00    0.0
2261 140685   -7.916278487  -14.332662571    42.8025   6  13   1.1611   1.3969   2.6791  -0.0467  -0.3917   0.8874   0.00    0.0
2261 140686   -7.916278726  -14.332662636    42.7376   6  13   1.1378   1.3760   2.6243  -0.0549  -0.3909   0.8597   0.00    0.0
2261 140687   -7.916278794  -14.332662737    42.6772   6  13   1.1153   1.3559   2.5714  -0.0616  -0.3901   0.8330   0.00    0.0
2261 140688   -7.916278907  -14.332662785    42.5910   6  13   1.0936   1.3366   2.5205  -0.0672  -0.3893   0.8070   0.00    0.0
2261 140689   -7.916278968  -14.332662870    42.5321   6  12   1.0734   1.3208   2.4720  -0.0427  -0.3948   0.7804   0.00    0.0
2261 140690   -7.916279060  -14.332663030    42.4928   6  12   1.0538   1.3054   2.4251   0.0237  -0.3996   0.7546   0.00    0.0
2261 140691   -7.916279264  -14.332663270    42.4172   6  12   1.0348   1.2906   2.3798   0.0518  -0.4039   0.7296   0.00    0.0
2261 140692   -7.916279451  -14.332663448    42.3651   6  13   1.0157   1.2736   2.3353   0.0400  -0.4023   0.7067   0.00    0.0
2261 140693   -7.916279660  -14.332663567    42.2837   6  13   0.9973   1.2572   2.2923   0.0246  -0.4008   0.6845   0.00    0.0
2261 140694   -7.916279799  -14.332663777    42.2120   6  12   0.9800   1.2438   2.2512   0.0480  -0.4043   0.6615   0.00    0.0
2261 140695   -7.916280068  -14.332663990    42.1610   6  12   0.9632   1.2307   2.2115   0.0617  -0.4073   0.6392   0.00    0.0
2261 140696   -7.916280176  -14.332664152    42.0813   6  12   0.9464   1.2169   2.1733   0.0548  -0.4017   0.6187   0.00    0.0
2261 140697   -7.916280327  -14.332664334    42.0076   6  12   0.9301   1.2034   2.1362   0.0472  -0.3965   0.5987   0.00    0.0
2261 140698   -7.916280546  -14.332664365    41.9344   6  11   0.9149   1.1916   2.1006  -0.0170  -0.3887   0.5779   0.00    0.0
2261 140699   -7.916280789  -14.332664392    41.8620   6  11   0.9002   1.1800   2.0661  -0.0512  -0.3814   0.5576   0.00    0.0
2261 140700   -7.916280997  -14.332664446    41.7838   6  12   0.8852   1.1676   2.0320  -0.0558  -0.3775   0.5391   0.00    0.0
2261 140701   -7.916281254  -14.332664608    41.7309   6  11   0.8711   1.1573   1.9994  -0.0418  -0.3778   0.5198   0.00    0.0
2261 140702   -7.916281403  -14.332664721    41.6798   6  11   0.8573   1.1473   1.9676  -0.0228  -0.3782   0.5010   0.00    0.0
2261 140703   -7.916281508  -14.332664779    41.6424   6  10   0.8445   1.1385   1.9372  -0.0290  -0.3760   0.4813   0.00    0.0
2261 140704   -7.916281632  -14.332664806    41.5800   6  10   0.8319   1.1299   1.9075  -0.0341  -0.3740   0.4621   0.00    0.0
2261 140705   -7.916281734  -14.332664856    41.5328   6  10   0.8196   1.1213   1.8786  -0.0385  -0.3722   0.4433   0.00    0.0
2261 140706   -7.916281843  -14.332664970    41.4906   6  11   0.8075   1.1120   1.8507  -0.0265  -0.3723   0.4246   0.00    0.0
2261 140707   -7.916281990  -14.332664947    41.4302   6  12   0.7953   1.1011   1.8231  -0.0395  -0.3689   0.4075   0.00    0.0
2261 140708   -7.916282108  -14.332664908    41.3990   6  12   0.7834   1.0905   1.7962  -0.0478  -0.3658   0.3907   0.00    0.0
2261 140709   -7.916282181  -14.332664899    41.3775   6  11   0.7724   1.0810   1.7707  -0.0647  -0.3658   0.3760   0.00    0.0
2261 140710   -7.916282275  -14.332664852    41.3457   6  11   0.7615   1.0718   1.7455  -0.0764  -0.3609   0.3584   0.00    0.0
2261 140711   -7.916282343  -14.332664792    41.3274   6  11   0.7509   1.0627   1.7209  -0.0860  -0.3563   0.3410   0.00    0.0
2261 140712   -7.916282271  -14.332664819    41.3216   6  11   0.7404   1.0544   1.6970  -0.0815  -0.3567   0.3238   0.00    0.0
2261 140713   -7.916282176  -14.332664743    41.3137   6  10   0.7305   1.0471   1.6740  -0.0833  -0.3553   0.3054   0.00    0.0
2261 140714   -7.916282225  -14.332664706    41.3106   6  11   0.7205   1.0390   1.6512  -0.0792  -0.3557   0.2884   0.00    0.0
2261 140715   -7.916282358  -14.332664755    41.2815   6  11   0.7107   1.0311   1.6291  -0.0752  -0.3561   0.2714   0.00    0.0
2261 140716   -7.916282482  -14.332664787    41.2767   6  11   0.7011   1.0233   1.6074  -0.0713  -0.3564   0.2543   0.00    0.0
2261 140717   -7.916282636  -14.332664846    41.2719   6  11   0.6917   1.0156   1.5863  -0.0676  -0.3566   0.2371   0.00    0.0
2261 140718   -7.916282818  -14.332664923    41.2701   6  10   0.6829   1.0087   1.5660  -0.0700  -0.3553   0.2183   0.00    0.0
2261 140719   -7.916282947  -14.332664990    41.2635   6  10   0.6743   1.0014   1.5462  -0.0629  -0.3546   0.2024   0.00    0.0
2261 140720   -7.916282962  -14.332665009    41.2314   6  10   0.6658   0.9948   1.5268  -0.0656  -0.3533   0.1826   0.00    0.0
2261 140721   -7.916283009  -14.332665079    41.2022   6  10   0.6575   0.9881   1.5079  -0.0680  -0.3521   0.1617   0.00    0.0
