%  GPST Time  latitude(deg) longitude(deg)  height(m)   Q  ns   sdn(m)   sde(m)   sdu(m)  sdne(m)  sdeu(m)  sdun(m) age(s)  ratio
2280 467441   31.025019620  121.439446121    40.8292   6   6  11.3948   9.6580  22.5707   3.1976   5.2143  -9.4801   0.00    0.0
2280 467442   31.025018994  121.439445353    40.4742   6   6   8.2564   6.9426  16.6771   2.3183   3.8257  -7.0219   0.00    0.0
2280 467443   31.025018854  121.439445002    40.3261   6   6   6.7960   5.7002  13.8223   1.9088   3.1613  -5.8241   0.00    0.0
2280 467444   31.025018834  121.439444837    40.2650   6   6   5.9071   4.9499  12.0545   1.6601   2.7512  -5.0805   0.00    0.0
2280 467445   31.025018828  121.439444661    40.2239   6   6   5.2927   4.4342  10.8200   1.4885   2.4648  -4.5605   0.00    0.0
2280 467446   31.025020620  121.439445081    39.9202   6   8   4.5450   3.9148   9.6120   0.9040   2.0699  -3.8983   0.00    0.0
2280 467447   31.025021567  121.439445238    39.7168   6   8   4.0645   3.5596   8.7763   0.4767   1.8312  -3.4833   0.00    0.0
2280 467448   31.025022241  121.439445309    39.5625   6   8   3.7119   3.2899   8.1219  -0.2275   1.6496  -3.1730   0.00    0.0
2280 467449   31.025022741  121.439445363    39.4595   6   8   3.4378   3.0751   7.5899  -0.4404   1.5065  -2.9296   0.00    0.0
2280 467450   31.025023067  121.439445403    39.3692   6   8   3.2162   2.8983   7.1451  -0.5182   1.3903  -2.7320   0.00    0.0
2280 467451   31.025023385  121.439445573    39.3850   6   9   3.0254   2.7426   6.7277  -0.5869   1.2405  -2.5944   0.00    0.0
2280 467452   31.025023586  121.439445687    39.3921   6   9   2.8654   2.6112   6.3767  -0.6153   1.1285  -2.4686   0.00    0.0
2280 467453   31.025023748  121.439445785    39.3913   6   9   2.7276   2.4973   6.0709  -0.6275   1.0361  -2.3573   0.00    0.0
2280 467454   31.025023942  121.439445867    39.4083   6   9   2.6071   2.3973   5.8006  -0.6306   0.9583  -2.2579   0.00    0.0
2280 467455   31.025024148  121.439445935    39.4000   6   9   2.5004   2.3084   5.5592  -0.6284   0.8919  -2.1684   0.00    0.0
2280 467456   31.025024183  121.439446037    39.4382   6   9   2.4050   2.2286   5.3413  -0.6229   0.8345  -2.0872   0.00    0.0
2280 467457   31.025024236  121.439446158    39.4833   6   9   2.3189   2.1565   5.1430  -0.6153   0.7843  -2.0131   0.00    0.0
2280 467458   31.025024286  121.439446245    39.5324   6   9   2.2406   2.0909   4.9613  -0.6065   0.7401  -1.9450   0.00    0.0
2280 467459   31.025024285  121.439446337    39.5703   6   9   2.1689   2.0307   4.7938  -0.5970   0.7008  -1.8822   0.00    0.0
2280 467460   31.025024305  121.439446421    39.5892   6   9   2.1029   1.9754   4.6385  -0.5870   0.6656  -1.8240   0.00    0.0
2280 467461   31.025024390  121.439446482    39.5538   6   9   2.0419   1.9241   4.4939  -0.5768   0.6340  -1.7697   0.00    0.0
2280 467462   31.025024389  121.439446544    39.5250   6   9   1.9851   1.8766   4.3586  -0.5665   0.6054  -1.7190   0.00    0.0
2280 467463   31.025024392  121.439446614    39.4979   6   9   1.9321   1.8322   4.2315  -0.5562   0.5795  -1.6714   0.00    0.0
2280 467464   31.025024363  121.439446650    39.4612   6   9   1.8825   1.7906   4.1118  -0.5461   0.5559  -1.6266   0.00    0.0
2280 467465   31.025024372  121.439446707    39.4058   6   9   1.8358   1.7517   3.9987  -0.5361   0.5343  -1.5843   0.00    0.0
2280 467466   31.025024318  121.439446788    39.4017   6   9   1.7917   1.7149   3.8915  -0.5262   0.5145  -1.5443   0.00    0.0
2280 467467   31.025024302  121.439446804    39.3897   6   9   1.7501   1.6803   3.7898  -0.5165   0.4963  -1.5064   0.00    0.0
2280 467468   31.025024257  121.439446812    39.3807   6   9   1.7106   1.6475   3.6929  -0.5071   0.4794  -1.4703   0.00    0.0
2280 467469   31.025024260  121.439446825    39.3835   6   9   1.6731   1.6164   3.6006  -0.4978   0.4639  -1.4360   0.00    0.0
2280 467470   31.025024248  121.439446785    39.3785   6   9   1.6374   1.5869   3.5124  -0.4887   0.4495  -1.4032   0.00    0.0
2280 467471   31.025024264  121.439446754    39.3628   6   9   1.6033   1.5588   3.4280  -0.4799   0.4361  -1.3719   0.00    0.0
2280 467472   31.025024284  121.439446705    39.3503   6   9   1.5707   1.5319   3.3471  -0.4712   0.4237  -1.3419   0.00    0.0
