%  GPST Time  latitude(deg) longitude(deg)  height(m)   Q  ns   sdn(m)   sde(m)   sdu(m)  sdne(m)  sdeu(m)  sdun(m) age(s)  ratio
2280 467317   31.025024563  121.439445894    39.9213   6   9   8.8483   8.4247  19.3680  -2.9756   0.8400  -7.7489   0.00    0.0
2280 467318   31.025024431  121.439445824    39.4684   6   9   6.4175   6.0616  14.3571  -2.1970   1.0746  -5.7877   0.00    0.0
2280 467319   31.025024470  121.439445769    39.2992   6   9   5.2850   4.9784  11.9143  -1.8205   0.9924  -4.8155   0.00    0.0
2280 467320   31.025024483  121.439445795    39.2046   6   9   4.5955   4.3238  10.3968  -1.5879   0.9093  -4.2081   0.00    0.0
2280 467321   31.025024431  121.439445797    39.1679   6   9   4.1190   3.8737   9.3349  -1.4257   0.8408  -3.7819   0.00    0.0
2280 467322   31.025024441  121.439445756    39.1150   6   9   3.7641   3.5397   8.5365  -1.3042   0.7849  -3.4611   0.00    0.0
2280 467323   31.025024470  121.439445682    39.0903   6   9   3.4863   3.2792   7.9065  -1.2087   0.7388  -3.2079   0.00    0.0
2280 467324   31.025024395  121.439445653    39.0948   6   9   3.2608   3.0685   7.3918  -1.1309   0.7001  -3.0010   0.00    0.0
2280 467325   31.025024366  121.439445586    39.1106   6   9   3.0730   2.8935   6.9599  -1.0659   0.6673  -2.8277   0.00    0.0
2280 467326   31.025024446  121.439445532    39.0689   6   9   2.9132   2.7452   6.5900  -1.0105   0.6389  -2.6793   0.00    0.0
2280 467327   31.025024479  121.439445487    39.0434   6   9   2.7749   2.6172   6.2679  -0.9623   0.6142  -2.5503   0.00    0.0
2280 467328   31.025024455  121.439445468    39.0316   6   9   2.6536   2.5054   5.9835  -0.9200   0.5925  -2.4366   0.00    0.0
2280 467329   31.025024480  121.439445450    39.0113   6   9   2.5460   2.4065   5.7296  -0.8824   0.5732  -2.3352   0.00    0.0
2280 467330   31.025024501  121.439445436    38.9774   6   9   2.4495   2.3183   5.5006  -0.8485   0.5559  -2.2440   0.00    0.0
2280 467331   31.025024570  121.439445406    38.9238   6   9   2.3624   2.2389   5.2924  -0.8179   0.5403  -2.1612   0.00    0.0
2280 467332   31.025024626  121.439445338    38.8537   6   9   2.2830   2.1668   5.1017  -0.7899   0.5262  -2.0855   0.00    0.0
2280 467333   31.025024670  121.439445256    38.8319   6   9   2.2103   2.1011   4.9260  -0.7642   0.5133  -2.0158   0.00    0.0
2280 467334   31.025024738  121.439445166    38.7715   6   9   2.1434   2.0408   4.7632  -0.7405   0.5015  -1.9514   0.00    0.0
2280 467335   31.025024789  121.439445090    38.7133   6   9   2.0813   1.9853   4.6117  -0.7184   0.4906  -1.8916   0.00    0.0
2280 467336   31.025024830  121.439445055    38.6444   6   9   2.0237   1.9338   4.4700  -0.6978   0.4806  -1.8358   0.00    0.0
2280 467337   31.025024777  121.439445109    38.5763   6   9   1.9698   1.8859   4.3370  -0.6786   0.4712  -1.7835   0.00    0.0
2280 467338   31.025024727  121.439445079    38.5291   6   9   1.9193   1.8412   4.2119  -0.6604   0.4624  -1.7343   0.00    0.0
2280 467339   31.025024668  121.439445123    38.4908   6   9   1.8718   1.7994   4.0936  -0.6433   0.4542  -1.6879   0.00    0.0
2280 467340   31.025024561  121.439445215    38.4469   6   9   1.8270   1.7601   3.9817  -0.6271   0.4465  -1.6441   0.00    0.0
2280 467341   31.025024545  121.439445303    38.4313   6   9   1.7846   1.7231   3.8754  -0.6118   0.4392  -1.6025   0.00    0.0
2280 467342   31.025024630  121.439445339    38.4092   6   9   1.7444   1.6882   3.7744  -0.5972   0.4322  -1.5630   0.00    0.0
2280 467343   31.025024632  121.439445382    38.4120   6   9   1.7062   1.6552   3.6781  -0.5832   0.4256  -1.5254   0.00    0.0
2280 467344   31.025024656  121.439445415    38.3840   6   9   1.6698   1.6238   3.5861  -0.5699   0.4193  -1.4896   0.00    0.0
2280 467345   31.025024699  121.439445431    38.3753   6   9   1.6351   1.5940   3.4982  -0.5571   0.4133  -1.4553   0.00    0.0
2280 467346   31.025024678  121.439445417    38.3558   6   9   1.6019   1.5656   3.4141  -0.5449   0.4075  -1.4226   0.00    0.0
2280 467347   31.025024678  121.439445440    38.3057   6   9   1.5700   1.5386   3.3334  -0.5331   0.4019  -1.3912   0.00    0.0
2280 467348   31.025024624  121.439445460    38.2693   6   9   1.5395   1.5127   3.2559  -0.5218   0.3965  -1.3610   0.00    0.0
2280 467349   31.025024584  121.439445533    38.2523   6   9   1.5102   1.4880   3.1815  -0.5108   0.3913  -1.3321   0.00    0.0
2280 467350   31.025024570  121.439445568    38.2220   6   9   1.4820   1.4642   3.1099  -0.5003   0.3863  -1.3043   0.00    0.0
2280 467351   31.025024587  121.439445607    38.2188   6   9   1.4548   1.4415   3.0410  -0.4901   0.3814  -1.2775   0.00    0.0
2280 467352   31.025024613  121.439445692    38.2320   6   9   1.4286   1.4196   2.9746  -0.4802   0.3766  -1.2516   0.00    0.0
2280 467353   31.025024700  121.439445729    38.2272   6   9   1.4033   1.3986   2.9106  -0.4706   0.3719  -1.2267   0.00    0.0
2280 467354   31.025024762  121.439445814    38.2428   6   9   1.3788   1.3783   2.8489  -0.4613   0.3673  -1.2027   0.00    0.0
2280 467355   31.025024903  121.439445875    38.2328   6   9   1.3552   1.3587   2.7893  -0.4523   0.3628  -1.1795   0.00    0.0
2280 467356   31.025024985  121.439445876    38.2065   6   9   1.3323   1.3399   2.7317  -0.4435   0.3584  -1.1571   0.00    0.0
2280 467357   31.025025023  121.439445897    38.1902   6   9   1.3101   1.3217   2.6760  -0.4350   0.3541  -1.1353   0.00    0.0
2280 467358   31.025025041  121.439445931    38.1820   6   9   1.2885   1.3040   2.6222  -0.4267   0.3498  -1.1143   0.00    0.0
2280 467359   31.025025007  121.439445971    38.1767   6   9   1.2676   1.2870   2.5702  -0.4186   0.3456  -1.0940   0.00    0.0
2280 467360   31.025025093  121.439446015    38.1342   6   9   1.2473   1.2704   2.5198  -0.4107   0.3415  -1.0743   0.00    0.0
2280 467361   31.025025108  121.439446103    38.1035   6   9   1.2276   1.2544   2.4710  -0.4030   0.3374  -1.0552   0.00    0.0
2280 467362   31.025025196  121.439446121    38.0765   6   9   1.2084   1.2388   2.4238  -0.3955   0.3334  -1.0366   0.00    0.0
2280 467363   31.025025200  121.439446166    38.0542   6   9   1.1898   1.2237   2.3780  -0.3882   0.3294  -1.0186   0.00    0.0
2280 467364   31.025025186  121.439446196    38.0144   6   9   1.1716   1.2091   2.3336  -0.3810   0.3254  -1.0012   0.00    0.0
2280 467365   31.025025158  121.439446247    37.9674   6   9   1.1539   1.1948   2.2906  -0.3740   0.3215  -0.9842   0.00    0.0
2280 467366   31.025025104  121.439446308    37.9332   6   9   1.1366   1.1809   2.2488  -0.3671   0.3176  -0.9678   0.00    0.0
2280 467367   31.025025050  121.439446381    37.9030   6   9   1.1198   1.1674   2.2083  -0.3604   0.3137  -0.9517   0.00    0.0
2280 467368   31.025025039  121.439446420    37.8531   6   9   1.1034   1.1542   2.1690  -0.3539   0.3099  -0.9362   0.00    0.0
2280 467369   31.025025051  121.439446458    37.8127   6   9   1.0874   1.1414   2.1308  -0.3474   0.3061  -0.9210   0.00    0.0
2280 467370   31.025025016  121.439446513    37.7720   6   9   1.0718   1.1289   2.0938  -0.3411   0.3023  -0.9063   0.00    0.0
2280 467371   31.025025072  121.439446474    37.7487   6   9   1.0565   1.1166   2.0578  -0.3349   0.2986  -0.8920   0.00    0.0
2280 467372   31.025025161  121.439446487    37.7122   6   9   1.0416   1.1047   2.0228  -0.3289   0.2948  -0.8780   0.00    0.0
2280 467373   31.025025265  121.439446486    37.6653   6   9   1.0270   1.0931   1.9888  -0.3230   0.2911  -0.8644   0.00    0.0
2280 467374   31.025025354  121.439446480    37.6177   6   9   1.0128   1.0817   1.9558  -0.3171   0.2874  -0.8512   0.00    0.0
2280 467375   31.025025475  121.439446483    37.5670   6   9   0.9988   1.0706   1.9237  -0.3114   0.2837  -0.8383   0.00    0.0
2280 467376   31.025025565  121.439446463    37.5258   6   9   0.9852   1.0597   1.8925  -0.3058   0.2800  -0.8257   0.00    0.0
2280 467377   31.025025625  121.439446427    37.5026   6   9   0.9719   1.0490   1.8621  -0.3003   0.2763  -0.8135   0.00    0.0
2280 467378   31.025025745  121.439446377    37.4755   6   9   0.9588   1.0386   1.8325  -0.2949   0.2727  -0.8015   0.00    0.0
2280 467379   31.025025788  121.439446357    37.4614   6   9   0.9461   1.0284   1.8037  -0.2896   0.2690  -0.7898   0.00    0.0
2280 467380   31.025025839  121.439446342    37.4534   6   9   0.9336   1.0184   1.7757  -0.2844   0.2654  -0.7785   0.00    0.0
2280 467381   31.025025817  121.439446354    37.4457   6   9   0.9213   1.0086   1.7485  -0.2792   0.2618  -0.7674   0.00    0.0
2280 467382   31.025025843  121.439446340    37.4207   6   9   0.9093   0.9990   1.7219  -0.2742   0.2582  -0.7565   0.00    0.0
2280 467383   31.025025859  121.439446315    37.4037   6   9   0.8976   0.9896   1.6960  -0.2692   0.2546  -0.7460   0.00    0.0
2280 467384   31.025025833  121.439446280    37.3845   6   9   0.8861   0.9804   1.6708  -0.2644   0.2510  -0.7357   0.00    0.0
2280 467385   31.025025777  121.439446283    37.3706   6   9   0.8748   0.9713   1.6463  -0.2596   0.2474  -0.7256   0.00    0.0
2280 467386   31.025025745  121.439446223    37.3581   6   9   0.8637   0.9624   1.6223  -0.2548   0.2438  -0.7157   0.00    0.0
2280 467387   31.025025710  121.439446151    37.3480   6   9   0.8529   0.9537   1.5990  -0.2502   0.2403  -0.7061   0.00    0.0
2280 467388   31.025025685  121.439446113    37.3287   6   9   0.8422   0.9452   1.5763  -0.2456   0.2367  -0.6967   0.00    0.0
2280 467389   31.025025631  121.439446047    37.3203   6   9   0.8318   0.9367   1.5541  -0.2411   0.2332  -0.6875   0.00    0.0
2280 467390   31.025025580  121.439445971    37.3142   6   9   0.8215   0.9285   1.5324  -0.2367   0.2296  -0.6785   0.00    0.0
2280 467391   31.025025499  121.439445915    37.3226   6   9   0.8115   0.9204   1.5113  -0.2324   0.2261  -0.6697   0.00    0.0
2280 467392   31.025025436  121.439445855    37.3208   6   9   0.8016   0.9124   1.4907  -0.2281   0.2225  -0.6611   0.00    0.0
2280 467393   31.025025416  121.439445802    37.3222   6   9   0.7920   0.9045   1.4706  -0.2238   0.2190  -0.6527   0.00    0.0
2280 467394   31.025025388  121.439445739    37.3272   6   9   0.7825   0.8968   1.4509  -0.2197   0.2155  -0.6445   0.00    0.0
2280 467395   31.025025370  121.439445652    37.3341   6   9   0.7732   0.8892   1.4318  -0.2156   0.2120  -0.6365   0.00    0.0
2280 467396   31.025025381  121.439445599    37.3368   6   9   0.7640   0.8818   1.4130  -0.2115   0.2085  -0.6286   0.00    0.0
2280 467397   31.025025426  121.439445538    37.3351   6   9   0.7550   0.8744   1.3947  -0.2075   0.2049  -0.6209   0.00    0.0
2280 467398   31.025025442  121.439445484    37.3380   6   9   0.7462   0.8672   1.3769  -0.2036   0.2014  -0.6133   0.00    0.0
2280 467399   31.025025474  121.439445447    37.3386   6   9   0.7375   0.8601   1.3594  -0.1997   0.1979  -0.6060   0.00    0.0
2280 467400   31.025025469  121.439445409    37.3303   6   9   0.7290   0.8530   1.3423  -0.1959   0.1944  -0.5987   0.00    0.0
2280 467401   31.025025418  121.439445431    37.3361   6   9   0.7207   0.8461   1.3256  -0.1922   0.1909  -0.5916   0.00    0.0
2280 467402   31.025025384  121.439445439    37.3430   6   9   0.7124   0.8393   1.3093  -0.1884   0.1874  -0.5847   0.00    0.0
2280 467403   31.025025361  121.439445494    37.3488   6   9   0.7044   0.8326   1.2933  -0.1848   0.1839  -0.5779   0.00    0.0
2280 467404   31.025025373  121.439445519    37.3465   6   9   0.6964   0.8260   1.2777  -0.1812   0.1804  -0.5712   0.00    0.0
2280 467405   31.025025389  121.439445548    37.3416   6   9   0.6886   0.8195   1.2624  -0.1776   0.1769  -0.5647   0.00    0.0
2280 467406   31.025025427  121.439445561    37.3487   6   9   0.6810   0.8131   1.2474  -0.1741   0.1734  -0.5583   0.00    0.0
2280 467407   31.025025465  121.439445568    37.3512   6   9   0.6734   0.8068   1.2328  -0.1706   0.1699  -0.5520   0.00    0.0
2280 467408   31.025025492  121.439445595    37.3540   6   9   0.6660   0.8006   1.2185  -0.1671   0.1664  -0.5458   0.00    0.0
2280 467409   31.025025531  121.439445643    37.3546   6   9   0.6588   0.7945   1.2044  -0.1637   0.1629  -0.5398   0.00    0.0
2280 467410   31.025025527  121.439445687    37.3601   6   9   0.6516   0.7884   1.1907  -0.1604   0.1594  -0.5339   0.00    0.0
2280 467411   31.025025524  121.439445723    37.3555   6   9   0.6446   0.7824   1.1772  -0.1571   0.1559  -0.5281   0.00    0.0
2280 467412   31.025025473  121.439445771    37.3563   6   9   0.6376   0.7765   1.1640  -0.1538   0.1524  -0.5224   0.00    0.0
2280 467413   31.025025484  121.439445849    37.3577   6   9   0.6308   0.7707   1.1511  -0.1506   0.1489  -0.5168   0.00    0.0
2280 467414   31.025025479  121.439445914    37.3599   6   9   0.6241   0.7650   1.1384  -0.1474   0.1453  -0.5113   0.00    0.0
2280 467415   31.025025415  121.439445984    37.3674   6   9   0.6175   0.7593   1.1260  -0.1442   0.1418  -0.5059   0.00    0.0
2280 467416   31.025025383  121.439446030    37.3784   6   9   0.6110   0.7538   1.1138  -0.1411   0.1382  -0.5006   0.00    0.0
2280 467417   31.025025345  121.439446065    37.3883   6   9   0.6047   0.7482   1.1019  -0.1380   0.1347  -0.4954   0.00    0.0
2280 467418   31.025025297  121.439446126    37.3926   6   9   0.5984   0.7428   1.0902  -0.1349   0.1311  -0.4903   0.00    0.0
2280 467419   31.025025266  121.439446165    37.3972   6   9   0.5922   0.7374   1.0787  -0.1319   0.1275  -0.4853   0.00    0.0
2280 467420   31.025025230  121.439446212    37.4007   6   9   0.5861   0.7321   1.0674  -0.1289   0.1238  -0.4804   0.00    0.0
