%  GPST Time  latitude(deg) longitude(deg)  height(m)   Q  ns   sdn(m)   sde(m)   sdu(m)  sdne(m)  sdeu(m)  sdun(m) age(s)  ratio
2280 466777   31.025016699  121.439441128    40.1447   6   5  12.3035   9.8358  24.2787  -2.7588   3.3757 -10.9731   0.00    0.0
2280 466778   31.025016005  121.439440800    40.0225   6   5   8.9382   7.0724  18.0527  -2.0219   2.4344  -8.2099   0.00    0.0
2280 466779   31.025015758  121.439440703    39.9907   6   5   7.3637   5.8075  14.9952  -1.6686   1.9964  -6.8321   0.00    0.0
2280 466780   31.025015673  121.439440565    39.9636   6   5   6.4024   5.0437  13.0894  -1.4502   1.7278  -5.9676   0.00    0.0
2280 466781   31.025015659  121.439440425    39.9887   6   6   5.6449   4.4515  11.7373  -0.9439   1.6841  -5.4153   0.00    0.0
2280 466782   31.025015642  121.439440295    39.9767   6   6   5.1116   4.0355  10.7242  -0.6264   1.5956  -4.9769   0.00    0.0
2280 466783   31.025015721  121.439440185    39.9432   6   6   4.7053   3.7198   9.9252  -0.3804   1.5057  -4.6216   0.00    0.0
2280 466784   31.025015640  121.439440105    39.9469   6   6   4.3808   3.4690   9.2722  -0.0936   1.4222  -4.3263   0.00    0.0
2280 466785   31.025015676  121.439440047    39.9545   6   6   4.1130   3.2632   8.7239   0.2662   1.3461  -4.0753   0.00    0.0
2280 466786   31.025016351  121.439440381    39.9133   6   7   3.8027   3.0551   8.2524  -0.5036   1.3050  -3.8419   0.00    0.0
2280 466787   31.025016902  121.439440602    39.8812   6   7   3.5565   2.8859   7.8413  -0.6449   1.2580  -3.6417   0.00    0.0
2280 466788   31.025017250  121.439440798    39.8706   6   7   3.3521   2.7432   7.4778  -0.7084   1.2102  -3.4660   0.00    0.0
2280 466789   31.025017531  121.439440987    39.8863   6   7   3.1781   2.6205   7.1522  -0.7382   1.1634  -3.3096   0.00    0.0
2280 466790   31.025017728  121.439441147    39.8901   6   7   3.0271   2.5132   6.8578  -0.7502   1.1183  -3.1687   0.00    0.0
2280 466791   31.025017836  121.439441261    39.8885   6   7   2.8943   2.4183   6.5892  -0.7520   1.0751  -3.0405   0.00    0.0
2280 466792   31.025018092  121.439441350    39.8365   6   7   2.7759   2.3334   6.3423  -0.7477   1.0339  -2.9230   0.00    0.0
2280 466793   31.025018336  121.439441453    39.8009   6   7   2.6693   2.2569   6.1139  -0.7395   0.9947  -2.8145   0.00    0.0
2280 466794   31.025018436  121.439441561    39.7699   6   7   2.5725   2.1873   5.9016  -0.7289   0.9572  -2.7138   0.00    0.0
2280 466795   31.025018575  121.439441649    39.7252   6   7   2.4841   2.1237   5.7032  -0.7167   0.9215  -2.6199   0.00    0.0
2280 466796   31.025018943  121.439441618    39.5745   6   7   2.4027   2.0653   5.5170  -0.7037   0.8873  -2.5318   0.00    0.0
2280 466797   31.025019302  121.439441587    39.4166   6   7   2.3274   2.0113   5.3418  -0.6901   0.8546  -2.4491   0.00    0.0
2280 466798   31.025019691  121.439441531    39.2490   6   7   2.2574   1.9612   5.1762  -0.6762   0.8234  -2.3710   0.00    0.0
2280 466799   31.025020014  121.439441508    39.1023   6   7   2.1921   1.9145   5.0194  -0.6622   0.7934  -2.2971   0.00    0.0
2280 466800   31.025020272  121.439441506    38.9974   6   7   2.1309   1.8709   4.8705  -0.6482   0.7646  -2.2271   0.00    0.0
2280 466801   31.025020549  121.439441465    38.9156   6   7   2.0733   1.8300   4.7289  -0.6344   0.7369  -2.1605   0.00    0.0
2280 466802   31.025020797  121.439441456    38.8203   6   7   2.0190   1.7915   4.5939  -0.6207   0.7104  -2.0971   0.00    0.0
2280 466803   31.025020975  121.439441430    38.7342   6   7   1.9677   1.7552   4.4650  -0.6073   0.6848  -2.0367   0.00    0.0
2280 466804   31.025021242  121.439441412    38.6337   6   7   1.9191   1.7209   4.3417  -0.5941   0.6601  -1.9790   0.00    0.0
2280 466805   31.025021458  121.439441418    38.5207   6   7   1.8729   1.6884   4.2237  -0.5812   0.6364  -1.9238   0.00    0.0
2280 466806   31.025021505  121.439441438    38.4900   6   7   1.8290   1.6576   4.1106  -0.5685   0.6135  -1.8709   0.00    0.0
2280 466807   31.025021610  121.439441456    38.4098   6   7   1.7871   1.6282   4.0021  -0.5562   0.5913  -1.8203   0.00    0.0
2280 466808   31.025021769  121.439441431    38.3101   6   7   1.7470   1.6003   3.8979  -0.5441   0.5700  -1.7717   0.00    0.0
2280 466809   31.025021989  121.439441413    38.1569   6   7   1.7087   1.5736   3.7978  -0.5323   0.5493  -1.7250   0.00    0.0
2280 466810   31.025022132  121.439441427    38.0283   6   7   1.6720   1.5480   3.7014  -0.5207   0.5293  -1.6802   0.00    0.0
2280 466811   31.025022166  121.439441443    37.9857   6   7   1.6368   1.5236   3.6087  -0.5095   0.5100  -1.6371   0.00    0.0
2280 466812   31.025022155  121.439441471    37.9374   6   7   1.6030   1.5001   3.5194  -0.4985   0.4913  -1.5956   0.00    0.0
2280 466813   31.025022301  121.439441463    37.8586   6   7   1.5705   1.4776   3.4334  -0.4877   0.4732  -1.5557   0.00    0.0
2280 466814   31.025022399  121.439441465    37.7779   6   7   1.5392   1.4560   3.3505  -0.4773   0.4556  -1.5173   0.00    0.0
2280 466815   31.025022371  121.439441456    37.7165   6   7   1.5091   1.4352   3.2705  -0.4670   0.4385  -1.4802   0.00    0.0
2280 466816   31.025022398  121.439441447    37.6669   6   7   1.4800   1.4151   3.1933  -0.4570   0.4220  -1.4445   0.00    0.0
2280 466817   31.025022341  121.439441510    37.7054   6   7   1.4519   1.3957   3.1188  -0.4472   0.4059  -1.4101   0.00    0.0
2280 466818   31.025022393  121.439441546    37.7078   6   7   1.4248   1.3770   3.0469  -0.4377   0.3903  -1.3768   0.00    0.0
2280 466819   31.025022344  121.439441611    37.7248   6   7   1.3985   1.3589   2.9774  -0.4283   0.3751  -1.3448   0.00    0.0
2280 466820   31.025022358  121.439441597    37.7155   6   7   1.3731   1.3415   2.9103  -0.4192   0.3604  -1.3138   0.00    0.0
2280 466821   31.025022458  121.439441617    37.7254   6   7   1.3486   1.3245   2.8454  -0.4103   0.3460  -1.2839   0.00    0.0
2280 466822   31.025022536  121.439441640    37.7142   6   7   1.3248   1.3081   2.7826  -0.4015   0.3320  -1.2549   0.00    0.0
2280 466823   31.025022554  121.439441677    37.7160   6   7   1.3017   1.2922   2.7219  -0.3930   0.3183  -1.2270   0.00    0.0
2280 466824   31.025022664  121.439441679    37.6898   6   7   1.2793   1.2768   2.6632  -0.3846   0.3050  -1.2000   0.00    0.0
2280 466825   31.025022788  121.439441666    37.6700   6   7   1.2575   1.2618   2.6064  -0.3764   0.2919  -1.1738   0.00    0.0
