%  GPST Time  latitude(deg) longitude(deg)  height(m)   Q  ns   sdn(m)   sde(m)   sdu(m)  sdne(m)  sdeu(m)  sdun(m) age(s)  ratio
2281 391534   16.261924660  -61.527741555   -52.0252   6   7  15.0148  13.4628  28.3531   3.4301  -4.2678  -8.4872   0.00    0.0
2281 391535   16.261924113  -61.527744241   -51.4731   6   7  11.0204   9.7986  21.5634   2.8665  -3.4677  -6.7790   0.00    0.0
2281 391536   16.261924710  -61.527746993   -51.2644   6   7   9.1188   8.0809  18.0759   2.4667  -2.9662  -5.7806   0.00    0.0
2281 391537   16.261925027  -61.527747624   -51.0540   6   7   7.9508   7.0330  15.8584   2.1902  -2.6213  -5.1167   0.00    0.0
2281 391538   16.261925750  -61.527747758   -51.0132   6   7   7.1401   6.3085  14.2855   1.9860  -2.3642  -4.6349   0.00    0.0
2281 391539   16.261926283  -61.527747908   -51.0243   6   7   6.5349   5.7690  13.0921   1.8273  -2.1613  -4.2645   0.00    0.0
2281 391540   16.261927272  -61.527747950   -51.0766   6   7   6.0607   5.3470  12.1443   1.6991  -1.9942  -3.9677   0.00    0.0
2281 391541   16.261928364  -61.527747371   -51.0193   6   7   5.6760   5.0050  11.3658   1.5924  -1.8521  -3.7226   0.00    0.0
2281 391542   16.261929151  -61.527746802   -50.8166   6   7   5.3557   4.7205  10.7100   1.5016  -1.7282  -3.5153   0.00    0.0
2281 391543   16.261929982  -61.527745835   -50.5605   6   7   5.0834   4.4789  10.1464   1.4228  -1.6180  -3.3367   0.00    0.0
2281 391544   16.261936345  -61.527754966   -49.2517   6   9   4.8228   4.1101   9.5304   1.5098  -1.6208  -3.2370   0.00    0.0
2281 391545   16.261940491  -61.527760379   -48.4084   6   9   4.6021   3.8365   9.0204   1.5256  -1.5951  -3.1305   0.00    0.0
2281 391546   16.261943738  -61.527764476   -47.7874   6   9   4.4088   3.6148   8.5801   1.5183  -1.5519  -3.0277   0.00    0.0
2281 391547   16.261946576  -61.527767533   -47.2757   6   9   4.2370   3.4297   8.1931   1.4989  -1.5012  -2.9292   0.00    0.0
2281 391548   16.261949293  -61.527770022   -46.8640   6   9   4.0823   3.2715   7.8482   1.4732  -1.4476  -2.8349   0.00    0.0
2281 391549   16.261951898  -61.527771649   -46.6307   6   9   3.9417   3.1339   7.5374   1.4440  -1.3932  -2.7447   0.00    0.0
2281 391550   16.261954319  -61.527772919   -46.3309   6   9   3.8128   3.0126   7.2546   1.4131  -1.3392  -2.6582   0.00    0.0
2281 391551   16.261956641  -61.527774003   -46.0321   6   9   3.6937   2.9044   6.9952   1.3815  -1.2859  -2.5753   0.00    0.0
2281 391552   16.261959088  -61.527774812   -45.8356   6   9   3.5830   2.8071   6.7559   1.3496  -1.2337  -2.4956   0.00    0.0
2281 391553   16.261961695  -61.527775439   -45.6474   6   9   3.4796   2.7187   6.5336   1.3180  -1.1827  -2.4189   0.00    0.0
2281 391554   16.261966918  -61.527772382   -45.3863   6   6   3.4404   2.6479   6.3386   1.3209  -1.0754  -2.3692   0.00    0.0
2281 391555   16.261971863  -61.527769689   -45.0263   6   6   3.4017   2.5849   6.1581   1.3233  -0.9786  -2.3205   0.00    0.0
2281 391556   16.261976894  -61.527767138   -44.6789   6   6   3.3630   2.5279   5.9887   1.3241  -0.8865  -2.2714   0.00    0.0
2281 391557   16.261981973  -61.527764695   -44.3826   6   6   3.3240   2.4758   5.8288   1.3235  -0.7972  -2.2219   0.00    0.0
2281 391558   16.261987480  -61.527762240   -44.1895   6   6   3.2844   2.4279   5.6773   1.3213  -0.7088  -2.1718   0.00    0.0
2281 391559   16.261993133  -61.527760512   -44.4031   6   7   3.2371   2.3803   5.5695   1.3353  -0.6352  -2.1183   0.00    0.0
2281 391560   16.261998670  -61.527758711   -44.6211   6   7   3.1901   2.3366   5.4670   1.3454  -0.5599  -2.0636   0.00    0.0
2281 391561   16.262005257  -61.527756550   -45.0311   6   8   3.1184   2.2909   5.3356   1.3300  -0.3721  -1.9479   0.00    0.0
2281 391562   16.262011685  -61.527754449   -45.3957   6   8   3.0531   2.2494   5.2172   1.3184   0.0589  -1.8446   0.00    0.0
2281 391563   16.262018208  -61.527752309   -45.7516   6   8   2.9905   2.2108   5.1062   1.3071   0.3596  -1.7445   0.00    0.0
2281 391564   16.262023255  -61.527749749   -46.0590   6   7   2.9374   2.1714   5.0299   1.3222   0.4314  -1.6778   0.00    0.0
2281 391565   16.262028481  -61.527747192   -46.3538   6   7   2.8874   2.1351   4.9564   1.3311   0.4938  -1.6114   0.00    0.0
2281 391566   16.262034356  -61.527744659   -46.6801   6   8   2.8336   2.1009   4.8837   1.3373   0.5469  -1.5376   0.00    0.0
2281 391567   16.262040053  -61.527742094   -46.9758   6   8   2.7833   2.0686   4.8139   1.3397   0.5960  -1.4660   0.00    0.0
2281 391568   16.262045700  -61.527739415   -47.2519   6   8   2.7345   2.0379   4.7464   1.3392   0.6410  -1.3940   0.00    0.0
2281 391569   16.262050521  -61.527736859   -47.4666   6   8   2.6869   2.0085   4.6817   1.3364   0.6822  -1.3219   0.00    0.0
2281 391570   16.262055611  -61.527734314   -47.6877   6   8   2.6402   1.9805   4.6191   1.3315   0.7203  -1.2489   0.00    0.0
2281 391571   16.262060851  -61.527731692   -47.9041   6   8   2.5943   1.9535   4.5584   1.3248   0.7555  -1.1748   0.00    0.0
2281 391572   16.262066210  -61.527729022   -48.1299   6   8   2.5491   1.9276   4.4996   1.3167   0.7882  -1.0994   0.00    0.0
2281 391573   16.262071651  -61.527726347   -48.3483   6   8   2.5046   1.9025   4.4425   1.3073   0.8186  -1.0222   0.00    0.0
2281 391574   16.262076957  -61.527723698   -48.5219   6   8   2.4607   1.8783   4.3872   1.2967   0.8468  -0.9427   0.00    0.0
2281 391575   16.262082289  -61.527721106   -48.6914   6   8   2.4174   1.8548   4.3335   1.2852   0.8730  -0.8604   0.00    0.0
2281 391576   16.262087489  -61.527718466   -48.8394   6   8   2.3746   1.8320   4.2813   1.2728   0.8973  -0.7743   0.00    0.0
2281 391577   16.262092948  -61.527715843   -48.9924   6   9   2.3246   1.8081   4.2184   1.2535   0.9339  -0.6365   0.00    0.0
2281 391578   16.262098610  -61.527713141   -49.1435   6   9   2.2775   1.7852   4.1601   1.2354   0.9640  -0.4863   0.00    0.0
2281 391579   16.262104034  -61.527710476   -49.2428   6   9   2.2320   1.7631   4.1043   1.2176   0.9905  -0.2881   0.00    0.0
2281 391580   16.262110267  -61.527707078   -49.1635   6  10   2.1841   1.7394   4.0474   1.1952   1.0065   0.1898   0.00    0.0
2281 391581   16.262116087  -61.527703823   -49.0508   6  10   2.1380   1.7167   3.9928   1.1736   1.0208   0.3802   0.00    0.0
2281 391582   16.262121716  -61.527700632   -48.8994   6  10   2.0934   1.6947   3.9402   1.1524   1.0333   0.4928   0.00    0.0
2281 391583   16.262127353  -61.527697426   -48.7444   6  10   2.0502   1.6734   3.8893   1.1318   1.0441   0.5760   0.00    0.0
2281 391584   16.262132699  -61.527694289   -48.5784   6   9   2.0117   1.6536   3.8465   1.1143   1.0480   0.6214   0.00    0.0
2281 391585   16.262138051  -61.527691125   -48.3995   6  10   1.9707   1.6336   3.7984   1.0943   1.0566   0.6789   0.00    0.0
2281 391586   16.262143366  -61.527687999   -48.2033   6  10   1.9310   1.6142   3.7518   1.0748   1.0638   0.7268   0.00    0.0
2281 391587   16.262148626  -61.527684944   -48.0058   6  10   1.8925   1.5953   3.7065   1.0558   1.0699   0.7673   0.00    0.0
2281 391588   16.262153697  -61.527681999   -47.7965   6  10   1.8552   1.5770   3.6624   1.0371   1.0750   0.8017   0.00    0.0
2281 391589   16.262158406  -61.527679208   -47.6221   6  10   1.8189   1.5592   3.6195   1.0189   1.0790   0.8313   0.00    0.0
2281 391590   16.262162626  -61.527676603   -47.4113   6  10   1.7836   1.5419   3.5776   1.0010   1.0822   0.8568   0.00    0.0
2281 391591   16.262166553  -61.527674200   -47.1960   6  11   1.7475   1.5250   3.5338   0.9837   1.0843   0.8851   0.00    0.0
2281 391592   16.262170036  -61.527672025   -46.9651   6  11   1.7129   1.5085   3.4915   0.9668   1.0856   0.9086   0.00    0.0
2281 391593   16.262174073  -61.527668317   -46.3304   6  12   1.6791   1.4877   3.4350   0.9483   1.0682   0.9230   0.00    0.0
2281 391594   16.262180584  -61.527663990   -45.7382   6  11   1.6365   1.4651   3.3895   0.9169   1.0534   0.9114   0.00    0.0
2281 391595   16.262186517  -61.527660122   -45.2227   6  11   1.5974   1.4443   3.3459   0.8889   1.0409   0.9033   0.00    0.0
2281 391596   16.262192160  -61.527656420   -44.7161   6  11   1.5602   1.4244   3.3031   0.8624   1.0288   0.8958   0.00    0.0
2281 391597   16.262197453  -61.527652942   -44.2277   6  12   1.5236   1.4053   3.2592   0.8375   1.0167   0.8920   0.00    0.0
2281 391598   16.262202290  -61.527649773   -43.7683   6  12   1.4889   1.3869   3.2163   0.8138   1.0048   0.8880   0.00    0.0
2281 391599   16.262214730  -61.527640971   -41.5358   6  13   1.4218   1.3518   3.1101   0.7469   0.9209   0.7631   0.00    0.0
2281 391600   16.262226152  -61.527629535   -38.9645   6  15   1.3616   1.3007   2.9902   0.6715   0.7921   0.6287   0.00    0.0
2281 391601   16.262233589  -61.527622045   -37.3276   6  15   1.3155   1.2639   2.9017   0.6193   0.7038   0.5418   0.00    0.0
2281 391602   16.262239125  -61.527616523   -36.1383   6  15   1.2768   1.2342   2.8292   0.5793   0.6373   0.4820   0.00    0.0
2281 391603   16.262243675  -61.527612205   -35.2860   6  16   1.2358   1.2089   2.7473   0.5449   0.5890   0.4866   0.00    0.0
2281 391604   16.262247505  -61.527608607   -34.6098   6  16   1.1997   1.1866   2.6757   0.5158   0.5502   0.4944   0.00    0.0
2281 391605   16.262250806  -61.527605534   -34.0442   6  16   1.1670   1.1664   2.6116   0.4905   0.5181   0.5036   0.00    0.0
2281 391606   16.262253665  -61.527602868   -33.5658   6  16   1.1372   1.1478   2.5533   0.4680   0.4911   0.5126   0.00    0.0
2281 391607   16.262256149  -61.527600487   -33.1372   6  16   1.1097   1.1306   2.4997   0.4477   0.4681   0.5208   0.00    0.0
2281 391608   16.262258540  -61.527598383   -32.7363   6  16   1.0841   1.1144   2.4500   0.4292   0.4481   0.5279   0.00    0.0
2281 391609   16.262260873  -61.527596402   -32.3728   6  16   1.0601   1.0991   2.4036   0.4121   0.4306   0.5340   0.00    0.0
2281 391610   16.262263139  -61.527594530   -32.0729   6  16   1.0376   1.0846   2.3600   0.3963   0.4152   0.5389   0.00    0.0
2281 391611   16.262265254  -61.527592797   -31.8135   6  16   1.0163   1.0708   2.3188   0.3816   0.4015   0.5429   0.00    0.0
2281 391612   16.262267065  -61.527591227   -31.5637   6  16   0.9961   1.0576   2.2797   0.3677   0.3893   0.5459   0.00    0.0
2281 391613   16.262268622  -61.527589762   -31.3224   6  16   0.9769   1.0449   2.2425   0.3547   0.3783   0.5481   0.00    0.0
2281 391614   16.262270351  -61.527588141   -31.0327   6  17   0.9547   1.0304   2.2068   0.3337   0.3662   0.5478   0.00    0.0
2281 391615   16.262271963  -61.527586657   -30.7583   6  17   0.9341   1.0167   2.1726   0.3142   0.3550   0.5468   0.00    0.0
2281 391616   16.262273557  -61.527585272   -30.5305   6  17   0.9146   1.0036   2.1398   0.2958   0.3446   0.5454   0.00    0.0
2281 391617   16.262275109  -61.527584004   -30.3266   6  17   0.8962   0.9910   2.1081   0.2784   0.3349   0.5435   0.00    0.0
2281 391618   16.262276662  -61.527582756   -30.1584   6  17   0.8787   0.9790   2.0775   0.2618   0.3258   0.5412   0.00    0.0
2281 391619   16.262278087  -61.527581585   -30.0017   6  17   0.8620   0.9674   2.0479   0.2460   0.3173   0.5385   0.00    0.0
2281 391620   16.262279300  -61.527580517   -29.8488   6  17   0.8461   0.9562   2.0192   0.2307   0.3094   0.5355   0.00    0.0
2281 391621   16.262280405  -61.527579511   -29.6923   6  17   0.8309   0.9454   1.9913   0.2161   0.3020   0.5323   0.00    0.0
2281 391622   16.262281376  -61.527578582   -29.5455   6  17   0.8163   0.9350   1.9642   0.2019   0.2951   0.5288   0.00    0.0
2281 391623   16.262282433  -61.527577745   -29.3631   6  18   0.8016   0.9248   1.9368   0.1891   0.2898   0.5229   0.00    0.0
2281 391624   16.262283284  -61.527576951   -29.1753   6  19   0.7875   0.9147   1.9099   0.1771   0.2831   0.5179   0.00    0.0
2281 391625   16.262284056  -61.527576213   -29.0093   6  19   0.7739   0.9049   1.8837   0.1654   0.2771   0.5127   0.00    0.0
2281 391626   16.262284702  -61.527575542   -28.8463   6  19   0.7609   0.8954   1.8583   0.1540   0.2715   0.5074   0.00    0.0
2281 391627   16.262285291  -61.527574924   -28.6909   6  19   0.7483   0.8862   1.8335   0.1428   0.2664   0.5022   0.00    0.0
2281 391628   16.262286115  -61.527574378   -28.5215   6  19   0.7362   0.8772   1.8094   0.1317   0.2617   0.4969   0.00    0.0
2281 391629   16.262286904  -61.527573860   -28.3674   6  19   0.7245   0.8684   1.7858   0.1208   0.2573   0.4916   0.00    0.0
2281 391630   16.262287578  -61.527573386   -28.2156   6  19   0.7131   0.8599   1.7627   0.1099   0.2533   0.4863   0.00    0.0
2281 391631   16.262288166  -61.527572945   -28.0769   6  19   0.7021   0.8516   1.7402   0.0989   0.2496   0.4810   0.00    0.0
2281 391632   16.262288712  -61.527572524   -27.9453   6  19   0.6914   0.8434   1.7182   0.0876   0.2462   0.4757   0.00    0.0
2281 391633   16.262289223  -61.527572100   -27.8098   6  19   0.6811   0.8355   1.6967   0.0759   0.2430   0.4704   0.00    0.0
2281 391634   16.262289926  -61.527571651   -27.6898   6  19   0.6710   0.8277   1.6757   0.0634   0.2402   0.4651   0.00    0.0
2281 391635   16.262290576  -61.527571214   -27.5691   6  19   0.6612   0.8202   1.6551   0.0492   0.2376   0.4598   0.00    0.0
2281 391636   16.262291198  -61.527570784   -27.4675   6  19   0.6517   0.8128   1.6349   0.0310   0.2352   0.4545   0.00    0.0
2281 391637   16.262291808  -61.527570350   -27.3767   6  19   0.6424   0.8055   1.6152  -0.0192   0.2331   0.4493   0.00    0.0
2281 391638   16.262292375  -61.527569957   -27.2891   6  19   0.6333   0.7984   1.5958  -0.0398   0.2312   0.4440   0.00    0.0
2281 391639   16.262293010  -61.527569573   -27.1977   6  19   0.6245   0.7914   1.5769  -0.0518   0.2294   0.4388   0.00    0.0
2281 391640   16.262293614  -61.527569215   -27.0982   6  19   0.6159   0.7846   1.5583  -0.0608   0.2278   0.4336   0.00    0.0
2281 391641   16.262294171  -61.527568850   -26.9984   6  19   0.6075   0.7779   1.5401  -0.0679   0.2264   0.4285   0.00    0.0
2281 391642   16.262294682  -61.527568507   -26.9092   6  19   0.5993   0.7714   1.5222  -0.0737   0.2252   0.4234   0.00    0.0
2281 391643   16.262295155  -61.527568173   -26.8055   6  19   0.5912   0.7649   1.5047  -0.0787   0.2240   0.4183   0.00    0.0
2281 391644   16.262295643  -61.527567836   -26.7140   6  19   0.5834   0.7586   1.4875  -0.0829   0.2230   0.4132   0.00    0.0
2281 391645   16.262296094  -61.527567527   -26.6203   6  19   0.5757   0.7524   1.4707  -0.0865   0.2222   0.4082   0.00    0.0
2281 391646   16.262296482  -61.527567240   -26.5229   6  19   0.5682   0.7463   1.4542  -0.0896   0.2214   0.4032   0.00    0.0
2281 391647   16.262296868  -61.527566946   -26.4237   6  19   0.5608   0.7403   1.4379  -0.0924   0.2207   0.3983   0.00    0.0
2281 391648   16.262297191  -61.527566643   -26.3353   6  19   0.5537   0.7345   1.4220  -0.0948   0.2201   0.3934   0.00    0.0
2281 391649   16.262297676  -61.527566346   -26.2193   6  19   0.5466   0.7287   1.4064  -0.0968   0.2196   0.3885   0.00    0.0
2281 391650   16.262298225  -61.527566082   -26.1246   6  19   0.5397   0.7230   1.3910  -0.0986   0.2192   0.3837   0.00    0.0
2281 391651   16.262298733  -61.527565820   -26.0350   6  19   0.5329   0.7174   1.3760  -0.1002   0.2188   0.3790   0.00    0.0
2281 391652   16.262299282  -61.527565534   -25.9570   6  19   0.5263   0.7119   1.3612  -0.1016   0.2185   0.3742   0.00    0.0
2281 391653   16.262299857  -61.527565242   -25.8911   6  19   0.5198   0.7065   1.3467  -0.1027   0.2183   0.3696   0.00    0.0
2281 391654   16.262300417  -61.527564934   -25.8347   6  19   0.5134   0.7011   1.3324  -0.1037   0.2181   0.3649   0.00    0.0
2281 391655   16.262300919  -61.527564613   -25.7821   6  19   0.5072   0.6959   1.3184  -0.1046   0.2179   0.3604   0.00    0.0
2281 391656   16.262301360  -61.527564267   -25.7187   6  19   0.5010   0.6907   1.3046  -0.1053   0.2178   0.3558   0.00    0.0
2281 391657   16.262301748  -61.527563924   -25.6646   6  19   0.4950   0.6856   1.2911  -0.1059   0.2177   0.3513   0.00    0.0
2281 391658   16.262302158  -61.527563588   -25.6188   6  19   0.4891   0.6806   1.2779  -0.1063   0.2176   0.3469   0.00    0.0
2281 391659   16.262302583  -61.527563385   -25.5555   6  19   0.4833   0.6757   1.2648  -0.1067   0.2176   0.3425   0.00    0.0
2281 391660   16.262303001  -61.527563188   -25.5021   6  19   0.4776   0.6708   1.2520  -0.1070   0.2175   0.3382   0.00    0.0
2281 391661   16.262303420  -61.527562982   -25.4470   6  19   0.4720   0.6660   1.2394  -0.1072   0.2175   0.3339   0.00    0.0
2281 391662   16.262303795  -61.527562746   -25.3925   6  19   0.4665   0.6612   1.2271  -0.1073   0.2175   0.3297   0.00    0.0
2281 391663   16.262304189  -61.527562543   -25.3468   6  19   0.4611   0.6565   1.2149  -0.1073   0.2176   0.3255   0.00    0.0
2281 391664   16.262304597  -61.527562367   -25.3233   6  19   0.4558   0.6519   1.2030  -0.1073   0.2176   0.3214   0.00    0.0
2281 391665   16.262304994  -61.527562193   -25.3112   6  19   0.4506   0.6474   1.1913  -0.1072   0.2176   0.3174   0.00    0.0
2281 391666   16.262305321  -61.527562082   -25.2912   6  19   0.4455   0.6429   1.1798  -0.1070   0.2177   0.3133   0.00    0.0
2281 391667   16.262305574  -61.527561944   -25.2754   6  19   0.4405   0.6384   1.1684  -0.1068   0.2177   0.3094   0.00    0.0
2281 391668   16.262305737  -61.527561793   -25.2611   6  19   0.4355   0.6341   1.1573  -0.1066   0.2178   0.3055   0.00    0.0
2281 391669   16.262305794  -61.527561614   -25.2238   6  19   0.4307   0.6297   1.1463  -0.1063   0.2178   0.3016   0.00    0.0
2281 391670   16.262305818  -61.527561441   -25.1924   6  19   0.4259   0.6255   1.1356  -0.1059   0.2179   0.2978   0.00    0.0
2281 391671   16.262305827  -61.527561276   -25.1651   6  19   0.4212   0.6213   1.1250  -0.1055   0.2179   0.2940   0.00    0.0
2281 391672   16.262305813  -61.527561111   -25.1458   6  19   0.4166   0.6171   1.1146  -0.1051   0.2179   0.2903   0.00    0.0
2281 391673   16.262306135  -61.527561003   -25.1104   6  19   0.4120   0.6130   1.1043  -0.1047   0.2180   0.2867   0.00    0.0
2281 391674   16.262306404  -61.527560890   -25.0769   6  19   0.4076   0.6089   1.0943  -0.1042   0.2180   0.2831   0.00    0.0
2281 391675   16.262306638  -61.527560760   -25.0408   6  19   0.4032   0.6049   1.0844  -0.1037   0.2180   0.2795   0.00    0.0
2281 391676   16.262306822  -61.527560629   -25.0031   6  19   0.3988   0.6009   1.0746  -0.1032   0.2181   0.2760   0.00    0.0
2281 391677   16.262306955  -61.527560473   -24.9719   6  19   0.3946   0.5970   1.0650  -0.1027   0.2181   0.2726   0.00    0.0
2281 391678   16.262307057  -61.527560278   -24.9529   6  19   0.3904   0.5931   1.0556  -0.1021   0.2181   0.2692   0.00    0.0
2281 391679   16.262307296  -61.527560148   -24.9286   6  19   0.3863   0.5893   1.0463  -0.1015   0.2181   0.2658   0.00    0.0
2281 391680   16.262307533  -61.527560001   -24.9098   6  19   0.3822   0.5855   1.0372  -0.1009   0.2181   0.2625   0.00    0.0
2281 391681   16.262307764  -61.527559858   -24.9002   6  19   0.3782   0.5818   1.0282  -0.1003   0.2181   0.2593   0.00    0.0
2281 391682   16.262307984  -61.527559715   -24.8923   6  19   0.3743   0.5781   1.0194  -0.0997   0.2181   0.2560   0.00    0.0
2281 391683   16.262308163  -61.527559548   -24.8892   6  19   0.3705   0.5744   1.0107  -0.0990   0.2180   0.2529   0.00    0.0
2281 391684   16.262308310  -61.527559335   -24.8864   6  19   0.3667   0.5708   1.0021  -0.0984   0.2180   0.2498   0.00    0.0
2281 391685   16.262308440  -61.527559108   -24.8844   6  19   0.3629   0.5672   0.9936  -0.0977   0.2179   0.2467   0.00    0.0
2281 391686   16.262308541  -61.527558876   -24.8894   6  19   0.3592   0.5636   0.9853  -0.0970   0.2179   0.2437   0.00    0.0
2281 391687   16.262308619  -61.527558625   -24.8972   6  19   0.3556   0.5601   0.9771  -0.0963   0.2178   0.2407   0.00    0.0
2281 391688   16.262308701  -61.527558391   -24.9050   6  19   0.3520   0.5567   0.9691  -0.0956   0.2177   0.2377   0.00    0.0
2281 391689   16.262308756  -61.527558165   -24.9192   6  19   0.3485   0.5532   0.9611  -0.0949   0.2176   0.2348   0.00    0.0
2281 391690   16.262308799  -61.527557946   -24.9407   6  19   0.3450   0.5498   0.9533  -0.0942   0.2175   0.2320   0.00    0.0
2281 391691   16.262308863  -61.527557729   -24.9606   6  19   0.3416   0.5465   0.9456  -0.0935   0.2174   0.2292   0.00    0.0
2281 391692   16.262308906  -61.527557518   -24.9852   6  19   0.3383   0.5431   0.9380  -0.0928   0.2173   0.2264   0.00    0.0
2281 391693   16.262308945  -61.527557300   -25.0107   6  19   0.3350   0.5398   0.9305  -0.0920   0.2172   0.2237   0.00    0.0
2281 391694   16.262309024  -61.527557113   -25.0139   6  19   0.3317   0.5366   0.9231  -0.0913   0.2171   0.2210   0.00    0.0
2281 391695   16.262309048  -61.527556918   -25.0197   6  19   0.3285   0.5333   0.9158  -0.0906   0.2169   0.2183   0.00    0.0
2281 391696   16.262309059  -61.527556714   -25.0173   6  19   0.3253   0.5301   0.9086  -0.0898   0.2168   0.2157   0.00    0.0
2281 391697   16.262309019  -61.527556533   -25.0150   6  19   0.3222   0.5270   0.9015  -0.0891   0.2166   0.2131   0.00    0.0
2281 391698   16.262308959  -61.527556343   -25.0168   6  19   0.3191   0.5238   0.8945  -0.0884   0.2165   0.2106   0.00    0.0
2281 391699   16.262309028  -61.527556198   -25.0017   6  19   0.3161   0.5207   0.8876  -0.0876   0.2163   0.2081   0.00    0.0
2281 391700   16.262309102  -61.527556036   -24.9941   6  19   0.3131   0.5177   0.8808  -0.0869   0.2161   0.2056   0.00    0.0
2281 391701   16.262309161  -61.527555883   -24.9901   6  19   0.3102   0.5146   0.8741  -0.0862   0.2159   0.2032   0.00    0.0
2281 391702   16.262309202  -61.527555723   -24.9829   6  19   0.3073   0.5116   0.8675  -0.0854   0.2157   0.2008   0.00    0.0
2281 391703   16.262309223  -61.527555553   -24.9779   6  19   0.3044   0.5086   0.8609  -0.0847   0.2155   0.1984   0.00    0.0
2281 391704   16.262309258  -61.527555389   -24.9754   6  19   0.3016   0.5056   0.8545  -0.0839   0.2153   0.1961   0.00    0.0
2281 391705   16.262309300  -61.527555225   -24.9757   6  19   0.2988   0.5027   0.8481  -0.0832   0.2151   0.1938   0.00    0.0
2281 391706   16.262309329  -61.527555060   -24.9817   6  19   0.2961   0.4998   0.8418  -0.0825   0.2149   0.1915   0.00    0.0
2281 391707   16.262309334  -61.527554893   -24.9895   6  19   0.2934   0.4969   0.8356  -0.0817   0.2146   0.1893   0.00    0.0
2281 391708   16.262309299  -61.527554707   -24.9946   6  19   0.2907   0.4941   0.8295  -0.0810   0.2144   0.1871   0.00    0.0
2281 391709   16.262309343  -61.527554589   -24.9821   6  19   0.2881   0.4913   0.8234  -0.0803   0.2142   0.1850   0.00    0.0
2281 391710   16.262309366  -61.527554470   -24.9736   6  19   0.2855   0.4885   0.8174  -0.0795   0.2139   0.1828   0.00    0.0
2281 391711   16.262309392  -61.527554341   -24.9693   6  19   0.2830   0.4857   0.8115  -0.0788   0.2136   0.1807   0.00    0.0
2281 391712   16.262309410  -61.527554204   -24.9667   6  19   0.2805   0.4829   0.8056  -0.0781   0.2134   0.1787   0.00    0.0
2281 391713   16.262309409  -61.527554052   -24.9648   6  19   0.2780   0.4802   0.7999  -0.0774   0.2131   0.1766   0.00    0.0
2281 391714   16.262309448  -61.527553935   -24.9650   6  19   0.2755   0.4775   0.7941  -0.0766   0.2128   0.1746   0.00    0.0
2281 391715   16.262309443  -61.527553794   -24.9682   6  19   0.2731   0.4748   0.7885  -0.0759   0.2125   0.1726   0.00    0.0
2281 391716   16.262309424  -61.527553629   -24.9679   6  19   0.2707   0.4722   0.7829  -0.0752   0.2122   0.1707   0.00    0.0
2281 391717   16.262309408  -61.527553457   -24.9668   6  19   0.2684   0.4695   0.7774  -0.0745   0.2119   0.1687   0.00    0.0
2281 391718   16.262309373  -61.527553282   -24.9720   6  19   0.2661   0.4669   0.7719  -0.0738   0.2116   0.1668   0.00    0.0
2281 391719   16.262309393  -61.527553164   -24.9703   6  19   0.2638   0.4644   0.7665  -0.0731   0.2113   0.1649   0.00    0.0
2281 391720   16.262309410  -61.527553057   -24.9745   6  19   0.2615   0.4618   0.7612  -0.0724   0.2110   0.1631   0.00    0.0
2281 391721   16.262309408  -61.527552959   -24.9825   6  19   0.2593   0.4593   0.7559  -0.0717   0.2107   0.1613   0.00    0.0
2281 391722   16.262309385  -61.527552843   -24.9915   6  19   0.2571   0.4567   0.7507  -0.0710   0.2103   0.1595   0.00    0.0
2281 391723   16.262309355  -61.527552732   -25.0028   6  19   0.2550   0.4542   0.7455  -0.0703   0.2100   0.1577   0.00    0.0
2281 391724   16.262309417  -61.527552662   -24.9964   6  19   0.2528   0.4518   0.7404  -0.0697   0.2097   0.1559   0.00    0.0
2281 391725   16.262309453  -61.527552595   -24.9945   6  19   0.2507   0.4493   0.7354  -0.0690   0.2093   0.1542   0.00    0.0
2281 391726   16.262309473  -61.527552516   -24.9961   6  19   0.2486   0.4469   0.7304  -0.0683   0.2090   0.1525   0.00    0.0
2281 391727   16.262309488  -61.527552445   -24.9954   6  19   0.2466   0.4445   0.7254  -0.0676   0.2086   0.1508   0.00    0.0
2281 391728   16.262309491  -61.527552390   -24.9989   6  19   0.2445   0.4421   0.7205  -0.0670   0.2083   0.1492   0.00    0.0
2281 391729   16.262309551  -61.527552332   -24.9890   6  19   0.2425   0.4397   0.7157  -0.0663   0.2079   0.1475   0.00    0.0
2281 391730   16.262309607  -61.527552287   -24.9828   6  19   0.2406   0.4374   0.7109  -0.0657   0.2075   0.1459   0.00    0.0
2281 391731   16.262309652  -61.527552233   -24.9736   6  19   0.2386   0.4350   0.7061  -0.0650   0.2071   0.1443   0.00    0.0
2281 391732   16.262309675  -61.527552170   -24.9692   6  19   0.2367   0.4327   0.7014  -0.0644   0.2068   0.1427   0.00    0.0
2281 391733   16.262309681  -61.527552109   -24.9665   6  19   0.2348   0.4304   0.6968  -0.0637   0.2064   0.1412   0.00    0.0
2281 391734   16.262309695  -61.527552042   -24.9581   6  19   0.2329   0.4281   0.6921  -0.0631   0.2060   0.1397   0.00    0.0
2281 391735   16.262309695  -61.527551974   -24.9538   6  19   0.2311   0.4259   0.6876  -0.0624   0.2056   0.1382   0.00    0.0
2281 391736   16.262309676  -61.527551905   -24.9513   6  19   0.2292   0.4236   0.6831  -0.0618   0.2052   0.1367   0.00    0.0
2281 391737   16.262309649  -61.527551814   -24.9518   6  19   0.2274   0.4214   0.6786  -0.0612   0.2048   0.1352   0.00    0.0
2281 391738   16.262309602  -61.527551724   -24.9514   6  19   0.2256   0.4192   0.6741  -0.0606   0.2044   0.1337   0.00    0.0
2281 391739   16.262309703  -61.527551704   -24.9247   6  19   0.2239   0.4170   0.6697  -0.0600   0.2040   0.1323   0.00    0.0
2281 391740   16.262309794  -61.527551678   -24.9022   6  19   0.2221   0.4149   0.6654  -0.0594   0.2036   0.1309   0.00    0.0
2281 391741   16.262309854  -61.527551645   -24.8815   6  19   0.2204   0.4127   0.6611  -0.0587   0.2032   0.1295   0.00    0.0
2281 391742   16.262309894  -61.527551605   -24.8579   6  19   0.2187   0.4106   0.6568  -0.0581   0.2027   0.1281   0.00    0.0
2281 391743   16.262309918  -61.527551544   -24.8295   6  19   0.2170   0.4085   0.6526  -0.0575   0.2023   0.1268   0.00    0.0
2281 391744   16.262310023  -61.527551500   -24.7976   6  19   0.2154   0.4064   0.6484  -0.0570   0.2019   0.1254   0.00    0.0
2281 391745   16.262310132  -61.527551453   -24.7731   6  19   0.2137   0.4043   0.6442  -0.0564   0.2015   0.1241   0.00    0.0
2281 391746   16.262310240  -61.527551376   -24.7520   6  19   0.2121   0.4022   0.6401  -0.0558   0.2010   0.1228   0.00    0.0
2281 391747   16.262310341  -61.527551325   -24.7352   6  19   0.2105   0.4002   0.6360  -0.0552   0.2006   0.1215   0.00    0.0
2281 391748   16.262310433  -61.527551255   -24.7187   6  19   0.2089   0.3981   0.6320  -0.0546   0.2002   0.1202   0.00    0.0
2281 391749   16.262310587  -61.527551241   -24.6902   6  19   0.2074   0.3961   0.6280  -0.0541   0.1997   0.1189   0.00    0.0
2281 391750   16.262310725  -61.527551230   -24.6661   6  19   0.2058   0.3941   0.6240  -0.0535   0.1993   0.1177   0.00    0.0
2281 391751   16.262310856  -61.527551202   -24.6407   6  19   0.2043   0.3921   0.6201  -0.0529   0.1988   0.1165   0.00    0.0
2281 391752   16.262310970  -61.527551181   -24.6180   6  19   0.2028   0.3901   0.6162  -0.0524   0.1984   0.1153   0.00    0.0
2281 391753   16.262311079  -61.527551153   -24.6021   6  19   0.2013   0.3882   0.6123  -0.0518   0.1979   0.1141   0.00    0.0
2281 391754   16.262311188  -61.527551129   -24.5843   6  19   0.1998   0.3862   0.6085  -0.0513   0.1974   0.1129   0.00    0.0
2281 391755   16.262311291  -61.527551093   -24.5693   6  19   0.1984   0.3843   0.6047  -0.0507   0.1970   0.1117   0.00    0.0
2281 391756   16.262311387  -61.527551060   -24.5580   6  19   0.1970   0.3824   0.6009  -0.0502   0.1965   0.1106   0.00    0.0
2281 391757   16.262311476  -61.527551025   -24.5482   6  19   0.1955   0.3805   0.5972  -0.0497   0.1961   0.1094   0.00    0.0
2281 391758   16.262311549  -61.527550985   -24.5385   6  19   0.1941   0.3786   0.5935  -0.0491   0.1956   0.1083   0.00    0.0
2281 391759   16.262311605  -61.527550948   -24.5210   6  19   0.1927   0.3767   0.5898  -0.0486   0.1951   0.1072   0.00    0.0
2281 391760   16.262311653  -61.527550904   -24.5017   6  19   0.1914   0.3749   0.5862  -0.0481   0.1946   0.1061   0.00    0.0
2281 391761   16.262311691  -61.527550868   -24.4846   6  19   0.1900   0.3730   0.5826  -0.0476   0.1942   0.1050   0.00    0.0
2281 391762   16.262311728  -61.527550830   -24.4722   6  19   0.1887   0.3712   0.5790  -0.0471   0.1937   0.1039   0.00    0.0
2281 391763   16.262311760  -61.527550791   -24.4579   6  19   0.1873   0.3694   0.5755  -0.0466   0.1932   0.1029   0.00    0.0
2281 391764   16.262311859  -61.527550813   -24.4410   6  19   0.1860   0.3676   0.5719  -0.0461   0.1927   0.1018   0.00    0.0
2281 391765   16.262311966  -61.527550817   -24.4243   6  19   0.1847   0.3658   0.5685  -0.0456   0.1923   0.1008   0.00    0.0
2281 391766   16.262312077  -61.527550831   -24.4085   6  19   0.1835   0.3640   0.5650  -0.0451   0.1918   0.0998   0.00    0.0
2281 391767   16.262312177  -61.527550847   -24.3985   6  19   0.1822   0.3623   0.5616  -0.0446   0.1913   0.0988   0.00    0.0
2281 391768   16.262312269  -61.527550854   -24.3873   6  19   0.1809   0.3605   0.5582  -0.0441   0.1908   0.0978   0.00    0.0
2281 391769   16.262312360  -61.527550854   -24.3759   6  19   0.1797   0.3588   0.5548  -0.0436   0.1903   0.0968   0.00    0.0
2281 391770   16.262312487  -61.527550880   -24.3537   6  19   0.1785   0.3571   0.5515  -0.0431   0.1898   0.0958   0.00    0.0
2281 391771   16.262312604  -61.527550898   -24.3295   6  19   0.1773   0.3554   0.5482  -0.0427   0.1893   0.0948   0.00    0.0
2281 391772   16.262312719  -61.527550919   -24.3089   6  19   0.1761   0.3537   0.5449  -0.0422   0.1888   0.0939   0.00    0.0
2281 391773   16.262312828  -61.527550945   -24.2861   6  19   0.1749   0.3520   0.5416  -0.0417   0.1883   0.0930   0.00    0.0
2281 391774   16.262312932  -61.527550964   -24.2663   6  19   0.1737   0.3503   0.5384  -0.0413   0.1878   0.0920   0.00    0.0
2281 391775   16.262313066  -61.527551027   -24.2441   6  19   0.1725   0.3486   0.5352  -0.0408   0.1873   0.0911   0.00    0.0
2281 391776   16.262313181  -61.527551082   -24.2203   6  19   0.1714   0.3470   0.5320  -0.0403   0.1868   0.0902   0.00    0.0
2281 391777   16.262313288  -61.527551140   -24.1951   6  19   0.1703   0.3454   0.5289  -0.0399   0.1863   0.0893   0.00    0.0
2281 391778   16.262313386  -61.527551196   -24.1632   6  19   0.1691   0.3437   0.5258  -0.0394   0.1858   0.0884   0.00    0.0
2281 391779   16.262313495  -61.527551241   -24.1326   6  19   0.1680   0.3421   0.5227  -0.0390   0.1853   0.0876   0.00    0.0
2281 391780   16.262313599  -61.527551281   -24.1045   6  19   0.1669   0.3405   0.5196  -0.0386   0.1848   0.0867   0.00    0.0
2281 391781   16.262313695  -61.527551332   -24.0809   6  19   0.1658   0.3389   0.5166  -0.0381   0.1843   0.0858   0.00    0.0
2281 391782   16.262313783  -61.527551386   -24.0598   6  19   0.1648   0.3373   0.5135  -0.0377   0.1838   0.0850   0.00    0.0
2281 391783   16.262313869  -61.527551438   -24.0379   6  19   0.1637   0.3358   0.5105  -0.0372   0.1833   0.0842   0.00    0.0
2281 391784   16.262313960  -61.527551453   -24.0291   6  19   0.1626   0.3342   0.5076  -0.0368   0.1828   0.0833   0.00    0.0
2281 391785   16.262314050  -61.527551465   -24.0208   6  19   0.1616   0.3327   0.5046  -0.0364   0.1823   0.0825   0.00    0.0
2281 391786   16.262314136  -61.527551479   -24.0122   6  19   0.1606   0.3311   0.5017  -0.0360   0.1818   0.0817   0.00    0.0
2281 391787   16.262314211  -61.527551493   -24.0036   6  19   0.1595   0.3296   0.4988  -0.0356   0.1813   0.0809   0.00    0.0
2281 391788   16.262314275  -61.527551516   -23.9996   6  19   0.1585   0.3281   0.4959  -0.0351   0.1807   0.0801   0.00    0.0
2281 391789   16.262314331  -61.527551535   -23.9921   6  19   0.1575   0.3266   0.4931  -0.0347   0.1802   0.0794   0.00    0.0
2281 391790   16.262314383  -61.527551553   -23.9845   6  19   0.1565   0.3251   0.4902  -0.0343   0.1797   0.0786   0.00    0.0
2281 391791   16.262314428  -61.527551552   -23.9743   6  19   0.1556   0.3236   0.4874  -0.0339   0.1792   0.0778   0.00    0.0
2281 391792   16.262314463  -61.527551550   -23.9690   6  19   0.1546   0.3221   0.4847  -0.0335   0.1787   0.0771   0.00    0.0
2281 391793   16.262314494  -61.527551540   -23.9618   6  19   0.1536   0.3207   0.4819  -0.0331   0.1782   0.0763   0.00    0.0
2281 391794   16.262314521  -61.527551515   -23.9537   6  19   0.1527   0.3192   0.4792  -0.0327   0.1777   0.0756   0.00    0.0
2281 391795   16.262314533  -61.527551466   -23.9547   6  19   0.1517   0.3178   0.4764  -0.0323   0.1772   0.0749   0.00    0.0
2281 391796   16.262314539  -61.527551425   -23.9570   6  19   0.1508   0.3164   0.4738  -0.0320   0.1766   0.0742   0.00    0.0
2281 391797   16.262314534  -61.527551369   -23.9589   6  19   0.1499   0.3149   0.4711  -0.0316   0.1761   0.0735   0.00    0.0
2281 391798   16.262314524  -61.527551298   -23.9610   6  19   0.1490   0.3135   0.4684  -0.0312   0.1756   0.0728   0.00    0.0
2281 391799   16.262314497  -61.527551242   -23.9708   6  19   0.1481   0.3121   0.4658  -0.0308   0.1751   0.0721   0.00    0.0
2281 391800   16.262314470  -61.527551176   -23.9808   6  19   0.1472   0.3107   0.4632  -0.0304   0.1746   0.0714   0.00    0.0
2281 391801   16.262314442  -61.527551121   -23.9896   6  19   0.1463   0.3093   0.4606  -0.0301   0.1741   0.0707   0.00    0.0
2281 391802   16.262314409  -61.527551076   -24.0000   6  19   0.1454   0.3080   0.4580  -0.0297   0.1736   0.0700   0.00    0.0
2281 391803   16.262314387  -61.527551036   -24.0119   6  19   0.1445   0.3066   0.4555  -0.0293   0.1731   0.0694   0.00    0.0
2281 391804   16.262314382  -61.527551017   -24.0243   6  19   0.1437   0.3053   0.4530  -0.0290   0.1725   0.0687   0.00    0.0
2281 391805   16.262314380  -61.527550992   -24.0365   6  19   0.1428   0.3039   0.4505  -0.0286   0.1720   0.0681   0.00    0.0
2281 391806   16.262314370  -61.527550977   -24.0489   6  19   0.1420   0.3026   0.4480  -0.0282   0.1715   0.0674   0.00    0.0
2281 391807   16.262314360  -61.527550952   -24.0621   6  19   0.1411   0.3012   0.4455  -0.0279   0.1710   0.0668   0.00    0.0
2281 391808   16.262314349  -61.527550930   -24.0752   6  19   0.1403   0.2999   0.4431  -0.0275   0.1705   0.0662   0.00    0.0
2281 391809   16.262314348  -61.527550915   -24.0784   6  19   0.1395   0.2986   0.4406  -0.0272   0.1700   0.0655   0.00    0.0
2281 391810   16.262314342  -61.527550910   -24.0824   6  19   0.1387   0.2973   0.4382  -0.0268   0.1695   0.0649   0.00    0.0
2281 391811   16.262314328  -61.527550906   -24.0858   6  19   0.1379   0.2960   0.4358  -0.0265   0.1690   0.0643   0.00    0.0
2281 391812   16.262314312  -61.527550902   -24.0906   6  19   0.1371   0.2947   0.4335  -0.0261   0.1685   0.0637   0.00    0.0
2281 391813   16.262314296  -61.527550907   -24.0976   6  19   0.1363   0.2934   0.4311  -0.0258   0.1679   0.0631   0.00    0.0
2281 391814   16.262314351  -61.527550965   -24.0992   6  19   0.1355   0.2922   0.4288  -0.0255   0.1674   0.0625   0.00    0.0
2281 391815   16.262314399  -61.527551023   -24.1013   6  19   0.1347   0.2909   0.4265  -0.0251   0.1669   0.0620   0.00    0.0
2281 391816   16.262314432  -61.527551081   -24.1019   6  19   0.1340   0.2897   0.4242  -0.0248   0.1664   0.0614   0.00    0.0
2281 391817   16.262314450  -61.527551140   -24.1019   6  19   0.1332   0.2884   0.4219  -0.0244   0.1659   0.0608   0.00    0.0
2281 391818   16.262314456  -61.527551207   -24.1036   6  19   0.1325   0.2872   0.4196  -0.0241   0.1654   0.0603   0.00    0.0
2281 391819   16.262314512  -61.527551271   -24.0926   6  19   0.1317   0.2860   0.4174  -0.0238   0.1649   0.0597   0.00    0.0
2281 391820   16.262314570  -61.527551319   -24.0812   6  19   0.1310   0.2847   0.4152  -0.0235   0.1644   0.0592   0.00    0.0
2281 391821   16.262314625  -61.527551366   -24.0712   6  19   0.1302   0.2835   0.4130  -0.0231   0.1639   0.0586   0.00    0.0
2281 391822   16.262314673  -61.527551414   -24.0618   6  19   0.1295   0.2823   0.4108  -0.0228   0.1634   0.0581   0.00    0.0
2281 391823   16.262314709  -61.527551471   -24.0536   6  19   0.1288   0.2811   0.4086  -0.0225   0.1629   0.0575   0.00    0.0
2281 391824   16.262314767  -61.527551510   -24.0492   6  19   0.1281   0.2799   0.4065  -0.0222   0.1624   0.0570   0.00    0.0
2281 391825   16.262314826  -61.527551549   -24.0438   6  19   0.1274   0.2788   0.4043  -0.0219   0.1619   0.0565   0.00    0.0
2281 391826   16.262314880  -61.527551596   -24.0414   6  19   0.1267   0.2776   0.4022  -0.0215   0.1614   0.0560   0.00    0.0
2281 391827   16.262314927  -61.527551645   -24.0409   6  19   0.1260   0.2764   0.4001  -0.0212   0.1609   0.0555   0.00    0.0
2281 391828   16.262314974  -61.527551681   -24.0416   6  19   0.1253   0.2753   0.3980  -0.0209   0.1604   0.0550   0.00    0.0
2281 391829   16.262315006  -61.527551680   -24.0454   6  19   0.1246   0.2741   0.3959  -0.0206   0.1599   0.0545   0.00    0.0
2281 391830   16.262315035  -61.527551681   -24.0503   6  19   0.1239   0.2730   0.3939  -0.0203   0.1594   0.0540   0.00    0.0
2281 391831   16.262315069  -61.527551686   -24.0560   6  19   0.1233   0.2718   0.3918  -0.0200   0.1589   0.0535   0.00    0.0
2281 391832   16.262315103  -61.527551694   -24.0629   6  19   0.1226   0.2707   0.3898  -0.0197   0.1584   0.0530   0.00    0.0
2281 391833   16.262315131  -61.527551707   -24.0716   6  19   0.1220   0.2696   0.3878  -0.0194   0.1579   0.0525   0.00    0.0
2281 391834   16.262315180  -61.527551734   -24.0779   6  19   0.1213   0.2685   0.3858  -0.0191   0.1574   0.0521   0.00    0.0
2281 391835   16.262315228  -61.527551754   -24.0825   6  19   0.1207   0.2674   0.3838  -0.0188   0.1569   0.0516   0.00    0.0
2281 391836   16.262315273  -61.527551776   -24.0876   6  19   0.1200   0.2663   0.3818  -0.0185   0.1564   0.0511   0.00    0.0
2281 391837   16.262315324  -61.527551795   -24.0936   6  19   0.1194   0.2652   0.3799  -0.0182   0.1559   0.0507   0.00    0.0
2281 391838   16.262315380  -61.527551827   -24.0971   6  19   0.1188   0.2641   0.3780  -0.0179   0.1554   0.0502   0.00    0.0
2281 391839   16.262315431  -61.527551848   -24.1001   6  19   0.1181   0.2630   0.3760  -0.0176   0.1550   0.0498   0.00    0.0
2281 391840   16.262315480  -61.527551867   -24.1018   6  19   0.1175   0.2620   0.3741  -0.0173   0.1545   0.0493   0.00    0.0
2281 391841   16.262315529  -61.527551886   -24.1045   6  19   0.1169   0.2609   0.3722  -0.0170   0.1540   0.0489   0.00    0.0
2281 391842   16.262315574  -61.527551904   -24.1079   6  19   0.1163   0.2598   0.3704  -0.0167   0.1535   0.0485   0.00    0.0
2281 391843   16.262315615  -61.527551923   -24.1105   6  19   0.1157   0.2588   0.3685  -0.0164   0.1530   0.0480   0.00    0.0
2281 391844   16.262315648  -61.527551940   -24.1134   6  19   0.1151   0.2577   0.3667  -0.0161   0.1525   0.0476   0.00    0.0
2281 391845   16.262315686  -61.527551963   -24.1132   6  19   0.1145   0.2567   0.3648  -0.0158   0.1521   0.0472   0.00    0.0
2281 391846   16.262315733  -61.527551981   -24.1156   6  19   0.1139   0.2557   0.3630  -0.0155   0.1516   0.0468   0.00    0.0
2281 391847   16.262315785  -61.527551996   -24.1191   6  19   0.1133   0.2546   0.3612  -0.0152   0.1511   0.0463   0.00    0.0
2281 391848   16.262315835  -61.527552017   -24.1231   6  19   0.1128   0.2536   0.3594  -0.0150   0.1506   0.0459   0.00    0.0
2281 391849   16.262315899  -61.527552049   -24.1296   6  19   0.1122   0.2526   0.3576  -0.0147   0.1502   0.0455   0.00    0.0
2281 391850   16.262315962  -61.527552073   -24.1356   6  19   0.1116   0.2516   0.3559  -0.0144   0.1497   0.0451   0.00    0.0
2281 391851   16.262316027  -61.527552093   -24.1426   6  19   0.1111   0.2506   0.3541  -0.0141   0.1492   0.0447   0.00    0.0
2281 391852   16.262316089  -61.527552110   -24.1501   6  19   0.1105   0.2496   0.3524  -0.0138   0.1487   0.0443   0.00    0.0
2281 391853   16.262316149  -61.527552114   -24.1556   6  19   0.1099   0.2486   0.3506  -0.0135   0.1483   0.0440   0.00    0.0
2281 391854   16.262316196  -61.527552135   -24.1530   6  19   0.1094   0.2476   0.3489  -0.0132   0.1478   0.0436   0.00    0.0
2281 391855   16.262316241  -61.527552154   -24.1510   6  19   0.1089   0.2467   0.3472  -0.0129   0.1473   0.0432   0.00    0.0
2281 391856   16.262316279  -61.527552178   -24.1474   6  19   0.1083   0.2457   0.3455  -0.0126   0.1469   0.0428   0.00    0.0
2281 391857   16.262316311  -61.527552200   -24.1446   6  19   0.1078   0.2447   0.3438  -0.0123   0.1464   0.0424   0.00    0.0
2281 391858   16.262316343  -61.527552238   -24.1447   6  19   0.1073   0.2438   0.3422  -0.0121   0.1459   0.0421   0.00    0.0
2281 391859   16.262316381  -61.527552272   -24.1455   6  19   0.1067   0.2428   0.3405  -0.0118   0.1455   0.0417   0.00    0.0
2281 391860   16.262316429  -61.527552306   -24.1472   6  19   0.1062   0.2419   0.3389  -0.0115   0.1450   0.0414   0.00    0.0
2281 391861   16.262316481  -61.527552337   -24.1516   6  19   0.1057   0.2409   0.3373  -0.0112   0.1446   0.0410   0.00    0.0
2281 391862   16.262316536  -61.527552365   -24.1566   6  19   0.1052   0.2400   0.3356  -0.0109   0.1441   0.0406   0.00    0.0
2281 391863   16.262316594  -61.527552399   -24.1628   6  19   0.1047   0.2391   0.3340  -0.0106   0.1437   0.0403   0.00    0.0
2281 391864   16.262316667  -61.527552451   -24.1633   6  19   0.1042   0.2381   0.3325  -0.0103   0.1432   0.0399   0.00    0.0
2281 391865   16.262316743  -61.527552493   -24.1620   6  19   0.1037   0.2372   0.3309  -0.0100   0.1427   0.0396   0.00    0.0
2281 391866   16.262316814  -61.527552537   -24.1609   6  19   0.1032   0.2363   0.3293  -0.0097   0.1423   0.0393   0.00    0.0
2281 391867   16.262316885  -61.527552572   -24.1596   6  19   0.1027   0.2354   0.3277  -0.0093   0.1418   0.0389   0.00    0.0
2281 391868   16.262316954  -61.527552602   -24.1593   6  19   0.1022   0.2345   0.3262  -0.0090   0.1414   0.0386   0.00    0.0
2281 391869   16.262317022  -61.527552623   -24.1544   6  19   0.1017   0.2336   0.3247  -0.0087   0.1410   0.0383   0.00    0.0
2281 391870   16.262317090  -61.527552650   -24.1535   6  19   0.1012   0.2327   0.3231  -0.0084   0.1405   0.0379   0.00    0.0
2281 391871   16.262317160  -61.527552666   -24.1539   6  19   0.1007   0.2318   0.3216  -0.0081   0.1401   0.0376   0.00    0.0
2281 391872   16.262317227  -61.527552670   -24.1550   6  19   0.1003   0.2309   0.3201  -0.0077   0.1396   0.0373   0.00    0.0
2281 391873   16.262317289  -61.527552664   -24.1552   6  19   0.0998   0.2301   0.3186  -0.0074   0.1392   0.0370   0.00    0.0
2281 391874   16.262317335  -61.527552694   -24.1560   6  19   0.0993   0.2292   0.3172  -0.0070   0.1387   0.0366   0.00    0.0
2281 391875   16.262317377  -61.527552710   -24.1572   6  19   0.0989   0.2283   0.3157  -0.0067   0.1383   0.0363   0.00    0.0
2281 391876   16.262317418  -61.527552729   -24.1589   6  19   0.0984   0.2275   0.3142  -0.0063   0.1379   0.0360   0.00    0.0
2281 391877   16.262317458  -61.527552739   -24.1617   6  19   0.0979   0.2266   0.3128  -0.0059   0.1374   0.0357   0.00    0.0
2281 391878   16.262317492  -61.527552741   -24.1631   6  19   0.0975   0.2258   0.3113  -0.0055   0.1370   0.0354   0.00    0.0
2281 391879   16.262317526  -61.527552769   -24.1619   6  19   0.0970   0.2249   0.3099  -0.0050   0.1366   0.0351   0.00    0.0
2281 391880   16.262317563  -61.527552794   -24.1611   6  19   0.0966   0.2241   0.3085  -0.0046   0.1361   0.0348   0.00    0.0
2281 391881   16.262317599  -61.527552821   -24.1611   6  19   0.0962   0.2232   0.3071  -0.0041   0.1357   0.0345   0.00    0.0
2281 391882   16.262317636  -61.527552843   -24.1610   6  19   0.0957   0.2224   0.3057  -0.0035   0.1353   0.0342   0.00    0.0
2281 391883   16.262317672  -61.527552853   -24.1602   6  19   0.0953   0.2216   0.3043  -0.0028   0.1349   0.0339   0.00    0.0
2281 391884   16.262317709  -61.527552875   -24.1576   6  19   0.0948   0.2208   0.3029  -0.0020   0.1344   0.0337   0.00    0.0
2281 391885   16.262317746  -61.527552895   -24.1547   6  19   0.0944   0.2199   0.3015   0.0004   0.1340   0.0334   0.00    0.0
2281 391886   16.262317780  -61.527552913   -24.1516   6  19   0.0940   0.2191   0.3002   0.0020   0.1336   0.0331   0.00    0.0
2281 391887   16.262317817  -61.527552928   -24.1482   6  19   0.0936   0.2183   0.2988   0.0028   0.1332   0.0328   0.00    0.0
2281 391888   16.262317849  -61.527552944   -24.1443   6  19   0.0932   0.2175   0.2975   0.0034   0.1328   0.0325   0.00    0.0
2281 391889   16.262317885  -61.527552961   -24.1402   6  19   0.0927   0.2167   0.2962   0.0039   0.1323   0.0323   0.00    0.0
2281 391890   16.262317895  -61.527552991   -24.1442   6  19   0.0923   0.2159   0.2948   0.0044   0.1319   0.0320   0.00    0.0
2281 391891   16.262317912  -61.527553009   -24.1475   6  19   0.0919   0.2151   0.2935   0.0047   0.1315   0.0317   0.00    0.0
2281 391892   16.262317930  -61.527553025   -24.1509   6  19   0.0915   0.2144   0.2922   0.0051   0.1311   0.0315   0.00    0.0
2281 391893   16.262317946  -61.527553045   -24.1556   6  19   0.0911   0.2136   0.2909   0.0054   0.1307   0.0312   0.00    0.0
2281 391894   16.262317915  -61.527553009   -24.1635   6  19   0.0907   0.2128   0.2896   0.0057   0.1303   0.0309   0.00    0.0
2281 391895   16.262317885  -61.527552976   -24.1707   6  19   0.0903   0.2120   0.2884   0.0060   0.1299   0.0307   0.00    0.0
2281 391896   16.262317857  -61.527552941   -24.1777   6  19   0.0899   0.2113   0.2871   0.0062   0.1295   0.0304   0.00    0.0
2281 391897   16.262317835  -61.527552914   -24.1842   6  19   0.0895   0.2105   0.2858   0.0065   0.1291   0.0302   0.00    0.0
2281 391898   16.262317816  -61.527552889   -24.1905   6  19   0.0891   0.2097   0.2846   0.0067   0.1287   0.0299   0.00    0.0
2281 391899   16.262317797  -61.527552868   -24.1988   6  19   0.0887   0.2090   0.2834   0.0069   0.1283   0.0297   0.00    0.0
2281 391900   16.262317739  -61.527552834   -24.2114   6  19   0.0884   0.2082   0.2821   0.0071   0.1279   0.0294   0.00    0.0
2281 391901   16.262317679  -61.527552794   -24.2220   6  19   0.0880   0.2075   0.2809   0.0073   0.1275   0.0292   0.00    0.0
2281 391902   16.262317618  -61.527552757   -24.2325   6  19   0.0876   0.2068   0.2797   0.0075   0.1271   0.0289   0.00    0.0
2281 391903   16.262317555  -61.527552717   -24.2416   6  19   0.0872   0.2060   0.2785   0.0077   0.1267   0.0287   0.00    0.0
2281 391904   16.262317474  -61.527552669   -24.2529   6  19   0.0869   0.2053   0.2773   0.0079   0.1263   0.0284   0.00    0.0
2281 391905   16.262317396  -61.527552617   -24.2646   6  19   0.0865   0.2046   0.2761   0.0080   0.1259   0.0282   0.00    0.0
2281 391906   16.262317320  -61.527552563   -24.2762   6  19   0.0861   0.2038   0.2749   0.0082   0.1255   0.0280   0.00    0.0
2281 391907   16.262317245  -61.527552501   -24.2863   6  19   0.0858   0.2031   0.2737   0.0083   0.1251   0.0277   0.00    0.0
2281 391908   16.262317168  -61.527552454   -24.2974   6  19   0.0854   0.2024   0.2726   0.0085   0.1247   0.0275   0.00    0.0
2281 391909   16.262317093  -61.527552405   -24.3111   6  19   0.0850   0.2017   0.2714   0.0086   0.1243   0.0273   0.00    0.0
2281 391910   16.262317021  -61.527552353   -24.3245   6  19   0.0847   0.2010   0.2702   0.0087   0.1239   0.0271   0.00    0.0
2281 391911   16.262316950  -61.527552315   -24.3391   6  19   0.0843   0.2003   0.2691   0.0089   0.1236   0.0268   0.00    0.0
2281 391912   16.262316879  -61.527552277   -24.3531   6  19   0.0840   0.1996   0.2680   0.0090   0.1232   0.0266   0.00    0.0
2281 391913   16.262316808  -61.527552237   -24.3673   6  19   0.0836   0.1989   0.2668   0.0091   0.1228   0.0264   0.00    0.0
2281 391914   16.262316721  -61.527552174   -24.3816   6  19   0.0833   0.1982   0.2657   0.0092   0.1224   0.0262   0.00    0.0
2281 391915   16.262316635  -61.527552114   -24.3952   6  19   0.0829   0.1975   0.2646   0.0093   0.1220   0.0260   0.00    0.0
2281 391916   16.262316553  -61.527552057   -24.4084   6  19   0.0826   0.1968   0.2635   0.0094   0.1217   0.0258   0.00    0.0
2281 391917   16.262316474  -61.527552002   -24.4227   6  19   0.0822   0.1961   0.2624   0.0095   0.1213   0.0255   0.00    0.0
2281 391918   16.262316401  -61.527551949   -24.4376   6  19   0.0819   0.1955   0.2613   0.0096   0.1209   0.0253   0.00    0.0
2281 391919   16.262316322  -61.527551872   -24.4540   6  19   0.0816   0.1948   0.2602   0.0097   0.1205   0.0251   0.00    0.0
2281 391920   16.262316248  -61.527551798   -24.4704   6  19   0.0812   0.1941   0.2591   0.0098   0.1202   0.0249   0.00    0.0
2281 391921   16.262316172  -61.527551727   -24.4847   6  19   0.0809   0.1934   0.2581   0.0099   0.1198   0.0247   0.00    0.0
2281 391922   16.262316091  -61.527551651   -24.4983   6  19   0.0806   0.1928   0.2570   0.0100   0.1194   0.0245   0.00    0.0
2281 391923   16.262316012  -61.527551571   -24.5098   6  19   0.0803   0.1921   0.2559   0.0101   0.1191   0.0243   0.00    0.0
2281 391924   16.262315926  -61.527551496   -24.5211   6  19   0.0799   0.1915   0.2549   0.0102   0.1187   0.0241   0.00    0.0
2281 391925   16.262315842  -61.527551424   -24.5323   6  19   0.0796   0.1908   0.2538   0.0102   0.1183   0.0239   0.00    0.0
2281 391926   16.262315756  -61.527551349   -24.5425   6  19   0.0793   0.1902   0.2528   0.0103   0.1180   0.0237   0.00    0.0
2281 391927   16.262315677  -61.527551273   -24.5532   6  19   0.0790   0.1895   0.2518   0.0104   0.1176   0.0235   0.00    0.0
2281 391928   16.262315601  -61.527551189   -24.5617   6  19   0.0787   0.1889   0.2508   0.0105   0.1173   0.0233   0.00    0.0
2281 391929   16.262315522  -61.527551112   -24.5775   6  19   0.0783   0.1882   0.2497   0.0105   0.1169   0.0231   0.00    0.0
2281 391930   16.262315447  -61.527551033   -24.5943   6  19   0.0780   0.1876   0.2487   0.0106   0.1166   0.0229   0.00    0.0
2281 391931   16.262315372  -61.527550955   -24.6113   6  19   0.0777   0.1870   0.2477   0.0106   0.1162   0.0228   0.00    0.0
2281 391932   16.262315295  -61.527550873   -24.6277   6  19   0.0774   0.1863   0.2467   0.0107   0.1158   0.0226   0.00    0.0
2281 391933   16.262315218  -61.527550800   -24.6424   6  19   0.0771   0.1857   0.2457   0.0108   0.1155   0.0224   0.00    0.0
2281 391934   16.262315138  -61.527550724   -24.6532   6  19   0.0768   0.1851   0.2448   0.0108   0.1151   0.0222   0.00    0.0
2281 391935   16.262315061  -61.527550650   -24.6650   6  19   0.0765   0.1845   0.2438   0.0109   0.1148   0.0220   0.00    0.0
2281 391936   16.262314984  -61.527550574   -24.6766   6  19   0.0762   0.1839   0.2428   0.0109   0.1144   0.0218   0.00    0.0
2281 391937   16.262314907  -61.527550499   -24.6883   6  19   0.0759   0.1833   0.2418   0.0110   0.1141   0.0217   0.00    0.0
2281 391938   16.262314830  -61.527550430   -24.7010   6  19   0.0756   0.1827   0.2409   0.0110   0.1138   0.0215   0.00    0.0
2281 391939   16.262314765  -61.527550377   -24.7143   6  19   0.0753   0.1820   0.2399   0.0111   0.1134   0.0213   0.00    0.0
2281 391940   16.262314702  -61.527550321   -24.7273   6  19   0.0750   0.1814   0.2390   0.0111   0.1131   0.0211   0.00    0.0
2281 391941   16.262314636  -61.527550264   -24.7399   6  19   0.0748   0.1808   0.2380   0.0112   0.1127   0.0210   0.00    0.0
2281 391942   16.262314570  -61.527550202   -24.7520   6  19   0.0745   0.1803   0.2371   0.0112   0.1124   0.0208   0.00    0.0
2281 391943   16.262314486  -61.527550133   -24.7655   6  19   0.0742   0.1797   0.2362   0.0113   0.1121   0.0206   0.00    0.0
2281 391944   16.262314401  -61.527550057   -24.7790   6  19   0.0739   0.1791   0.2353   0.0113   0.1117   0.0204   0.00    0.0
2281 391945   16.262314316  -61.527549985   -24.7914   6  19   0.0736   0.1785   0.2343   0.0113   0.1114   0.0203   0.00    0.0
2281 391946   16.262314231  -61.527549905   -24.8028   6  19   0.0733   0.1779   0.2334   0.0114   0.1111   0.0201   0.00    0.0
2281 391947   16.262314144  -61.527549834   -24.8156   6  19   0.0731   0.1773   0.2325   0.0114   0.1107   0.0199   0.00    0.0
2281 391948   16.262314059  -61.527549763   -24.8280   6  19   0.0728   0.1767   0.2316   0.0115   0.1104   0.0198   0.00    0.0
2281 391949   16.262313977  -61.527549705   -24.8422   6  19   0.0725   0.1762   0.2307   0.0115   0.1101   0.0196   0.00    0.0
2281 391950   16.262313896  -61.527549648   -24.8560   6  19   0.0722   0.1756   0.2298   0.0115   0.1097   0.0195   0.00    0.0
2281 391951   16.262313823  -61.527549588   -24.8696   6  19   0.0720   0.1750   0.2289   0.0116   0.1094   0.0193   0.00    0.0
2281 391952   16.262313754  -61.527549534   -24.8847   6  19   0.0717   0.1745   0.2281   0.0116   0.1091   0.0191   0.00    0.0
2281 391953   16.262313686  -61.527549480   -24.9000   6  19   0.0714   0.1739   0.2272   0.0116   0.1088   0.0190   0.00    0.0
2281 391954   16.262313618  -61.527549428   -24.9158   6  19   0.0712   0.1733   0.2263   0.0116   0.1084   0.0188   0.00    0.0
2281 391955   16.262313549  -61.527549374   -24.9303   6  19   0.0709   0.1728   0.2255   0.0117   0.1081   0.0187   0.00    0.0
2281 391956   16.262313481  -61.527549318   -24.9447   6  19   0.0706   0.1722   0.2246   0.0117   0.1078   0.0185   0.00    0.0
2281 391957   16.262313416  -61.527549265   -24.9589   6  19   0.0704   0.1717   0.2238   0.0117   0.1075   0.0184   0.00    0.0
2281 391958   16.262313353  -61.527549210   -24.9730   6  19   0.0701   0.1711   0.2229   0.0118   0.1072   0.0182   0.00    0.0
2281 391959   16.262313293  -61.527549151   -24.9858   6  19   0.0699   0.1706   0.2221   0.0118   0.1068   0.0181   0.00    0.0
2281 391960   16.262313233  -61.527549102   -25.0003   6  19   0.0696   0.1701   0.2212   0.0118   0.1065   0.0179   0.00    0.0
2281 391961   16.262313173  -61.527549044   -25.0136   6  19   0.0693   0.1695   0.2204   0.0118   0.1062   0.0178   0.00    0.0
2281 391962   16.262313110  -61.527548992   -25.0284   6  19   0.0691   0.1690   0.2196   0.0118   0.1059   0.0176   0.00    0.0
2281 391963   16.262313046  -61.527548937   -25.0429   6  19   0.0688   0.1684   0.2188   0.0119   0.1056   0.0175   0.00    0.0
2281 391964   16.262312983  -61.527548880   -25.0544   6  19   0.0686   0.1679   0.2179   0.0119   0.1053   0.0173   0.00    0.0
2281 391965   16.262312919  -61.527548823   -25.0660   6  19   0.0683   0.1674   0.2171   0.0119   0.1050   0.0172   0.00    0.0
2281 391966   16.262312860  -61.527548762   -25.0778   6  19   0.0681   0.1669   0.2163   0.0119   0.1047   0.0170   0.00    0.0
2281 391967   16.262312805  -61.527548706   -25.0906   6  19   0.0679   0.1663   0.2155   0.0119   0.1044   0.0169   0.00    0.0
2281 391968   16.262312751  -61.527548656   -25.1047   6  19   0.0676   0.1658   0.2147   0.0120   0.1041   0.0168   0.00    0.0
2281 391969   16.262312698  -61.527548606   -25.1201   6  19   0.0674   0.1653   0.2139   0.0120   0.1038   0.0166   0.00    0.0
2281 391970   16.262312648  -61.527548559   -25.1354   6  19   0.0671   0.1648   0.2131   0.0120   0.1035   0.0165   0.00    0.0
2281 391971   16.262312601  -61.527548504   -25.1489   6  19   0.0669   0.1643   0.2124   0.0120   0.1032   0.0163   0.00    0.0
2281 391972   16.262312552  -61.527548449   -25.1626   6  19   0.0667   0.1638   0.2116   0.0120   0.1029   0.0162   0.00    0.0
2281 391973   16.262312478  -61.527548383   -25.1753   6  19   0.0664   0.1633   0.2108   0.0120   0.1026   0.0161   0.00    0.0
2281 391974   16.262312404  -61.527548324   -25.1888   6  19   0.0662   0.1627   0.2100   0.0120   0.1023   0.0159   0.00    0.0
2281 391975   16.262312331  -61.527548261   -25.2023   6  19   0.0659   0.1622   0.2093   0.0120   0.1020   0.0158   0.00    0.0
2281 391976   16.262312263  -61.527548200   -25.2147   6  19   0.0657   0.1617   0.2085   0.0121   0.1017   0.0157   0.00    0.0
2281 391977   16.262312194  -61.527548138   -25.2264   6  19   0.0655   0.1612   0.2078   0.0121   0.1014   0.0155   0.00    0.0
2281 391978   16.262312124  -61.527548083   -25.2393   6  19   0.0653   0.1608   0.2070   0.0121   0.1011   0.0154   0.00    0.0
2281 391979   16.262312057  -61.527548025   -25.2525   6  19   0.0650   0.1603   0.2063   0.0121   0.1008   0.0153   0.00    0.0
2281 391980   16.262311992  -61.527547968   -25.2663   6  19   0.0648   0.1598   0.2055   0.0121   0.1005   0.0151   0.00    0.0
2281 391981   16.262311929  -61.527547909   -25.2794   6  19   0.0646   0.1593   0.2048   0.0121   0.1002   0.0150   0.00    0.0
2281 391982   16.262311868  -61.527547849   -25.2919   6  19   0.0644   0.1588   0.2040   0.0121   0.0999   0.0149   0.00    0.0
2281 391983   16.262311809  -61.527547792   -25.3045   6  19   0.0641   0.1583   0.2033   0.0121   0.0996   0.0148   0.00    0.0
2281 391984   16.262311737  -61.527547725   -25.3178   6  19   0.0639   0.1578   0.2026   0.0121   0.0994   0.0146   0.00    0.0
2281 391985   16.262311666  -61.527547669   -25.3322   6  19   0.0637   0.1574   0.2019   0.0121   0.0991   0.0145   0.00    0.0
2281 391986   16.262311597  -61.527547615   -25.3462   6  19   0.0635   0.1569   0.2012   0.0121   0.0988   0.0144   0.00    0.0
2281 391987   16.262311532  -61.527547563   -25.3599   6  19   0.0633   0.1564   0.2004   0.0121   0.0985   0.0143   0.00    0.0
2281 391988   16.262311468  -61.527547512   -25.3725   6  19   0.0630   0.1559   0.1997   0.0121   0.0982   0.0141   0.00    0.0
2281 391989   16.262311405  -61.527547456   -25.3850   6  19   0.0628   0.1555   0.1990   0.0121   0.0980   0.0140   0.00    0.0
2281 391990   16.262311332  -61.527547385   -25.3969   6  19   0.0626   0.1550   0.1983   0.0121   0.0977   0.0139   0.00    0.0
2281 391991   16.262311259  -61.527547320   -25.4085   6  19   0.0624   0.1545   0.1976   0.0121   0.0974   0.0138   0.00    0.0
2281 391992   16.262311187  -61.527547264   -25.4205   6  19   0.0622   0.1541   0.1969   0.0122   0.0971   0.0137   0.00    0.0
2281 391993   16.262311118  -61.527547205   -25.4323   6  19   0.0620   0.1536   0.1962   0.0122   0.0969   0.0136   0.00    0.0
2281 391994   16.262311051  -61.527547144   -25.4470   6  19   0.0618   0.1532   0.1956   0.0122   0.0966   0.0134   0.00    0.0
2281 391995   16.262310989  -61.527547081   -25.4617   6  19   0.0616   0.1527   0.1949   0.0122   0.0963   0.0133   0.00    0.0
2281 391996   16.262310933  -61.527547023   -25.4768   6  19   0.0614   0.1523   0.1942   0.0122   0.0960   0.0132   0.00    0.0
2281 391997   16.262310879  -61.527546965   -25.4918   6  19   0.0612   0.1518   0.1935   0.0122   0.0958   0.0131   0.00    0.0
