%  GPST Time  latitude(deg) longitude(deg)  height(m)   Q  ns   sdn(m)   sde(m)   sdu(m)  sdne(m)  sdeu(m)  sdun(m) age(s)  ratio
2261 237780   47.834025342    7.596212213   292.1151   6   6  29.7745  21.2300  36.2716  23.3245  18.8903  25.8488   0.00    0.0
2261 237781   47.834010942    7.596215451   288.8005   6   6  24.2805  16.8641  29.6346  19.0796  16.6413  22.3114   0.00    0.0
2261 237782   47.833997398    7.596204088   285.4362   6   6  21.0855  14.4936  25.7505  16.5818  14.8544  19.7795   0.00    0.0
2261 237783   47.833996589    7.596204964   285.4073   6   6  18.9060  12.9234  23.0957  14.8728  13.5088  17.9256   0.00    0.0
2261 237784   47.834011442    7.596217093   287.8601   6   6  17.2923  11.7795  21.1283  13.6060  12.4630  16.5031   0.00    0.0
2261 237785   47.834010301    7.596214908   288.1987   6   6  16.0340  10.8966  19.5932  12.6175  11.6237  15.3700   0.00    0.0
2261 237786   47.834012139    7.596216277   288.7048   6   6  15.0166  10.1879  18.3517  11.8180  10.9322  14.4407   0.00    0.0
2261 237787   47.834011959    7.596215785   288.7721   6   6  14.1718   9.6023  17.3204  11.1539  10.3501  13.6610   0.00    0.0
2261 237788   47.834015466    7.596217650   289.2472   6   6  13.4555   9.1078  16.4459  10.5907   9.8516  12.9950   0.00    0.0
2261 237789   47.834018298    7.596220226   289.6494   6   6  12.8380   8.6829  15.6919  10.1053   9.4186  12.4175   0.00    0.0
2261 237790   47.834023829    7.596225459   290.5163   6   6  12.2986   8.3127  15.0332   9.6811   9.0380  11.9106   0.00    0.0
2261 237791   47.834016492    7.596219182   289.4100   6   6  11.8220   7.9862  14.4511   9.3063   8.7000  11.4610   0.00    0.0
2261 237792   47.834019024    7.596221560   289.6674   6   6  11.3969   7.6955  13.9319   8.9720   8.3973  11.0586   0.00    0.0
2261 237793   47.834011819    7.596215788   288.5612   6   6  11.0146   7.4345  13.4650   8.6714   8.1241  10.6959   0.00    0.0
2261 237794   47.834009500    7.596213701   288.1129   6   6  10.6685   7.1985  13.0422   8.3992   7.8759  10.3666   0.00    0.0
2261 237795   47.834007488    7.596212410   287.5910   6   6  10.3530   6.9836  12.6568   8.1511   7.6492  10.0660   0.00    0.0
2261 237796   47.834011693    7.596215626   288.2973   6   6  10.0640   6.7870  12.3038   7.9238   7.4411   9.7900   0.00    0.0
2261 237797   47.834005915    7.596211808   287.0124   6   6   9.7980   6.6061  11.9788   7.7146   7.2491   9.5356   0.00    0.0
2261 237798   47.834003661    7.596209573   286.5704   6   6   9.5520   6.4390  11.6782   7.5211   7.0713   9.3001   0.00    0.0
2261 237799   47.834004057    7.596210176   286.5352   6   6   9.3236   6.2840  11.3993   7.3415   6.9059   9.0811   0.00    0.0
2261 237800   47.833997133    7.596205087   285.1632   6   6   9.1109   6.1397  11.1394   7.1743   6.7517   8.8770   0.00    0.0
2261 237801   47.833995544    7.596203664   284.8745   6   6   8.9122   6.0050  10.8966   7.0179   6.6074   8.6860   0.00    0.0
2261 237802   47.833994767    7.596202394   284.9644   6   6   8.7259   5.8788  10.6690   6.8714   6.4720   8.5069   0.00    0.0
2261 237803   47.833994203    7.596201338   285.0528   6   6   8.5508   5.7602  10.4550   6.7337   6.3446   8.3384   0.00    0.0
2261 237804   47.833993882    7.596200559   285.0780   6   6   8.3858   5.6485  10.2535   6.6040   6.2245   8.1795   0.00    0.0
2261 237805   47.833992372    7.596198970   284.9742   6   6   8.2301   5.5432  10.0632   6.4815   6.1110   8.0294   0.00    0.0
2261 237806   47.833995165    7.596201582   285.4118   6   6   8.0827   5.4435   9.8832   6.3656   6.0035   7.8873   0.00    0.0
2261 237807   47.833991629    7.596198735   284.7150   6   6   7.9430   5.3490   9.7125   6.2558   5.9015   7.7524   0.00    0.0
2261 237808   47.833987986    7.596195844   284.1157   6   6   7.8102   5.2593   9.5503   6.1514   5.8046   7.6243   0.00    0.0
2261 237809   47.833985676    7.596193665   283.8043   6   6   7.6840   5.1740   9.3960   6.0521   5.7123   7.5023   0.00    0.0
2261 237810   47.833986944    7.596194732   284.0791   6   6   7.5636   5.0927   9.2490   5.9575   5.6243   7.3860   0.00    0.0
2261 237811   47.833987070    7.596194565   284.1773   6   6   7.4487   5.0151   9.1086   5.8671   5.5403   7.2749   0.00    0.0
2261 237812   47.833985677    7.596193413   283.9139   6   6   7.3390   4.9410   8.9745   5.7808   5.4599   7.1687   0.00    0.0
2261 237813   47.833984967    7.596192658   283.8819   6   6   7.2339   4.8701   8.8461   5.6982   5.3830   7.0671   0.00    0.0
2261 237814   47.833985244    7.596192314   284.0643   6   6   7.1332   4.8022   8.7231   5.6190   5.3092   6.9696   0.00    0.0
2261 237815   47.833983581    7.596190504   283.8179   6   6   7.0366   4.7370   8.6051   5.5431   5.2384   6.8761   0.00    0.0
2261 237816   47.833982425    7.596189280   283.6622   6   6   6.9439   4.6745   8.4918   5.4702   5.1704   6.7862   0.00    0.0
2261 237817   47.833983178    7.596189605   283.8075   6   6   6.8547   4.6143   8.3828   5.4000   5.1050   6.6998   0.00    0.0
2261 237818   47.833982287    7.596188842   283.6552   6   6   6.7688   4.5565   8.2779   5.3326   5.0420   6.6166   0.00    0.0
2261 237819   47.833982622    7.596188897   283.7195   6   6   6.6862   4.5008   8.1769   5.2675   4.9813   6.5365   0.00    0.0
2261 237820   47.833982263    7.596188470   283.6418   6   6   6.6064   4.4470   8.0795   5.2049   4.9228   6.4591   0.00    0.0
2261 237821   47.833980834    7.596187325   283.3847   6   6   6.5295   4.3952   7.9855   5.1444   4.8663   6.3845   0.00    0.0
2261 237822   47.833981581    7.596187916   283.4372   6   6   6.4552   4.3451   7.8947   5.0859   4.8117   6.3124   0.00    0.0
2261 237823   47.833982325    7.596188548   283.4847   6   6   6.3833   4.2967   7.8069   5.0295   4.7589   6.2427   0.00    0.0
2261 237824   47.833980881    7.596187379   283.2168   6   6   6.3138   4.2500   7.7220   4.9748   4.7079   6.1753   0.00    0.0
2261 237825   47.833980124    7.596186791   283.0660   6   6   6.2466   4.2047   7.6398   4.9220   4.6584   6.1100   0.00    0.0
2261 237826   47.833981391    7.596187908   283.3480   6   6   6.1814   4.1608   7.5602   4.8707   4.6105   6.0467   0.00    0.0
2261 237827   47.833980002    7.596186635   283.1077   6   6   6.1182   4.1183   7.4831   4.8211   4.5641   5.9853   0.00    0.0
2261 237828   47.833980756    7.596187361   283.2586   6   6   6.0570   4.0771   7.4082   4.7729   4.5191   5.9258   0.00    0.0
2261 237829   47.833980002    7.596186689   283.1209   6   6   5.9975   4.0371   7.3356   4.7262   4.4753   5.8681   0.00    0.0
2261 237830   47.833979766    7.596186451   283.1098   6   6   5.9398   3.9982   7.2650   4.6808   4.4328   5.8120   0.00    0.0
2261 237831   47.833979709    7.596186560   283.0913   6   6   5.8837   3.9605   7.1965   4.6367   4.3916   5.7574   0.00    0.0
2261 237832   47.833979206    7.596186132   283.0089   6   6   5.8291   3.9238   7.1298   4.5938   4.3514   5.7044   0.00    0.0
2261 237833   47.833980134    7.596186866   283.2015   6   6   5.7761   3.8881   7.0650   4.5521   4.3124   5.6529   0.00    0.0
2261 237834   47.833981224    7.596187916   283.3720   6   6   5.7244   3.8534   7.0019   4.5116   4.2744   5.6027   0.00    0.0
2261 237835   47.833979958    7.596186841   283.2051   6   6   5.6742   3.8196   6.9405   4.4721   4.2374   5.5538   0.00    0.0
2261 237836   47.833979616    7.596186568   283.1690   6   6   5.6252   3.7867   6.8807   4.4336   4.2013   5.5061   0.00    0.0
2261 237837   47.833981001    7.596187672   283.4244   6   6   5.5775   3.7546   6.8224   4.3961   4.1662   5.4597   0.00    0.0
2261 237838   47.833979289    7.596186297   283.0529   6   6   5.5309   3.7233   6.7656   4.3595   4.1319   5.4145   0.00    0.0
2261 237839   47.833977298    7.596184718   282.6977   6   6   5.4856   3.6928   6.7101   4.3238   4.0985   5.3703   0.00    0.0
2261 237840   47.833977717    7.596185097   282.7861   6   7   5.3863   3.6472   6.5526   4.2583   4.0166   5.2419   0.00    0.0
2261 237841   47.833977840    7.596185117   282.8329   6   7   5.2939   3.6040   6.4069   4.1969   3.9407   5.1232   0.00    0.0
2261 237842   47.833977551    7.596184729   282.8663   6   7   5.2076   3.5630   6.2716   4.1391   3.8699   5.0129   0.00    0.0
2261 237843   47.833977423    7.596184702   282.8736   6   7   5.1266   3.5239   6.1454   4.0846   3.8036   4.9101   0.00    0.0
2261 237844   47.833977077    7.596184557   282.8821   6   7   5.0503   3.4866   6.0274   4.0330   3.7415   4.8140   0.00    0.0
2261 237845   47.833976589    7.596184279   282.8800   6   7   4.9783   3.4509   5.9167   3.9840   3.6830   4.7238   0.00    0.0
2261 237846   47.833976255    7.596184138   282.8870   6   7   4.9102   3.4166   5.8126   3.9373   3.6277   4.6390   0.00    0.0
2261 237847   47.833976624    7.596184608   282.9551   6   7   4.8455   3.3837   5.7143   3.8927   3.5754   4.5590   0.00    0.0
2261 237848   47.833976547    7.596184697   282.9641   6   7   4.7839   3.3520   5.6214   3.8501   3.5258   4.4833   0.00    0.0
2261 237849   47.833976641    7.596184887   282.9769   6   7   4.7253   3.3214   5.5333   3.8093   3.4786   4.4117   0.00    0.0
2261 237850   47.833976576    7.596184853   282.9800   6   7   4.6692   3.2918   5.4497   3.7701   3.4336   4.3436   0.00    0.0
2261 237851   47.833976637    7.596184922   283.0220   6   7   4.6155   3.2632   5.3702   3.7324   3.3907   4.2789   0.00    0.0
2261 237852   47.833976806    7.596185122   283.0355   6   7   4.5641   3.2355   5.2944   3.6961   3.3496   4.2173   0.00    0.0
2261 237853   47.833976588    7.596185138   283.0084   6   7   4.5147   3.2087   5.2220   3.6611   3.3103   4.1584   0.00    0.0
2261 237854   47.833976591    7.596185237   283.0308   6   7   4.4672   3.1826   5.1528   3.6273   3.2726   4.1022   0.00    0.0
2261 237855   47.833976491    7.596185189   283.0728   6   7   4.4215   3.1573   5.0866   3.5947   3.2364   4.0483   0.00    0.0
2261 237856   47.833976373    7.596185268   283.0819   6   7   4.3774   3.1327   5.0231   3.5630   3.2015   3.9967   0.00    0.0
2261 237857   47.833976133    7.596185115   283.0942   6   7   4.3349   3.1088   4.9621   3.5324   3.1680   3.9472   0.00    0.0
2261 237858   47.833976295    7.596185269   283.1270   6   7   4.2938   3.0855   4.9035   3.5027   3.1356   3.8995   0.00    0.0
2261 237859   47.833976094    7.596185044   283.1228   6   7   4.2540   3.0628   4.8471   3.4739   3.1044   3.8538   0.00    0.0
2261 237860   47.833975929    7.596184854   283.1416   6   7   4.2155   3.0407   4.7928   3.4459   3.0742   3.8096   0.00    0.0
2261 237861   47.833975964    7.596184942   283.1368   6   7   4.1782   3.0191   4.7405   3.4186   3.0451   3.7671   0.00    0.0
2261 237862   47.833976003    7.596184953   283.1658   6   7   4.1421   2.9980   4.6899   3.3922   3.0168   3.7261   0.00    0.0
2261 237863   47.833976077    7.596184951   283.1965   6   7   4.1070   2.9774   4.6411   3.3664   2.9895   3.6865   0.00    0.0
2261 237864   47.833976207    7.596185013   283.2328   6   7   4.0729   2.9573   4.5939   3.3413   2.9629   3.6482   0.00    0.0
2261 237865   47.833976219    7.596185080   283.2626   6   7   4.0398   2.9376   4.5483   3.3168   2.9372   3.6111   0.00    0.0
2261 237866   47.833976115    7.596184977   283.2713   6   7   4.0075   2.9184   4.5040   3.2929   2.9122   3.5752   0.00    0.0
2261 237867   47.833975818    7.596184679   283.2877   6   7   3.9761   2.8996   4.4612   3.2696   2.8879   3.5405   0.00    0.0
2261 237868   47.833975699    7.596184476   283.2943   6   7   3.9456   2.8811   4.4196   3.2468   2.8643   3.5068   0.00    0.0
2261 237869   47.833975718    7.596184414   283.3556   6   7   3.9158   2.8631   4.3793   3.2246   2.8413   3.4741   0.00    0.0
2261 237870   47.833975627    7.596184453   283.3859   6   7   3.8868   2.8454   4.3401   3.2029   2.8190   3.4423   0.00    0.0
2261 237871   47.833975441    7.596184302   283.3883   6   7   3.8585   2.8281   4.3021   3.1816   2.7972   3.4115   0.00    0.0
2261 237872   47.833975485    7.596184344   283.3934   6   7   3.8308   2.8111   4.2651   3.1608   2.7760   3.3815   0.00    0.0
2261 237873   47.833975390    7.596184255   283.3948   6   7   3.8038   2.7944   4.2291   3.1405   2.7553   3.3523   0.00    0.0
2261 237874   47.833975398    7.596184286   283.4187   6   7   3.7774   2.7780   4.1940   3.1206   2.7351   3.3239   0.00    0.0
2261 237875   47.833975457    7.596184265   283.4327   6   7   3.7517   2.7620   4.1599   3.1011   2.7153   3.2963   0.00    0.0
2261 237876   47.833975221    7.596183961   283.4423   6   7   3.7265   2.7462   4.1267   3.0820   2.6961   3.2693   0.00    0.0
2261 237877   47.833975291    7.596184033   283.4491   6   7   3.7018   2.7308   4.0943   3.0632   2.6773   3.2431   0.00    0.0
2261 237878   47.833975076    7.596183810   283.4568   6   7   3.6777   2.7156   4.0626   3.0449   2.6589   3.2175   0.00    0.0
2261 237879   47.833975045    7.596183871   283.4742   6   7   3.6540   2.7007   4.0318   3.0269   2.6409   3.1925   0.00    0.0
2261 237880   47.833974920    7.596183786   283.4832   6   7   3.6309   2.6860   4.0017   3.0092   2.6233   3.1681   0.00    0.0
2261 237881   47.833974904    7.596183749   283.5026   6   7   3.6082   2.6716   3.9723   2.9919   2.6061   3.1443   0.00    0.0
2261 237882   47.833975000    7.596183894   283.5346   6   7   3.5860   2.6574   3.9436   2.9748   2.5893   3.1211   0.00    0.0
2261 237883   47.833974889    7.596183825   283.5581   6   7   3.5642   2.6435   3.9155   2.9581   2.5728   3.0984   0.00    0.0
2261 237884   47.833974823    7.596183800   283.5688   6   7   3.5429   2.6297   3.8881   2.9417   2.5566   3.0762   0.00    0.0
2261 237885   47.833974810    7.596183720   283.5757   6   7   3.5219   2.6163   3.8612   2.9256   2.5408   3.0544   0.00    0.0
2261 237886   47.833974911    7.596183842   283.5857   6   7   3.5013   2.6030   3.8350   2.9097   2.5253   3.0332   0.00    0.0
2261 237887   47.833974997    7.596183935   283.6035   6   7   3.4811   2.5899   3.8093   2.8941   2.5100   3.0124   0.00    0.0
2261 237888   47.833974851    7.596183809   283.5970   6   7   3.4613   2.5770   3.7841   2.8788   2.4951   2.9920   0.00    0.0
2261 237889   47.833974596    7.596183565   283.5998   6   7   3.4419   2.5644   3.7594   2.8637   2.4805   2.9721   0.00    0.0
2261 237890   47.833974396    7.596183293   283.6006   6   7   3.4228   2.5519   3.7353   2.8489   2.4661   2.9526   0.00    0.0
2261 237891   47.833974475    7.596183388   283.6120   6   7   3.4040   2.5396   3.7116   2.8344   2.4520   2.9334   0.00    0.0
2261 237892   47.833974335    7.596183226   283.6207   6   7   3.3855   2.5275   3.6884   2.8200   2.4381   2.9147   0.00    0.0
2261 237893   47.833974495    7.596183381   283.6164   6   7   3.3674   2.5156   3.6657   2.8059   2.4245   2.8963   0.00    0.0
2261 237894   47.833974442    7.596183320   283.6218   6   7   3.3495   2.5038   3.6434   2.7920   2.4112   2.8782   0.00    0.0
2261 237895   47.833974478    7.596183416   283.6223   6   7   3.3320   2.4923   3.6215   2.7783   2.3980   2.8605   0.00    0.0
2261 237896   47.833974502    7.596183454   283.6293   6   7   3.3147   2.4808   3.6000   2.7648   2.3851   2.8432   0.00    0.0
2261 237897   47.833974562    7.596183558   283.6402   6   7   3.2977   2.4696   3.5789   2.7515   2.3724   2.8261   0.00    0.0
2261 237898   47.833974630    7.596183655   283.6593   6   7   3.2810   2.4585   3.5582   2.7385   2.3599   2.8094   0.00    0.0
2261 237899   47.833974643    7.596183601   283.6689   6   7   3.2645   2.4475   3.5379   2.7256   2.3477   2.7930   0.00    0.0
2261 237900   47.833974541    7.596183540   283.6910   6   7   3.2483   2.4367   3.5179   2.7129   2.3356   2.7768   0.00    0.0
2261 237901   47.833974314    7.596183311   283.6822   6   7   3.2324   2.4261   3.4983   2.7003   2.3237   2.7610   0.00    0.0
2261 237902   47.833974281    7.596183230   283.6745   6   7   3.2167   2.4155   3.4790   2.6880   2.3120   2.7454   0.00    0.0
2261 237903   47.833974483    7.596183410   283.6783   6   7   3.2012   2.4052   3.4601   2.6758   2.3005   2.7301   0.00    0.0
2261 237904   47.833974572    7.596183607   283.6962   6   7   3.1860   2.3949   3.4415   2.6638   2.2892   2.7151   0.00    0.0
2261 237905   47.833975225    7.596184366   283.7705   6   9   3.0786   2.3136   3.3776   2.5678   2.2081   2.6224   0.00    0.0
2261 237906   47.833974844    7.596183959   283.7590   6   9   2.9817   2.2402   3.3197   2.4811   2.1351   2.5388   0.00    0.0
2261 237907   47.833975287    7.596184462   283.8045   6   9   2.8938   2.1736   3.2668   2.4024   2.0688   2.4628   0.00    0.0
2261 237908   47.833976014    7.596185309   283.8670   6   9   2.8135   2.1128   3.2182   2.3304   2.0083   2.3933   0.00    0.0
2261 237909   47.833976659    7.596186079   283.9217   6   9   2.7398   2.0569   3.1731   2.2643   1.9528   2.3294   0.00    0.0
2261 237910   47.833976124    7.596185563   283.9021   6   9   2.6719   2.0055   3.1313   2.2033   1.9016   2.2705   0.00    0.0
2261 237911   47.833975760    7.596185190   283.8921   6   9   2.6090   1.9578   3.0921   2.1468   1.8543   2.2158   0.00    0.0
2261 237912   47.833975763    7.596185275   283.9196   6   9   2.5505   1.9135   3.0554   2.0942   1.8103   2.1650   0.00    0.0
2261 237913   47.833975375    7.596184890   283.8851   6   9   2.4960   1.8721   3.0208   2.0452   1.7693   2.1175   0.00    0.0
2261 237914   47.833975241    7.596184781   283.8995   6   9   2.4449   1.8335   2.9881   1.9993   1.7310   2.0731   0.00    0.0
2261 237915   47.833974965    7.596184564   283.8863   6   9   2.3970   1.7972   2.9571   1.9562   1.6951   2.0313   0.00    0.0
2261 237916   47.833974874    7.596184462   283.8764   6   9   2.3520   1.7631   2.9276   1.9157   1.6614   1.9920   0.00    0.0
2261 237917   47.833974641    7.596184275   283.8478   6   9   2.3095   1.7309   2.8996   1.8775   1.6296   1.9548   0.00    0.0
2261 237918   47.833975041    7.596184758   283.8717   6   9   2.2694   1.7005   2.8727   1.8413   1.5996   1.9197   0.00    0.0
2261 237919   47.833975158    7.596184825   283.8847   6   9   2.2314   1.6717   2.8471   1.8071   1.5712   1.8864   0.00    0.0
2261 237920   47.833975248    7.596184951   283.8973   6   9   2.1953   1.6443   2.8224   1.7746   1.5443   1.8548   0.00    0.0
2261 237921   47.833974909    7.596184580   283.8790   6   9   2.1610   1.6183   2.7988   1.7437   1.5187   1.8247   0.00    0.0
2261 237922   47.833975000    7.596184691   283.8804   6   9   2.1283   1.5936   2.7760   1.7143   1.4944   1.7960   0.00    0.0
2261 237923   47.833974630    7.596184383   283.8564   6   9   2.0972   1.5700   2.7541   1.6863   1.4713   1.7686   0.00    0.0
2261 237924   47.833974640    7.596184443   283.8641   6   9   2.0674   1.5475   2.7329   1.6595   1.4492   1.7424   0.00    0.0
2261 237925   47.833974915    7.596184829   283.8961   6   9   2.0390   1.5259   2.7124   1.6339   1.4281   1.7174   0.00    0.0
2261 237926   47.833975026    7.596185055   283.8989   6   9   2.0117   1.5053   2.6926   1.6094   1.4079   1.6933   0.00    0.0
2261 237927   47.833975262    7.596185409   283.9295   6   9   1.9856   1.4855   2.6734   1.5859   1.3886   1.6703   0.00    0.0
2261 237928   47.833975303    7.596185591   283.9333   6   9   1.9605   1.4665   2.6548   1.5633   1.3701   1.6481   0.00    0.0
2261 237929   47.833975350    7.596185743   283.9482   6   9   1.9364   1.4483   2.6368   1.5417   1.3523   1.6268   0.00    0.0
2261 237930   47.833975563    7.596186082   283.9772   6   9   1.9132   1.4307   2.6192   1.5208   1.3352   1.6063   0.00    0.0
2261 237931   47.833975471    7.596186028   283.9884   6   9   1.8908   1.4138   2.6021   1.5007   1.3187   1.5866   0.00    0.0
2261 237932   47.833975468    7.596185989   283.9902   6   9   1.8693   1.3975   2.5855   1.4814   1.3029   1.5675   0.00    0.0
2261 237933   47.833976047    7.596186667   284.0375   6   9   1.8485   1.3818   2.5694   1.4628   1.2876   1.5491   0.00    0.0
2261 237934   47.833976251    7.596186947   284.0567   6   9   1.8285   1.3666   2.5536   1.4448   1.2729   1.5313   0.00    0.0
2261 237935   47.833975943    7.596186580   284.0408   6   9   1.8091   1.3519   2.5382   1.4274   1.2587   1.5141   0.00    0.0
2261 237936   47.833976022    7.596186688   284.0618   6   9   1.7903   1.3377   2.5232   1.4105   1.2450   1.4975   0.00    0.0
2261 237937   47.833975751    7.596186344   284.0362   6   9   1.7722   1.3240   2.5086   1.3943   1.2317   1.4813   0.00    0.0
2261 237938   47.833975720    7.596186278   284.0227   6   9   1.7546   1.3107   2.4942   1.3785   1.2189   1.4657   0.00    0.0
2261 237939   47.833975578    7.596186157   284.0163   6   9   1.7375   1.2978   2.4802   1.3633   1.2065   1.4506   0.00    0.0
2261 237940   47.833975553    7.596186131   284.0090   6   9   1.7210   1.2853   2.4666   1.3485   1.1945   1.4359   0.00    0.0
2261 237941   47.833975329    7.596185933   283.9726   6   9   1.7050   1.2732   2.4532   1.3341   1.1828   1.4216   0.00    0.0
2261 237942   47.833975304    7.596186016   283.9647   6   9   1.6894   1.2614   2.4400   1.3202   1.1715   1.4077   0.00    0.0
2261 237943   47.833975177    7.596185868   283.9493   6   9   1.6742   1.2500   2.4272   1.3067   1.1605   1.3942   0.00    0.0
2261 237944   47.833974932    7.596185593   283.9353   6   9   1.6595   1.2389   2.4146   1.2935   1.1498   1.3811   0.00    0.0
2261 237945   47.833974782    7.596185367   283.9142   6   9   1.6452   1.2280   2.4022   1.2808   1.1395   1.3683   0.00    0.0
2261 237946   47.833974507    7.596185096   283.8820   6   9   1.6313   1.2175   2.3901   1.2683   1.1294   1.3559   0.00    0.0
2261 237947   47.833974323    7.596184925   283.8701   6   9   1.6177   1.2072   2.3783   1.2563   1.1196   1.3438   0.00    0.0
2261 237948   47.833974340    7.596185021   283.8678   6   9   1.6045   1.1973   2.3666   1.2445   1.1101   1.3320   0.00    0.0
2261 237949   47.833974584    7.596185309   283.8955   6   9   1.5916   1.1875   2.3552   1.2330   1.1008   1.3205   0.00    0.0
2261 237950   47.833974528    7.596185285   283.8859   6   9   1.5790   1.1780   2.3439   1.2218   1.0918   1.3093   0.00    0.0
2261 237951   47.833974593    7.596185336   283.8946   6   9   1.5668   1.1688   2.3329   1.2109   1.0830   1.2984   0.00    0.0
2261 237952   47.833974479    7.596185248   283.8922   6   9   1.5548   1.1598   2.3220   1.2003   1.0744   1.2877   0.00    0.0
2261 237953   47.833974403    7.596185218   283.9071   6   9   1.5431   1.1509   2.3114   1.1900   1.0660   1.2772   0.00    0.0
2261 237954   47.833974343    7.596185236   283.9112   6   9   1.5317   1.1423   2.3009   1.1798   1.0579   1.2670   0.00    0.0
2261 237955   47.833974420    7.596185398   283.9189   6   9   1.5206   1.1339   2.2906   1.1700   1.0499   1.2571   0.00    0.0
2261 237956   47.833974412    7.596185387   283.9259   6   9   1.5097   1.1257   2.2804   1.1603   1.0421   1.2473   0.00    0.0
2261 237957   47.833974472    7.596185481   283.9339   6   9   1.4990   1.1177   2.2704   1.1509   1.0345   1.2378   0.00    0.0
2261 237958   47.833974571    7.596185635   283.9339   6   9   1.4886   1.1098   2.2606   1.1417   1.0271   1.2285   0.00    0.0
2261 237959   47.833974579    7.596185663   283.9473   6   9   1.4784   1.1021   2.2509   1.1327   1.0198   1.2194   0.00    0.0
2261 237960   47.833974308    7.596185469   283.9121   6  11   1.4676   1.0940   2.2410   1.1232   1.0131   1.2104   0.00    0.0
2261 237961   47.833974242    7.596185488   283.9076   6  11   1.4570   1.0861   2.2313   1.1140   1.0066   1.2016   0.00    0.0
2261 237962   47.833974136    7.596185441   283.8923   6  11   1.4467   1.0783   2.2217   1.1051   1.0002   1.1930   0.00    0.0
2261 237963   47.833974124    7.596185539   283.9024   6  11   1.4366   1.0708   2.2123   1.0963   0.9939   1.1846   0.00    0.0
2261 237964   47.833974162    7.596185724   283.9270   6  11   1.4267   1.0634   2.2030   1.0877   0.9878   1.1763   0.00    0.0
2261 237965   47.833974085    7.596185708   283.9184   6  11   1.4170   1.0561   2.1938   1.0793   0.9818   1.1682   0.00    0.0
2261 237966   47.833974096    7.596185815   283.9218   6  11   1.4075   1.0490   2.1848   1.0711   0.9759   1.1603   0.00    0.0
2261 237967   47.833974232    7.596186032   283.9306   6  11   1.3983   1.0421   2.1759   1.0630   0.9702   1.1525   0.00    0.0
2261 237968   47.833974188    7.596186027   283.9212   6  11   1.3892   1.0352   2.1671   1.0552   0.9646   1.1449   0.00    0.0
2261 237969   47.833974182    7.596186119   283.9045   6  11   1.3802   1.0286   2.1584   1.0475   0.9590   1.1374   0.00    0.0
2261 237970   47.833974181    7.596186233   283.9002   6  11   1.3715   1.0220   2.1499   1.0399   0.9536   1.1301   0.00    0.0
2261 237971   47.833974013    7.596186151   283.8794   6  11   1.3629   1.0156   2.1415   1.0325   0.9483   1.1229   0.00    0.0
2261 237972   47.833974038    7.596186210   283.8772   6  11   1.3545   1.0093   2.1332   1.0252   0.9431   1.1158   0.00    0.0
2261 237973   47.833973937    7.596186195   283.8699   6  11   1.3462   1.0032   2.1250   1.0181   0.9380   1.1088   0.00    0.0
2261 237974   47.833973848    7.596186227   283.8541   6  11   1.3381   0.9971   2.1169   1.0112   0.9330   1.1020   0.00    0.0
2261 237975   47.833973936    7.596186442   283.8547   6  11   1.3302   0.9912   2.1089   1.0043   0.9281   1.0953   0.00    0.0
2261 237976   47.833973945    7.596186594   283.8603   6  11   1.3224   0.9853   2.1010   0.9976   0.9233   1.0887   0.00    0.0
2261 237977   47.833974016    7.596186750   283.8590   6  11   1.3147   0.9796   2.0932   0.9910   0.9185   1.0823   0.00    0.0
2261 237978   47.833973993    7.596186808   283.8546   6  11   1.3071   0.9740   2.0855   0.9846   0.9139   1.0759   0.00    0.0
2261 237979   47.833973875    7.596186771   283.8600   6  11   1.2997   0.9685   2.0779   0.9782   0.9093   1.0697   0.00    0.0
2261 237980   47.833973911    7.596186878   283.8562   6  11   1.2924   0.9630   2.0704   0.9720   0.9048   1.0635   0.00    0.0
2261 237981   47.833973950    7.596187016   283.8558   6  11   1.2853   0.9577   2.0630   0.9659   0.9004   1.0575   0.00    0.0
2261 237982   47.833973900    7.596187074   283.8449   6  11   1.2783   0.9524   2.0557   0.9599   0.8960   1.0515   0.00    0.0
2261 237983   47.833973849    7.596187115   283.8361   6  11   1.2713   0.9473   2.0485   0.9540   0.8917   1.0457   0.00    0.0
2261 237984   47.833973871    7.596187277   283.8420   6  11   1.2645   0.9422   2.0413   0.9482   0.8875   1.0399   0.00    0.0
2261 237985   47.833973744    7.596187261   283.8362   6  11   1.2578   0.9372   2.0343   0.9425   0.8834   1.0343   0.00    0.0
2261 237986   47.833973673    7.596187274   283.8290   6  11   1.2512   0.9323   2.0273   0.9369   0.8793   1.0287   0.00    0.0
2261 237987   47.833973685    7.596187299   283.8251   6  11   1.2448   0.9275   2.0204   0.9314   0.8753   1.0232   0.00    0.0
2261 237988   47.833973724    7.596187467   283.8317   6  11   1.2384   0.9228   2.0136   0.9259   0.8714   1.0178   0.00    0.0
2261 237989   47.833973727    7.596187619   283.8404   6  11   1.2321   0.9181   2.0068   0.9206   0.8675   1.0125   0.00    0.0
2261 237990   47.833973709    7.596187652   283.8283   6  11   1.2259   0.9135   2.0002   0.9154   0.8636   1.0072   0.00    0.0
2261 237991   47.833973551    7.596187567   283.8333   6  11   1.2198   0.9089   1.9936   0.9102   0.8599   1.0020   0.00    0.0
2261 237992   47.833973494    7.596187575   283.8322   6  11   1.2138   0.9045   1.9871   0.9051   0.8562   0.9970   0.00    0.0
2261 237993   47.833973331    7.596187552   283.8280   6  11   1.2079   0.9001   1.9806   0.9001   0.8525   0.9919   0.00    0.0
2261 237994   47.833973362    7.596187685   283.8319   6  11   1.2021   0.8958   1.9742   0.8952   0.8489   0.9870   0.00    0.0
2261 237995   47.833973322    7.596187720   283.8289   6  11   1.1963   0.8915   1.9679   0.8903   0.8453   0.9821   0.00    0.0
2261 237996   47.833973236    7.596187714   283.8267   6  11   1.1907   0.8873   1.9617   0.8856   0.8418   0.9773   0.00    0.0
2261 237997   47.833973221    7.596187810   283.8251   6  11   1.1851   0.8831   1.9555   0.8809   0.8384   0.9726   0.00    0.0
2261 237998   47.833973136    7.596187747   283.8151   6  11   1.1796   0.8791   1.9494   0.8762   0.8350   0.9679   0.00    0.0
2261 237999   47.833973172    7.596187850   283.8283   6  11   1.1742   0.8750   1.9433   0.8717   0.8316   0.9633   0.00    0.0
2261 238000   47.833973142    7.596187874   283.8347   6  11   1.1688   0.8711   1.9374   0.8672   0.8283   0.9587   0.00    0.0
2261 238001   47.833973054    7.596187869   283.8369   6  11   1.1635   0.8672   1.9314   0.8627   0.8250   0.9543   0.00    0.0
2261 238002   47.833972950    7.596187854   283.8393   6  11   1.1583   0.8633   1.9256   0.8584   0.8218   0.9498   0.00    0.0
2261 238003   47.833972811    7.596187817   283.8380   6  11   1.1532   0.8595   1.9198   0.8541   0.8186   0.9455   0.00    0.0
2261 238004   47.833972787    7.596187872   283.8380   6  11   1.1481   0.8557   1.9140   0.8498   0.8155   0.9412   0.00    0.0
2261 238005   47.833972684    7.596187863   283.8356   6  11   1.1431   0.8520   1.9083   0.8456   0.8124   0.9369   0.00    0.0
2261 238006   47.833972650    7.596187862   283.8421   6  11   1.1382   0.8484   1.9027   0.8415   0.8093   0.9327   0.00    0.0
2261 238007   47.833972502    7.596187766   283.8260   6  11   1.1333   0.8448   1.8971   0.8374   0.8063   0.9286   0.00    0.0
2261 238008   47.833972448    7.596187810   283.8270   6  11   1.1285   0.8412   1.8916   0.8334   0.8033   0.9245   0.00    0.0
2261 238009   47.833972374    7.596187811   283.8394   6  11   1.1238   0.8377   1.8861   0.8295   0.8004   0.9204   0.00    0.0
2261 238010   47.833972434    7.596187890   283.8448   6  11   1.1191   0.8342   1.8807   0.8256   0.7975   0.9164   0.00    0.0
2261 238011   47.833972504    7.596188013   283.8613   6  11   1.1145   0.8308   1.8753   0.8217   0.7946   0.9125   0.00    0.0
2261 238012   47.833972485    7.596188008   283.8609   6  11   1.1099   0.8274   1.8700   0.8179   0.7918   0.9086   0.00    0.0
2261 238013   47.833972399    7.596187997   283.8711   6  11   1.1054   0.8241   1.8648   0.8141   0.7890   0.9048   0.00    0.0
2261 238014   47.833972430    7.596188067   283.8841   6  11   1.1009   0.8208   1.8595   0.8104   0.7862   0.9010   0.00    0.0
2261 238015   47.833972364    7.596188057   283.8873   6  11   1.0965   0.8175   1.8544   0.8068   0.7835   0.8972   0.00    0.0
2261 238016   47.833972369    7.596188065   283.8900   6  11   1.0922   0.8143   1.8493   0.8032   0.7808   0.8935   0.00    0.0
2261 238017   47.833972209    7.596187966   283.8780   6  11   1.0879   0.8111   1.8442   0.7996   0.7781   0.8898   0.00    0.0
2261 238018   47.833972287    7.596188072   283.8956   6  11   1.0836   0.8080   1.8391   0.7961   0.7754   0.8862   0.00    0.0
2261 238019   47.833972348    7.596188198   283.9071   6  11   1.0794   0.8049   1.8342   0.7926   0.7728   0.8826   0.00    0.0
2261 238020   47.833972310    7.596188193   283.9063   6  11   1.0753   0.8018   1.8292   0.7892   0.7702   0.8791   0.00    0.0
2261 238021   47.833972215    7.596188166   283.9052   6  11   1.0712   0.7988   1.8243   0.7858   0.7677   0.8756   0.00    0.0
2261 238022   47.833972240    7.596188234   283.9172   6  11   1.0671   0.7958   1.8195   0.7824   0.7652   0.8721   0.00    0.0
2261 238023   47.833972218    7.596188259   283.9227   6  11   1.0631   0.7928   1.8147   0.7791   0.7627   0.8687   0.00    0.0
2261 238024   47.833972197    7.596188223   283.9282   6  11   1.0591   0.7899   1.8099   0.7758   0.7602   0.8653   0.00    0.0
2261 238025   47.833972164    7.596188220   283.9259   6  11   1.0552   0.7870   1.8052   0.7726   0.7577   0.8620   0.00    0.0
2261 238026   47.833972143    7.596188198   283.9265   6  11   1.0514   0.7841   1.8005   0.7694   0.7553   0.8587   0.00    0.0
2261 238027   47.833972093    7.596188165   283.9359   6  11   1.0475   0.7813   1.7958   0.7663   0.7529   0.8554   0.00    0.0
2261 238028   47.833971996    7.596188081   283.9298   6  11   1.0437   0.7785   1.7912   0.7631   0.7506   0.8522   0.00    0.0
2261 238029   47.833972053    7.596188179   283.9433   6  11   1.0400   0.7757   1.7867   0.7600   0.7482   0.8490   0.00    0.0
2261 238030   47.833972102    7.596188223   283.9524   6  11   1.0363   0.7730   1.7821   0.7570   0.7459   0.8458   0.00    0.0
2261 238031   47.833972214    7.596188344   283.9630   6  11   1.0326   0.7703   1.7777   0.7540   0.7436   0.8427   0.00    0.0
2261 238032   47.833972165    7.596188325   283.9690   6  11   1.0290   0.7676   1.7732   0.7510   0.7413   0.8396   0.00    0.0
2261 238033   47.833972134    7.596188274   283.9631   6  11   1.0254   0.7649   1.7688   0.7480   0.7391   0.8365   0.00    0.0
2261 238034   47.833971986    7.596188133   283.9484   6  11   1.0218   0.7623   1.7644   0.7451   0.7369   0.8335   0.00    0.0
2261 238035   47.833972028    7.596188173   283.9531   6  11   1.0183   0.7597   1.7601   0.7422   0.7347   0.8305   0.00    0.0
2261 238036   47.833972114    7.596188212   283.9612   6  11   1.0148   0.7571   1.7558   0.7394   0.7325   0.8275   0.00    0.0
2261 238037   47.833972104    7.596188202   283.9607   6  11   1.0114   0.7546   1.7515   0.7366   0.7303   0.8246   0.00    0.0
2261 238038   47.833972171    7.596188289   283.9764   6  11   1.0079   0.7521   1.7472   0.7338   0.7282   0.8217   0.00    0.0
2261 238039   47.833972223    7.596188385   283.9774   6  11   1.0046   0.7496   1.7430   0.7310   0.7261   0.8188   0.00    0.0
2261 238040   47.833972138    7.596188350   283.9752   6  11   1.0012   0.7471   1.7389   0.7283   0.7240   0.8159   0.00    0.0
2261 238041   47.833972073    7.596188262   283.9707   6  11   0.9979   0.7447   1.7347   0.7256   0.7219   0.8131   0.00    0.0
2261 238042   47.833972134    7.596188330   283.9767   6  11   0.9946   0.7422   1.7306   0.7229   0.7199   0.8103   0.00    0.0
2261 238043   47.833972152    7.596188357   283.9828   6  11   0.9914   0.7399   1.7265   0.7203   0.7178   0.8076   0.00    0.0
2261 238044   47.833972185    7.596188427   283.9797   6  11   0.9882   0.7375   1.7225   0.7176   0.7158   0.8048   0.00    0.0
2261 238045   47.833972189    7.596188430   283.9743   6  11   0.9850   0.7351   1.7185   0.7151   0.7138   0.8021   0.00    0.0
2261 238046   47.833972221    7.596188487   283.9830   6  11   0.9818   0.7328   1.7145   0.7125   0.7118   0.7994   0.00    0.0
2261 238047   47.833972186    7.596188479   283.9839   6  11   0.9787   0.7305   1.7105   0.7099   0.7099   0.7968   0.00    0.0
2261 238048   47.833972163    7.596188481   283.9759   6  11   0.9756   0.7282   1.7066   0.7074   0.7079   0.7941   0.00    0.0
2261 238049   47.833972225    7.596188579   283.9787   6  11   0.9725   0.7260   1.7027   0.7049   0.7060   0.7915   0.00    0.0
2261 238050   47.833972161    7.596188537   283.9665   6  11   0.9695   0.7237   1.6989   0.7025   0.7041   0.7889   0.00    0.0
2261 238051   47.833972042    7.596188438   283.9538   6  11   0.9665   0.7215   1.6950   0.7000   0.7022   0.7864   0.00    0.0
2261 238052   47.833972049    7.596188448   283.9531   6  11   0.9635   0.7193   1.6912   0.6976   0.7003   0.7838   0.00    0.0
2261 238053   47.833971980    7.596188400   283.9502   6  11   0.9605   0.7171   1.6874   0.6952   0.6985   0.7813   0.00    0.0
2261 238054   47.833971934    7.596188377   283.9464   6  11   0.9576   0.7150   1.6837   0.6929   0.6966   0.7788   0.00    0.0
2261 238055   47.833971899    7.596188386   283.9448   6  11   0.9547   0.7129   1.6800   0.6905   0.6948   0.7763   0.00    0.0
2261 238056   47.833971822    7.596188354   283.9351   6  11   0.9518   0.7107   1.6763   0.6882   0.6930   0.7739   0.00    0.0
2261 238057   47.833971796    7.596188308   283.9347   6  11   0.9490   0.7086   1.6726   0.6859   0.6912   0.7715   0.00    0.0
2261 238058   47.833971806    7.596188313   283.9321   6  11   0.9462   0.7066   1.6690   0.6836   0.6894   0.7691   0.00    0.0
2261 238059   47.833971695    7.596188214   283.9192   6  11   0.9434   0.7045   1.6653   0.6813   0.6876   0.7667   0.00    0.0
2261 238060   47.833971636    7.596188180   283.9164   6  11   0.9406   0.7025   1.6618   0.6791   0.6859   0.7643   0.00    0.0
2261 238061   47.833971563    7.596188137   283.9114   6  11   0.9378   0.7004   1.6582   0.6769   0.6842   0.7620   0.00    0.0
2261 238062   47.833971633    7.596188210   283.9153   6  11   0.9351   0.6984   1.6547   0.6747   0.6824   0.7596   0.00    0.0
2261 238063   47.833971639    7.596188206   283.9124   6  11   0.9324   0.6964   1.6511   0.6725   0.6807   0.7573   0.00    0.0
2261 238064   47.833971580    7.596188174   283.9129   6  11   0.9297   0.6945   1.6476   0.6704   0.6790   0.7551   0.00    0.0
2261 238065   47.833971503    7.596188124   283.9082   6  11   0.9271   0.6925   1.6442   0.6682   0.6774   0.7528   0.00    0.0
2261 238066   47.833971543    7.596188207   283.9152   6  11   0.9244   0.6906   1.6407   0.6661   0.6757   0.7506   0.00    0.0
2261 238067   47.833971538    7.596188191   283.9209   6  11   0.9218   0.6887   1.6373   0.6640   0.6740   0.7483   0.00    0.0
2261 238068   47.833971441    7.596188123   283.9167   6  11   0.9192   0.6868   1.6339   0.6619   0.6724   0.7461   0.00    0.0
2261 238069   47.833971310    7.596188002   283.8985   6  11   0.9167   0.6849   1.6305   0.6599   0.6708   0.7440   0.00    0.0
2261 238070   47.833971208    7.596187919   283.8834   6  11   0.9141   0.6830   1.6272   0.6578   0.6692   0.7418   0.00    0.0
2261 238071   47.833971173    7.596187870   283.8811   6  11   0.9116   0.6811   1.6239   0.6558   0.6676   0.7396   0.00    0.0
2261 238072   47.833971058    7.596187742   283.8673   6  11   0.9091   0.6793   1.6206   0.6538   0.6660   0.7375   0.00    0.0
2261 238073   47.833971034    7.596187721   283.8625   6  11   0.9066   0.6775   1.6173   0.6518   0.6644   0.7354   0.00    0.0
2261 238074   47.833971031    7.596187706   283.8587   6  11   0.9041   0.6757   1.6140   0.6498   0.6629   0.7333   0.00    0.0
2261 238075   47.833970920    7.596187566   283.8439   6  11   0.9017   0.6739   1.6108   0.6479   0.6613   0.7312   0.00    0.0
2261 238076   47.833970884    7.596187485   283.8393   6  11   0.8993   0.6721   1.6076   0.6459   0.6598   0.7292   0.00    0.0
2261 238077   47.833970941    7.596187494   283.8438   6  11   0.8969   0.6703   1.6044   0.6440   0.6582   0.7271   0.00    0.0
2261 238078   47.833971007    7.596187562   283.8569   6  11   0.8945   0.6686   1.6012   0.6421   0.6567   0.7251   0.00    0.0
2261 238079   47.833971035    7.596187560   283.8481   6  11   0.8921   0.6668   1.5980   0.6402   0.6552   0.7231   0.00    0.0
2261 238080   47.833970889    7.596187429   283.8325   6  13   0.8895   0.6648   1.5927   0.6381   0.6525   0.7202   0.00    0.0
2261 238081   47.833970966    7.596187487   283.8372   6  13   0.8870   0.6629   1.5874   0.6361   0.6499   0.7174   0.00    0.0
2261 238082   47.833970987    7.596187503   283.8457   6  13   0.8845   0.6609   1.5821   0.6340   0.6473   0.7147   0.00    0.0
2261 238083   47.833971000    7.596187485   283.8526   6  13   0.8820   0.6590   1.5770   0.6320   0.6447   0.7119   0.00    0.0
2261 238084   47.833971006    7.596187445   283.8510   6  13   0.8795   0.6571   1.5718   0.6300   0.6421   0.7092   0.00    0.0
2261 238085   47.833970979    7.596187398   283.8467   6  13   0.8771   0.6552   1.5667   0.6280   0.6396   0.7065   0.00    0.0
2261 238086   47.833970961    7.596187346   283.8365   6  13   0.8747   0.6533   1.5617   0.6261   0.6371   0.7039   0.00    0.0
2261 238087   47.833970929    7.596187322   283.8325   6  13   0.8723   0.6515   1.5567   0.6241   0.6346   0.7012   0.00    0.0
2261 238088   47.833970936    7.596187299   283.8395   6  13   0.8699   0.6496   1.5518   0.6222   0.6322   0.6986   0.00    0.0
2261 238089   47.833970923    7.596187304   283.8456   6  13   0.8675   0.6478   1.5469   0.6203   0.6298   0.6961   0.00    0.0
2261 238090   47.833970892    7.596187287   283.8403   6  13   0.8652   0.6460   1.5421   0.6184   0.6274   0.6935   0.00    0.0
2261 238091   47.833970849    7.596187219   283.8387   6  13   0.8628   0.6442   1.5373   0.6165   0.6250   0.6910   0.00    0.0
2261 238092   47.833970870    7.596187248   283.8464   6  13   0.8605   0.6424   1.5326   0.6146   0.6227   0.6885   0.00    0.0
2261 238093   47.833970905    7.596187264   283.8448   6  13   0.8582   0.6406   1.5279   0.6128   0.6203   0.6860   0.00    0.0
2261 238094   47.833970910    7.596187240   283.8393   6  13   0.8560   0.6389   1.5233   0.6110   0.6180   0.6836   0.00    0.0
2261 238095   47.833970895    7.596187191   283.8325   6  13   0.8537   0.6372   1.5187   0.6091   0.6158   0.6812   0.00    0.0
2261 238096   47.833970909    7.596187179   283.8338   6  13   0.8515   0.6354   1.5141   0.6073   0.6135   0.6788   0.00    0.0
2261 238097   47.833971002    7.596187224   283.8327   6  13   0.8493   0.6337   1.5096   0.6056   0.6113   0.6764   0.00    0.0
2261 238098   47.833971046    7.596187242   283.8337   6  13   0.8471   0.6320   1.5051   0.6038   0.6091   0.6741   0.00    0.0
2261 238099   47.833971027    7.596187207   283.8339   6  13   0.8449   0.6303   1.5007   0.6020   0.6069   0.6718   0.00    0.0
2261 238100   47.833971040    7.596187202   283.8338   6  13   0.8427   0.6287   1.4963   0.6003   0.6047   0.6695   0.00    0.0
2261 238101   47.833971109    7.596187238   283.8371   6  13   0.8406   0.6270   1.4920   0.5986   0.6026   0.6672   0.00    0.0
2261 238102   47.833971071    7.596187224   283.8420   6  13   0.8384   0.6254   1.4877   0.5969   0.6005   0.6649   0.00    0.0
2261 238103   47.833971075    7.596187232   283.8413   6  13   0.8363   0.6238   1.4834   0.5952   0.5984   0.6627   0.00    0.0
2261 238104   47.833971139    7.596187297   283.8495   6  13   0.8342   0.6221   1.4792   0.5935   0.5963   0.6605   0.00    0.0
2261 238105   47.833971147    7.596187307   283.8511   6  13   0.8322   0.6205   1.4750   0.5918   0.5943   0.6583   0.00    0.0
2261 238106   47.833971188    7.596187327   283.8547   6  13   0.8301   0.6190   1.4709   0.5902   0.5922   0.6561   0.00    0.0
2261 238107   47.833971169    7.596187297   283.8527   6  13   0.8280   0.6174   1.4668   0.5886   0.5902   0.6540   0.00    0.0
2261 238108   47.833971176    7.596187290   283.8575   6  13   0.8260   0.6158   1.4627   0.5869   0.5882   0.6519   0.00    0.0
2261 238109   47.833971151    7.596187238   283.8534   6  13   0.8240   0.6143   1.4587   0.5853   0.5862   0.6498   0.00    0.0
2261 238110   47.833971163    7.596187253   283.8619   6  13   0.8220   0.6127   1.4547   0.5837   0.5843   0.6477   0.00    0.0
2261 238111   47.833971129    7.596187227   283.8646   6  13   0.8200   0.6112   1.4507   0.5821   0.5823   0.6456   0.00    0.0
2261 238112   47.833971174    7.596187235   283.8561   6  13   0.8180   0.6097   1.4468   0.5806   0.5804   0.6436   0.00    0.0
2261 238113   47.833971197    7.596187236   283.8551   6  13   0.8160   0.6082   1.4429   0.5790   0.5785   0.6415   0.00    0.0
2261 238114   47.833971151    7.596187144   283.8462   6  13   0.8141   0.6067   1.4390   0.5775   0.5766   0.6395   0.00    0.0
2261 238115   47.833971135    7.596187076   283.8414   6  13   0.8121   0.6052   1.4352   0.5759   0.5747   0.6375   0.00    0.0
2261 238116   47.833971153    7.596187058   283.8487   6  13   0.8102   0.6037   1.4314   0.5744   0.5729   0.6356   0.00    0.0
2261 238117   47.833971136    7.596187012   283.8571   6  13   0.8083   0.6023   1.4276   0.5729   0.5711   0.6336   0.00    0.0
2261 238118   47.833971117    7.596186990   283.8534   6  13   0.8064   0.6008   1.4239   0.5714   0.5692   0.6317   0.00    0.0
2261 238119   47.833971113    7.596186954   283.8601   6  13   0.8045   0.5994   1.4202   0.5699   0.5674   0.6297   0.00    0.0
2261 238120   47.833971122    7.596186929   283.8593   6  13   0.8027   0.5979   1.4165   0.5684   0.5656   0.6278   0.00    0.0
2261 238121   47.833971104    7.596186844   283.8554   6  13   0.8008   0.5965   1.4129   0.5669   0.5639   0.6259   0.00    0.0
2261 238122   47.833971075    7.596186812   283.8607   6  13   0.7990   0.5951   1.4093   0.5655   0.5621   0.6241   0.00    0.0
2261 238123   47.833971083    7.596186778   283.8573   6  13   0.7972   0.5937   1.4057   0.5640   0.5604   0.6222   0.00    0.0
2261 238124   47.833971057    7.596186725   283.8546   6  13   0.7953   0.5923   1.4021   0.5626   0.5587   0.6204   0.00    0.0
2261 238125   47.833970988    7.596186641   283.8549   6  13   0.7935   0.5909   1.3986   0.5612   0.5569   0.6186   0.00    0.0
2261 238126   47.833970954    7.596186602   283.8508   6  13   0.7917   0.5896   1.3951   0.5598   0.5552   0.6167   0.00    0.0
2261 238127   47.833970984    7.596186631   283.8552   6  13   0.7900   0.5882   1.3916   0.5584   0.5536   0.6150   0.00    0.0
2261 238128   47.833970963    7.596186612   283.8531   6  13   0.7882   0.5869   1.3882   0.5570   0.5519   0.6132   0.00    0.0
2261 238129   47.833970943    7.596186595   283.8537   6  13   0.7864   0.5855   1.3848   0.5556   0.5502   0.6114   0.00    0.0
2261 238130   47.833970954    7.596186595   283.8565   6  13   0.7847   0.5842   1.3814   0.5542   0.5486   0.6097   0.00    0.0
2261 238131   47.833970891    7.596186560   283.8554   6  13   0.7830   0.5829   1.3780   0.5529   0.5470   0.6079   0.00    0.0
2261 238132   47.833970882    7.596186524   283.8502   6  13   0.7812   0.5816   1.3747   0.5515   0.5454   0.6062   0.00    0.0
2261 238133   47.833970856    7.596186515   283.8475   6  13   0.7795   0.5803   1.3714   0.5502   0.5438   0.6045   0.00    0.0
2261 238134   47.833970842    7.596186509   283.8465   6  13   0.7778   0.5790   1.3681   0.5488   0.5422   0.6028   0.00    0.0
2261 238135   47.833970863    7.596186515   283.8436   6  13   0.7761   0.5777   1.3649   0.5475   0.5406   0.6011   0.00    0.0
2261 238136   47.833970812    7.596186473   283.8406   6  13   0.7745   0.5764   1.3616   0.5462   0.5391   0.5995   0.00    0.0
2261 238137   47.833970863    7.596186515   283.8425   6  13   0.7728   0.5751   1.3584   0.5449   0.5375   0.5978   0.00    0.0
2261 238138   47.833970885    7.596186539   283.8458   6  13   0.7711   0.5739   1.3552   0.5436   0.5360   0.5962   0.00    0.0
2261 238139   47.833970879    7.596186575   283.8550   6  13   0.7695   0.5726   1.3521   0.5423   0.5345   0.5946   0.00    0.0
2261 238140   47.833970819    7.596186517   283.8516   6  13   0.7679   0.5714   1.3490   0.5410   0.5330   0.5930   0.00    0.0
2261 238141   47.833970816    7.596186508   283.8518   6  13   0.7662   0.5701   1.3458   0.5397   0.5315   0.5914   0.00    0.0
2261 238142   47.833970814    7.596186505   283.8549   6  13   0.7646   0.5689   1.3428   0.5385   0.5300   0.5898   0.00    0.0
2261 238143   47.833970805    7.596186505   283.8634   6  13   0.7630   0.5677   1.3397   0.5372   0.5285   0.5882   0.00    0.0
2261 238144   47.833970789    7.596186513   283.8706   6  13   0.7614   0.5665   1.3367   0.5360   0.5270   0.5866   0.00    0.0
2261 238145   47.833970716    7.596186418   283.8675   6  14   0.7598   0.5653   1.3328   0.5347   0.5255   0.5847   0.00    0.0
2261 238146   47.833970739    7.596186435   283.8731   6  14   0.7582   0.5641   1.3290   0.5335   0.5240   0.5829   0.00    0.0
2261 238147   47.833970687    7.596186395   283.8707   6  14   0.7566   0.5629   1.3252   0.5322   0.5225   0.5810   0.00    0.0
2261 238148   47.833970703    7.596186415   283.8707   6  14   0.7550   0.5617   1.3214   0.5310   0.5210   0.5791   0.00    0.0
2261 238149   47.833970719    7.596186433   283.8745   6  14   0.7534   0.5605   1.3177   0.5298   0.5195   0.5773   0.00    0.0
2261 238150   47.833970668    7.596186409   283.8758   6  14   0.7518   0.5593   1.3140   0.5286   0.5181   0.5755   0.00    0.0
2261 238151   47.833970634    7.596186388   283.8762   6  14   0.7502   0.5582   1.3103   0.5274   0.5166   0.5737   0.00    0.0
2261 238152   47.833970635    7.596186416   283.8778   6  14   0.7487   0.5570   1.3067   0.5262   0.5152   0.5719   0.00    0.0
2261 238153   47.833970634    7.596186403   283.8769   6  14   0.7471   0.5559   1.3031   0.5250   0.5137   0.5701   0.00    0.0
2261 238154   47.833970608    7.596186359   283.8774   6  14   0.7456   0.5547   1.2995   0.5238   0.5123   0.5684   0.00    0.0
2261 238155   47.833970592    7.596186354   283.8795   6  14   0.7440   0.5536   1.2960   0.5227   0.5109   0.5666   0.00    0.0
2261 238156   47.833970597    7.596186360   283.8782   6  14   0.7425   0.5525   1.2925   0.5215   0.5095   0.5649   0.00    0.0
2261 238157   47.833970630    7.596186395   283.8808   6  14   0.7410   0.5513   1.2890   0.5203   0.5081   0.5632   0.00    0.0
2261 238158   47.833970617    7.596186391   283.8784   6  14   0.7395   0.5502   1.2855   0.5192   0.5068   0.5615   0.00    0.0
2261 238159   47.833970565    7.596186340   283.8728   6  14   0.7380   0.5491   1.2821   0.5181   0.5054   0.5598   0.00    0.0
2261 238160   47.833970562    7.596186337   283.8703   6  14   0.7365   0.5480   1.2787   0.5169   0.5040   0.5582   0.00    0.0
2261 238161   47.833970567    7.596186332   283.8655   6  14   0.7350   0.5469   1.2754   0.5158   0.5027   0.5565   0.00    0.0
2261 238162   47.833970569    7.596186349   283.8626   6  14   0.7336   0.5459   1.2720   0.5147   0.5014   0.5549   0.00    0.0
2261 238163   47.833970530    7.596186339   283.8592   6  14   0.7321   0.5448   1.2687   0.5136   0.5000   0.5532   0.00    0.0
2261 238164   47.833970560    7.596186374   283.8607   6  14   0.7307   0.5437   1.2654   0.5125   0.4987   0.5516   0.00    0.0
2261 238165   47.833970540    7.596186378   283.8572   6  14   0.7292   0.5426   1.2622   0.5114   0.4974   0.5500   0.00    0.0
2261 238166   47.833970567    7.596186421   283.8598   6  14   0.7278   0.5416   1.2590   0.5103   0.4961   0.5484   0.00    0.0
2261 238167   47.833970550    7.596186437   283.8586   6  14   0.7264   0.5405   1.2558   0.5092   0.4949   0.5468   0.00    0.0
2261 238168   47.833970569    7.596186467   283.8636   6  14   0.7249   0.5395   1.2526   0.5081   0.4936   0.5453   0.00    0.0
2261 238169   47.833970525    7.596186423   283.8602   6  14   0.7235   0.5384   1.2494   0.5070   0.4923   0.5437   0.00    0.0
2261 238170   47.833970521    7.596186442   283.8636   6  14   0.7221   0.5374   1.2463   0.5060   0.4911   0.5422   0.00    0.0
2261 238171   47.833970448    7.596186367   283.8665   6  14   0.7207   0.5364   1.2432   0.5049   0.4898   0.5406   0.00    0.0
2261 238172   47.833970411    7.596186333   283.8629   6  14   0.7194   0.5353   1.2401   0.5039   0.4886   0.5391   0.00    0.0
2261 238173   47.833970393    7.596186317   283.8639   6  14   0.7180   0.5343   1.2371   0.5028   0.4874   0.5376   0.00    0.0
2261 238174   47.833970376    7.596186312   283.8673   6  14   0.7166   0.5333   1.2340   0.5018   0.4862   0.5361   0.00    0.0
2261 238175   47.833970330    7.596186270   283.8648   6  14   0.7152   0.5323   1.2310   0.5008   0.4849   0.5346   0.00    0.0
2261 238176   47.833970285    7.596186204   283.8580   6  14   0.7139   0.5313   1.2281   0.4997   0.4837   0.5332   0.00    0.0
2261 238177   47.833970263    7.596186169   283.8571   6  14   0.7125   0.5303   1.2251   0.4987   0.4826   0.5317   0.00    0.0
2261 238178   47.833970247    7.596186140   283.8517   6  14   0.7112   0.5293   1.2222   0.4977   0.4814   0.5303   0.00    0.0
2261 238179   47.833970242    7.596186137   283.8527   6  14   0.7099   0.5283   1.2192   0.4967   0.4802   0.5288   0.00    0.0
2261 238180   47.833970175    7.596186056   283.8454   6  14   0.7086   0.5273   1.2164   0.4957   0.4790   0.5274   0.00    0.0
2261 238181   47.833970134    7.596186026   283.8386   6  14   0.7072   0.5264   1.2135   0.4947   0.4779   0.5260   0.00    0.0
2261 238182   47.833970077    7.596186004   283.8303   6  14   0.7059   0.5254   1.2106   0.4937   0.4767   0.5246   0.00    0.0
2261 238183   47.833970039    7.596185983   283.8258   6  14   0.7046   0.5244   1.2078   0.4927   0.4756   0.5232   0.00    0.0
2261 238184   47.833969997    7.596185973   283.8189   6  14   0.7033   0.5235   1.2050   0.4917   0.4745   0.5218   0.00    0.0
2261 238185   47.833969981    7.596185949   283.8152   6  14   0.7020   0.5225   1.2022   0.4908   0.4733   0.5204   0.00    0.0
2261 238186   47.833969928    7.596185885   283.8148   6  14   0.7008   0.5216   1.1994   0.4898   0.4722   0.5190   0.00    0.0
2261 238187   47.833969893    7.596185840   283.8058   6  14   0.6995   0.5206   1.1967   0.4888   0.4711   0.5177   0.00    0.0
2261 238188   47.833969848    7.596185809   283.8005   6  14   0.6982   0.5197   1.1940   0.4879   0.4700   0.5163   0.00    0.0
2261 238189   47.833969818    7.596185785   283.7963   6  14   0.6970   0.5188   1.1913   0.4869   0.4689   0.5150   0.00    0.0
2261 238190   47.833969760    7.596185742   283.7925   6  14   0.6957   0.5178   1.1886   0.4860   0.4678   0.5137   0.00    0.0
2261 238191   47.833969770    7.596185748   283.7930   6  14   0.6945   0.5169   1.1859   0.4850   0.4667   0.5123   0.00    0.0
2261 238192   47.833969735    7.596185736   283.7879   6  14   0.6932   0.5160   1.1832   0.4841   0.4657   0.5110   0.00    0.0
2261 238193   47.833969729    7.596185703   283.7910   6  14   0.6920   0.5151   1.1806   0.4832   0.4646   0.5097   0.00    0.0
2261 238194   47.833969766    7.596185708   283.7920   6  14   0.6908   0.5142   1.1780   0.4822   0.4635   0.5084   0.00    0.0
2261 238195   47.833969759    7.596185720   283.7877   6  14   0.6895   0.5133   1.1754   0.4813   0.4625   0.5072   0.00    0.0
2261 238196   47.833969784    7.596185753   283.7908   6  14   0.6883   0.5124   1.1728   0.4804   0.4614   0.5059   0.00    0.0
2261 238197   47.833969786    7.596185754   283.7873   6  14   0.6871   0.5115   1.1703   0.4795   0.4604   0.5046   0.00    0.0
2261 238198   47.833969789    7.596185770   283.7879   6  14   0.6859   0.5106   1.1677   0.4786   0.4594   0.5034   0.00    0.0
2261 238199   47.833969766    7.596185769   283.7832   6  14   0.6847   0.5097   1.1652   0.4777   0.4583   0.5021   0.00    0.0
2261 238200   47.833969704    7.596185713   283.7819   6  15   0.6825   0.5084   1.1621   0.4760   0.4565   0.4995   0.00    0.0
2261 238201   47.833969622    7.596185659   283.7741   6  15   0.6804   0.5071   1.1591   0.4743   0.4546   0.4970   0.00    0.0
2261 238202   47.833969579    7.596185613   283.7695   6  15   0.6782   0.5058   1.1561   0.4726   0.4528   0.4944   0.00    0.0
2261 238203   47.833969553    7.596185587   283.7674   6  15   0.6761   0.5045   1.1531   0.4709   0.4510   0.4919   0.00    0.0
2261 238204   47.833969526    7.596185564   283.7597   6  15   0.6740   0.5032   1.1501   0.4692   0.4492   0.4895   0.00    0.0
2261 238205   47.833969422    7.596185465   283.7463   6  15   0.6719   0.5019   1.1472   0.4676   0.4475   0.4870   0.00    0.0
2261 238206   47.833969267    7.596185354   283.7358   6  15   0.6698   0.5007   1.1443   0.4660   0.4457   0.4846   0.00    0.0
2261 238207   47.833969234    7.596185338   283.7341   6  15   0.6678   0.4994   1.1414   0.4644   0.4440   0.4822   0.00    0.0
2261 238208   47.833969199    7.596185304   283.7335   6  15   0.6657   0.4982   1.1386   0.4628   0.4423   0.4799   0.00    0.0
2261 238209   47.833969127    7.596185260   283.7298   6  15   0.6637   0.4970   1.1357   0.4612   0.4406   0.4775   0.00    0.0
2261 238210   47.833969062    7.596185232   283.7200   6  15   0.6617   0.4958   1.1329   0.4596   0.4389   0.4752   0.00    0.0
2261 238211   47.833969008    7.596185206   283.7127   6  15   0.6597   0.4946   1.1301   0.4581   0.4373   0.4729   0.00    0.0
2261 238212   47.833968940    7.596185151   283.7011   6  15   0.6578   0.4934   1.1274   0.4566   0.4356   0.4707   0.00    0.0
2261 238213   47.833968907    7.596185150   283.6991   6  15   0.6559   0.4922   1.1247   0.4550   0.4340   0.4684   0.00    0.0
2261 238214   47.833968820    7.596185075   283.6849   6  15   0.6539   0.4910   1.1219   0.4535   0.4324   0.4662   0.00    0.0
2261 238215   47.833968726    7.596185016   283.6728   6  15   0.6520   0.4898   1.1193   0.4521   0.4308   0.4640   0.00    0.0
2261 238216   47.833968650    7.596184962   283.6642   6  15   0.6502   0.4887   1.1166   0.4506   0.4293   0.4618   0.00    0.0
2261 238217   47.833968587    7.596184910   283.6557   6  15   0.6483   0.4875   1.1140   0.4491   0.4277   0.4597   0.00    0.0
2261 238218   47.833968508    7.596184882   283.6475   6  15   0.6464   0.4864   1.1113   0.4477   0.4262   0.4576   0.00    0.0
2261 238219   47.833968414    7.596184810   283.6359   6  15   0.6446   0.4853   1.1087   0.4462   0.4247   0.4554   0.00    0.0
2261 238220   47.833968307    7.596184746   283.6257   6  15   0.6428   0.4842   1.1062   0.4448   0.4232   0.4534   0.00    0.0
2261 238221   47.833968229    7.596184691   283.6177   6  15   0.6410   0.4831   1.1036   0.4434   0.4217   0.4513   0.00    0.0
2261 238222   47.833968139    7.596184624   283.6034   6  15   0.6392   0.4820   1.1011   0.4420   0.4202   0.4493   0.00    0.0
2261 238223   47.833968092    7.596184607   283.5932   6  15   0.6374   0.4809   1.0986   0.4406   0.4187   0.4472   0.00    0.0
2261 238224   47.833968035    7.596184593   283.5815   6  15   0.6357   0.4798   1.0961   0.4393   0.4173   0.4452   0.00    0.0
2261 238225   47.833967974    7.596184568   283.5728   6  15   0.6339   0.4787   1.0936   0.4379   0.4158   0.4432   0.00    0.0
2261 238226   47.833967832    7.596184451   283.5557   6  15   0.6322   0.4776   1.0911   0.4366   0.4144   0.4413   0.00    0.0
2261 238227   47.833967737    7.596184399   283.5472   6  15   0.6305   0.4766   1.0887   0.4352   0.4130   0.4393   0.00    0.0
2261 238228   47.833967667    7.596184364   283.5448   6  15   0.6288   0.4755   1.0863   0.4339   0.4116   0.4374   0.00    0.0
2261 238229   47.833967646    7.596184360   283.5400   6  15   0.6271   0.4745   1.0839   0.4326   0.4102   0.4355   0.00    0.0
2261 238230   47.833967535    7.596184296   283.5266   6  15   0.6255   0.4735   1.0815   0.4313   0.4089   0.4336   0.00    0.0
2261 238231   47.833967483    7.596184292   283.5201   6  15   0.6238   0.4724   1.0792   0.4300   0.4075   0.4317   0.00    0.0
2261 238232   47.833967388    7.596184236   283.5122   6  15   0.6222   0.4714   1.0768   0.4287   0.4062   0.4299   0.00    0.0
2261 238233   47.833967295    7.596184171   283.5000   6  15   0.6205   0.4704   1.0745   0.4275   0.4049   0.4280   0.00    0.0
2261 238234   47.833967302    7.596184196   283.5013   6  15   0.6189   0.4694   1.0722   0.4262   0.4035   0.4262   0.00    0.0
2261 238235   47.833967247    7.596184171   283.4962   6  15   0.6173   0.4684   1.0699   0.4250   0.4022   0.4244   0.00    0.0
2261 238236   47.833967181    7.596184114   283.4879   6  15   0.6157   0.4674   1.0676   0.4237   0.4009   0.4226   0.00    0.0
2261 238237   47.833967115    7.596184082   283.4852   6  15   0.6141   0.4664   1.0654   0.4225   0.3997   0.4209   0.00    0.0
2261 238238   47.833967006    7.596183995   283.4726   6  15   0.6126   0.4655   1.0631   0.4213   0.3984   0.4191   0.00    0.0
2261 238239   47.833966962    7.596183950   283.4662   6  15   0.6110   0.4645   1.0609   0.4201   0.3971   0.4174   0.00    0.0
2261 238240   47.833966922    7.596183915   283.4557   6  15   0.6095   0.4635   1.0587   0.4189   0.3959   0.4156   0.00    0.0
2261 238241   47.833966851    7.596183847   283.4456   6  15   0.6080   0.4626   1.0565   0.4177   0.3946   0.4139   0.00    0.0
2261 238242   47.833966811    7.596183833   283.4386   6  15   0.6065   0.4616   1.0544   0.4165   0.3934   0.4123   0.00    0.0
2261 238243   47.833966768    7.596183794   283.4351   6  15   0.6049   0.4607   1.0522   0.4154   0.3922   0.4106   0.00    0.0
